[
  {
    "school_index": 0,
    "school_name": "Heritage International School",
    "lat": 28.5084497,
    "lon": 77.166546,
    "has_hospital": true,
    "has_police_station": false,
    "has_fire_station": false,
    "dist_hospital_km": 1.349,
    "dist_police_km": 0.0,
    "dist_fire_km": 0.0,
    "emergency_safety_index": 14.05
  },
  {
    "school_index": 1,
    "school_name": "Deep Public School",
    "lat": 28.5117155,
    "lon": 77.1634819,
    "has_hospital": true,
    "has_police_station": false,
    "has_fire_station": false,
    "dist_hospital_km": 0.896,
    "dist_police_km": 0.0,
    "dist_fire_km": 0.0,
    "emergency_safety_index": 15.8
  },
  {
    "school_index": 2,
    "school_name": "Bhatnagar International School",
    "lat": 28.5295429,
    "lon": 77.1540449,
    "has_hospital": true,
    "has_police_station": true,
    "has_fire_station": false,
    "dist_hospital_km": 0.538,
    "dist_police_km": 0.672,
    "dist_fire_km": 0.0,
    "emergency_safety_index": 47.85
  },
  {
    "school_index": 3,
    "school_name": "School Of Social Sciences1",
    "lat": 28.5402759,
    "lon": 77.1670999,
    "has_hospital": true,
    "has_police_station": true,
    "has_fire_station": false,
    "dist_hospital_km": 1.028,
    "dist_police_km": 1.596,
    "dist_fire_km": 0.0,
    "emergency_safety_index": 40.15
  },
  {
    "school_index": 4,
    "school_name": "St Peters School",
    "lat": 28.4139784,
    "lon": 77.3139529,
    "has_hospital": true,
    "has_police_station": false,
    "has_fire_station": false,
    "dist_hospital_km": 0.268,
    "dist_police_km": 0.0,
    "dist_fire_km": 0.0,
    "emergency_safety_index": 18.21
  },
  {
    "school_index": 5,
    "school_name": "Ss Kindergarten",
    "lat": 28.4308351,
    "lon": 77.3165419,
    "has_hospital": true,
    "has_police_station": true,
    "has_fire_station": false,
    "dist_hospital_km": 0.267,
    "dist_police_km": 1.898,
    "dist_fire_km": 0.0,
    "emergency_safety_index": 42.65
  },
  {
    "school_index": 6,
    "school_name": "Tender Heart Ngo",
    "lat": 28.3859974,
    "lon": 77.3658672,
    "has_hospital": true,
    "has_police_station": false,
    "has_fire_station": false,
    "dist_hospital_km": 0.202,
    "dist_police_km": 0.0,
    "dist_fire_km": 0.0,
    "emergency_safety_index": 18.47
  },
  {
    "school_index": 7,
    "school_name": "Shemrock Little Orchids 2",
    "lat": 28.3847665,
    "lon": 77.3682735,
    "has_hospital": true,
    "has_police_station": false,
    "has_fire_station": false,
    "dist_hospital_km": 0.086,
    "dist_police_km": 0.0,
    "dist_fire_km": 0.0,
    "emergency_safety_index": 18.91
  },
  {
    "school_index": 8,
    "school_name": "Modern Delhi International School",
    "lat": 28.412628,
    "lon": 77.3361157,
    "has_hospital": true,
    "has_police_station": false,
    "has_fire_station": false,
    "dist_hospital_km": 0.758,
    "dist_police_km": 0.0,
    "dist_fire_km": 0.0,
    "emergency_safety_index": 16.33
  },
  {
    "school_index": 9,
    "school_name": "Amrita Vishwa Vidyapeetham",
    "lat": 28.4254853,
    "lon": 77.3574698,
    "has_hospital": true,
    "has_police_station": false,
    "has_fire_station": false,
    "dist_hospital_km": 0.064,
    "dist_police_km": 0.0,
    "dist_fire_km": 0.0,
    "emergency_safety_index": 19.0
  },
  {
    "school_index": 10,
    "school_name": "Government Sarvodaya Vidyalaya",
    "lat": 28.4588686,
    "lon": 77.1841549,
    "has_hospital": false,
    "has_police_station": false,
    "has_fire_station": false,
    "dist_hospital_km": 0.0,
    "dist_police_km": 0.0,
    "dist_fire_km": 0.0,
    "emergency_safety_index": 0.0
  },
  {
    "school_index": 11,
    "school_name": "Center For Knowledge Societies",
    "lat": 28.5029639,
    "lon": 77.1854026,
    "has_hospital": true,
    "has_police_station": false,
    "has_fire_station": false,
    "dist_hospital_km": 0.325,
    "dist_police_km": 0.0,
    "dist_fire_km": 0.0,
    "emergency_safety_index": 17.99
  },
  {
    "school_index": 12,
    "school_name": "Surjit Wasu Memorial Charitable School",
    "lat": 28.4957034,
    "lon": 77.220101,
    "has_hospital": true,
    "has_police_station": true,
    "has_fire_station": false,
    "dist_hospital_km": 1.641,
    "dist_police_km": 0.688,
    "dist_fire_km": 0.0,
    "emergency_safety_index": 41.76
  },
  {
    "school_index": 13,
    "school_name": "Modern Green Valley Public School",
    "lat": 28.4970991,
    "lon": 77.2239141,
    "has_hospital": true,
    "has_police_station": true,
    "has_fire_station": false,
    "dist_hospital_km": 1.281,
    "dist_police_km": 0.981,
    "dist_fire_km": 0.0,
    "emergency_safety_index": 42.12
  },
  {
    "school_index": 14,
    "school_name": "Saint Mary'S School",
    "lat": 28.5051676,
    "lon": 77.2061624,
    "has_hospital": true,
    "has_police_station": true,
    "has_fire_station": false,
    "dist_hospital_km": 0.689,
    "dist_police_km": 1.041,
    "dist_fire_km": 0.0,
    "emergency_safety_index": 45.02
  },
  {
    "school_index": 15,
    "school_name": "Ramanujan Sarvodaya Kanya Vidyalaya",
    "lat": 28.5231246,
    "lon": 77.1799665,
    "has_hospital": true,
    "has_police_station": true,
    "has_fire_station": false,
    "dist_hospital_km": 0.158,
    "dist_police_km": 0.396,
    "dist_fire_km": 0.0,
    "emergency_safety_index": 51.42
  },
  {
    "school_index": 16,
    "school_name": "Baba Banda Singh Bahadur Memorial Secondary School",
    "lat": 28.5217944,
    "lon": 77.1816408,
    "has_hospital": true,
    "has_police_station": true,
    "has_fire_station": false,
    "dist_hospital_km": 0.038,
    "dist_police_km": 0.609,
    "dist_fire_km": 0.0,
    "emergency_safety_index": 50.91
  },
  {
    "school_index": 17,
    "school_name": "Fore School Of Management",
    "lat": 28.5370038,
    "lon": 77.1849245,
    "has_hospital": true,
    "has_police_station": true,
    "has_fire_station": false,
    "dist_hospital_km": 0.38,
    "dist_police_km": 1.381,
    "dist_fire_km": 0.0,
    "emergency_safety_index": 44.85
  },
  {
    "school_index": 18,
    "school_name": "Saint Mary'S Junior School",
    "lat": 28.5123981,
    "lon": 77.203907,
    "has_hospital": true,
    "has_police_station": true,
    "has_fire_station": false,
    "dist_hospital_km": 0.171,
    "dist_police_km": 1.296,
    "dist_fire_km": 0.0,
    "emergency_safety_index": 46.45
  },
  {
    "school_index": 19,
    "school_name": "Little Millennium",
    "lat": 28.5130679,
    "lon": 77.2040027,
    "has_hospital": true,
    "has_police_station": true,
    "has_fire_station": false,
    "dist_hospital_km": 0.23,
    "dist_police_km": 1.222,
    "dist_fire_km": 0.0,
    "emergency_safety_index": 46.53
  },
  {
    "school_index": 20,
    "school_name": "Little Ones Public School",
    "lat": 28.519551,
    "lon": 77.2035198,
    "has_hospital": true,
    "has_police_station": true,
    "has_fire_station": false,
    "dist_hospital_km": 0.794,
    "dist_police_km": 0.637,
    "dist_fire_km": 0.0,
    "emergency_safety_index": 46.64
  },
  {
    "school_index": 21,
    "school_name": "Kendriya Vidyalaya",
    "lat": 28.5204901,
    "lon": 77.2239646,
    "has_hospital": true,
    "has_police_station": true,
    "has_fire_station": false,
    "dist_hospital_km": 0.783,
    "dist_police_km": 0.94,
    "dist_fire_km": 0.0,
    "emergency_safety_index": 45.05
  },
  {
    "school_index": 22,
    "school_name": "Darul Qur'An Madrasa Abdurrahman Tahfizul Qur'An",
    "lat": 28.5295756,
    "lon": 77.2143363,
    "has_hospital": true,
    "has_police_station": true,
    "has_fire_station": false,
    "dist_hospital_km": 0.088,
    "dist_police_km": 0.444,
    "dist_fire_km": 0.0,
    "emergency_safety_index": 51.54
  },
  {
    "school_index": 23,
    "school_name": "Sri Aurobindo College",
    "lat": 28.5328393,
    "lon": 77.2042952,
    "has_hospital": true,
    "has_police_station": true,
    "has_fire_station": false,
    "dist_hospital_km": 0.167,
    "dist_police_km": 0.242,
    "dist_fire_km": 0.0,
    "emergency_safety_index": 52.21
  },
  {
    "school_index": 24,
    "school_name": "Sdmc Pratibha Vidyalaya Kanya",
    "lat": 28.5368341,
    "lon": 77.2138353,
    "has_hospital": true,
    "has_police_station": true,
    "has_fire_station": false,
    "dist_hospital_km": 0.117,
    "dist_police_km": 0.71,
    "dist_fire_km": 0.0,
    "emergency_safety_index": 49.93
  },
  {
    "school_index": 25,
    "school_name": "S6 Bhim Singh Ni Was",
    "lat": 28.5309957,
    "lon": 77.218045,
    "has_hospital": true,
    "has_police_station": true,
    "has_fire_station": false,
    "dist_hospital_km": 0.399,
    "dist_police_km": 0.248,
    "dist_fire_km": 0.0,
    "emergency_safety_index": 50.91
  },
  {
    "school_index": 26,
    "school_name": "Sh Computer Education",
    "lat": 28.5309108,
    "lon": 77.2170319,
    "has_hospital": true,
    "has_police_station": true,
    "has_fire_station": false,
    "dist_hospital_km": 0.3,
    "dist_police_km": 0.321,
    "dist_fire_km": 0.0,
    "emergency_safety_index": 51.05
  },
  {
    "school_index": 27,
    "school_name": "Todllers Townn",
    "lat": 28.5353149,
    "lon": 77.2168348,
    "has_hospital": true,
    "has_police_station": true,
    "has_fire_station": false,
    "dist_hospital_km": 0.195,
    "dist_police_km": 0.379,
    "dist_fire_km": 0.0,
    "emergency_safety_index": 51.31
  },
  {
    "school_index": 28,
    "school_name": "Sant Nirankari",
    "lat": 28.535831,
    "lon": 77.2177052,
    "has_hospital": true,
    "has_police_station": true,
    "has_fire_station": false,
    "dist_hospital_km": 0.291,
    "dist_police_km": 0.377,
    "dist_fire_km": 0.0,
    "emergency_safety_index": 50.8
  },
  {
    "school_index": 29,
    "school_name": "Swarn Public School",
    "lat": 28.5330124,
    "lon": 77.2185763,
    "has_hospital": true,
    "has_police_station": true,
    "has_fire_station": false,
    "dist_hospital_km": 0.427,
    "dist_police_km": 0.092,
    "dist_fire_km": 0.0,
    "emergency_safety_index": 51.61
  },
  {
    "school_index": 30,
    "school_name": "Swarn Public School",
    "lat": 28.5332175,
    "lon": 77.219553,
    "has_hospital": true,
    "has_police_station": true,
    "has_fire_station": false,
    "dist_hospital_km": 0.345,
    "dist_police_km": 0.044,
    "dist_fire_km": 0.0,
    "emergency_safety_index": 52.32
  },
  {
    "school_index": 31,
    "school_name": "New Suriya Public School",
    "lat": 28.5043828,
    "lon": 77.2422016,
    "has_hospital": true,
    "has_police_station": false,
    "has_fire_station": false,
    "dist_hospital_km": 0.577,
    "dist_police_km": 0.0,
    "dist_fire_km": 0.0,
    "emergency_safety_index": 17.02
  },
  {
    "school_index": 32,
    "school_name": "K S K Academy",
    "lat": 28.5016344,
    "lon": 77.2476048,
    "has_hospital": true,
    "has_police_station": false,
    "has_fire_station": false,
    "dist_hospital_km": 0.205,
    "dist_police_km": 0.0,
    "dist_fire_km": 0.0,
    "emergency_safety_index": 18.46
  },
  {
    "school_index": 33,
    "school_name": "Jamia Hamdard",
    "lat": 28.5153806,
    "lon": 77.2502919,
    "has_hospital": true,
    "has_police_station": true,
    "has_fire_station": false,
    "dist_hospital_km": 0.162,
    "dist_police_km": 1.107,
    "dist_fire_km": 0.0,
    "emergency_safety_index": 47.53
  },
  {
    "school_index": 34,
    "school_name": "Mcd Primary School No 2",
    "lat": 28.5249774,
    "lon": 77.2351102,
    "has_hospital": true,
    "has_police_station": true,
    "has_fire_station": false,
    "dist_hospital_km": 0.131,
    "dist_police_km": 1.232,
    "dist_fire_km": 0.0,
    "emergency_safety_index": 47.01
  },
  {
    "school_index": 35,
    "school_name": "Don Bosco School",
    "lat": 28.5285072,
    "lon": 77.2473321,
    "has_hospital": true,
    "has_police_station": true,
    "has_fire_station": false,
    "dist_hospital_km": 0.265,
    "dist_police_km": 0.805,
    "dist_fire_km": 0.0,
    "emergency_safety_index": 48.61
  },
  {
    "school_index": 36,
    "school_name": "Delhi Institute Of Tool Engineering",
    "lat": 28.5312399,
    "lon": 77.2706607,
    "has_hospital": true,
    "has_police_station": true,
    "has_fire_station": false,
    "dist_hospital_km": 0.475,
    "dist_police_km": 0.488,
    "dist_fire_km": 0.0,
    "emergency_safety_index": 49.19
  },
  {
    "school_index": 37,
    "school_name": "Moon Champs Play School",
    "lat": 28.4910988,
    "lon": 77.2979032,
    "has_hospital": true,
    "has_police_station": true,
    "has_fire_station": false,
    "dist_hospital_km": 0.658,
    "dist_police_km": 0.645,
    "dist_fire_km": 0.0,
    "emergency_safety_index": 47.34
  },
  {
    "school_index": 38,
    "school_name": "Government School",
    "lat": 28.4982037,
    "lon": 77.3046099,
    "has_hospital": true,
    "has_police_station": true,
    "has_fire_station": false,
    "dist_hospital_km": 1.444,
    "dist_police_km": 0.502,
    "dist_fire_km": 0.0,
    "emergency_safety_index": 43.84
  },
  {
    "school_index": 39,
    "school_name": "Manav Mangal Public School",
    "lat": 28.4986996,
    "lon": 77.2954384,
    "has_hospital": true,
    "has_police_station": true,
    "has_fire_station": false,
    "dist_hospital_km": 0.952,
    "dist_police_km": 0.584,
    "dist_fire_km": 0.0,
    "emergency_safety_index": 46.07
  },
  {
    "school_index": 40,
    "school_name": "Govt Girls Senior Secondary School No 3",
    "lat": 28.4946147,
    "lon": 77.3256146,
    "has_hospital": true,
    "has_police_station": true,
    "has_fire_station": false,
    "dist_hospital_km": 0.683,
    "dist_police_km": 1.127,
    "dist_fire_km": 0.0,
    "emergency_safety_index": 44.58
  },
  {
    "school_index": 41,
    "school_name": "New Bal Vaishali Public School",
    "lat": 28.4930183,
    "lon": 77.3260786,
    "has_hospital": true,
    "has_police_station": true,
    "has_fire_station": false,
    "dist_hospital_km": 0.865,
    "dist_police_km": 1.274,
    "dist_fire_km": 0.0,
    "emergency_safety_index": 42.79
  },
  {
    "school_index": 42,
    "school_name": "Echelon",
    "lat": 28.3872703,
    "lon": 77.4440745,
    "has_hospital": false,
    "has_police_station": false,
    "has_fire_station": false,
    "dist_hospital_km": 0.0,
    "dist_police_km": 0.0,
    "dist_fire_km": 0.0,
    "emergency_safety_index": 0.0
  },
  {
    "school_index": 43,
    "school_name": "Jbkp",
    "lat": 28.382982,
    "lon": 77.4506337,
    "has_hospital": false,
    "has_police_station": false,
    "has_fire_station": false,
    "dist_hospital_km": 0.0,
    "dist_police_km": 0.0,
    "dist_fire_km": 0.0,
    "emergency_safety_index": 0.0
  },
  {
    "school_index": 44,
    "school_name": "Indraprastha Global School",
    "lat": 28.5126139,
    "lon": 77.3893376,
    "has_hospital": true,
    "has_police_station": true,
    "has_fire_station": false,
    "dist_hospital_km": 1.315,
    "dist_police_km": 1.856,
    "dist_fire_km": 0.0,
    "emergency_safety_index": 37.17
  },
  {
    "school_index": 45,
    "school_name": "Noble High School",
    "lat": 28.5534462,
    "lon": 77.1761215,
    "has_hospital": true,
    "has_police_station": true,
    "has_fire_station": true,
    "dist_hospital_km": 0.94,
    "dist_police_km": 0.862,
    "dist_fire_km": 1.862,
    "emergency_safety_index": 75.57
  },
  {
    "school_index": 46,
    "school_name": "Kendriya Vidyalaya",
    "lat": 28.5610558,
    "lon": 77.1779814,
    "has_hospital": true,
    "has_police_station": true,
    "has_fire_station": true,
    "dist_hospital_km": 0.506,
    "dist_police_km": 0.323,
    "dist_fire_km": 1.039,
    "emergency_safety_index": 87.55
  },
  {
    "school_index": 47,
    "school_name": "International Institute Of Culinary Arts",
    "lat": 28.5530314,
    "lon": 77.1946809,
    "has_hospital": true,
    "has_police_station": true,
    "has_fire_station": false,
    "dist_hospital_km": 0.815,
    "dist_police_km": 1.544,
    "dist_fire_km": 0.0,
    "emergency_safety_index": 41.59
  },
  {
    "school_index": 48,
    "school_name": "Sahoday Senior Secondary School",
    "lat": 28.5526424,
    "lon": 77.2002206,
    "has_hospital": true,
    "has_police_station": false,
    "has_fire_station": false,
    "dist_hospital_km": 0.767,
    "dist_police_km": 0.0,
    "dist_fire_km": 0.0,
    "emergency_safety_index": 16.29
  },
  {
    "school_index": 49,
    "school_name": "Begumpur Government School",
    "lat": 28.5385083,
    "lon": 77.2078952,
    "has_hospital": true,
    "has_police_station": true,
    "has_fire_station": false,
    "dist_hospital_km": 0.318,
    "dist_police_km": 0.93,
    "dist_fire_km": 0.0,
    "emergency_safety_index": 47.64
  },
  {
    "school_index": 50,
    "school_name": "Kingdom Of Kids",
    "lat": 28.5424418,
    "lon": 77.2180108,
    "has_hospital": true,
    "has_police_station": true,
    "has_fire_station": false,
    "dist_hospital_km": 0.38,
    "dist_police_km": 1.079,
    "dist_fire_km": 0.0,
    "emergency_safety_index": 46.49
  },
  {
    "school_index": 51,
    "school_name": "Soami Nagar Model School",
    "lat": 28.5440473,
    "lon": 77.2254741,
    "has_hospital": true,
    "has_police_station": true,
    "has_fire_station": false,
    "dist_hospital_km": 1.015,
    "dist_police_km": 1.324,
    "dist_fire_km": 0.0,
    "emergency_safety_index": 41.7
  },
  {
    "school_index": 52,
    "school_name": "Soami Nagar Pre-Primary School",
    "lat": 28.543396,
    "lon": 77.2257564,
    "has_hospital": true,
    "has_police_station": true,
    "has_fire_station": false,
    "dist_hospital_km": 0.977,
    "dist_police_km": 1.28,
    "dist_fire_km": 0.0,
    "emergency_safety_index": 42.15
  },
  {
    "school_index": 53,
    "school_name": "Bright Future Point",
    "lat": 28.5489881,
    "lon": 77.2163072,
    "has_hospital": true,
    "has_police_station": true,
    "has_fire_station": false,
    "dist_hospital_km": 0.646,
    "dist_police_km": 1.67,
    "dist_fire_km": 0.0,
    "emergency_safety_index": 41.83
  },
  {
    "school_index": 54,
    "school_name": "Learning Matters",
    "lat": 28.5549832,
    "lon": 77.2022197,
    "has_hospital": true,
    "has_police_station": false,
    "has_fire_station": false,
    "dist_hospital_km": 0.553,
    "dist_police_km": 0.0,
    "dist_fire_km": 0.0,
    "emergency_safety_index": 17.12
  },
  {
    "school_index": 55,
    "school_name": "Kendriya Vidyalaya",
    "lat": 28.5569422,
    "lon": 77.225629,
    "has_hospital": true,
    "has_police_station": true,
    "has_fire_station": false,
    "dist_hospital_km": 0.305,
    "dist_police_km": 0.712,
    "dist_fire_km": 0.0,
    "emergency_safety_index": 48.9
  },
  {
    "school_index": 56,
    "school_name": "The Pinnacle School",
    "lat": 28.5448773,
    "lon": 77.2279586,
    "has_hospital": true,
    "has_police_station": true,
    "has_fire_station": false,
    "dist_hospital_km": 0.769,
    "dist_police_km": 1.134,
    "dist_fire_km": 0.0,
    "emergency_safety_index": 44.07
  },
  {
    "school_index": 57,
    "school_name": "Early Years",
    "lat": 28.5498387,
    "lon": 77.2480443,
    "has_hospital": true,
    "has_police_station": true,
    "has_fire_station": true,
    "dist_hospital_km": 0.347,
    "dist_police_km": 0.263,
    "dist_fire_km": 0.851,
    "emergency_safety_index": 90.26
  },
  {
    "school_index": 58,
    "school_name": "Mother'S Pride",
    "lat": 28.5477704,
    "lon": 77.2490814,
    "has_hospital": true,
    "has_police_station": true,
    "has_fire_station": true,
    "dist_hospital_km": 0.096,
    "dist_police_km": 0.291,
    "dist_fire_km": 0.765,
    "emergency_safety_index": 92.32
  },
  {
    "school_index": 59,
    "school_name": "Madarasa Millat-Ul-Islam",
    "lat": 28.5433478,
    "lon": 77.264387,
    "has_hospital": true,
    "has_police_station": true,
    "has_fire_station": true,
    "dist_hospital_km": 0.183,
    "dist_police_km": 1.13,
    "dist_fire_km": 0.995,
    "emergency_safety_index": 84.61
  },
  {
    "school_index": 60,
    "school_name": "Jaganath Intl Mngt School",
    "lat": 28.5470179,
    "lon": 77.2563459,
    "has_hospital": true,
    "has_police_station": true,
    "has_fire_station": true,
    "dist_hospital_km": 0.162,
    "dist_police_km": 0.314,
    "dist_fire_km": 0.251,
    "emergency_safety_index": 95.15
  },
  {
    "school_index": 61,
    "school_name": "Niit - New Friends Colony South Delhi",
    "lat": 28.5603226,
    "lon": 77.2667188,
    "has_hospital": true,
    "has_police_station": true,
    "has_fire_station": true,
    "dist_hospital_km": 0.339,
    "dist_police_km": 0.257,
    "dist_fire_km": 1.571,
    "emergency_safety_index": 85.55
  },
  {
    "school_index": 62,
    "school_name": "Indraprastha Institute Of Science And Technology",
    "lat": 28.5527332,
    "lon": 77.2684563,
    "has_hospital": true,
    "has_police_station": true,
    "has_fire_station": true,
    "dist_hospital_km": 0.953,
    "dist_police_km": 1.096,
    "dist_fire_km": 1.209,
    "emergency_safety_index": 78.28
  },
  {
    "school_index": 63,
    "school_name": "The Ardee School",
    "lat": 28.5606026,
    "lon": 77.2757538,
    "has_hospital": true,
    "has_police_station": true,
    "has_fire_station": false,
    "dist_hospital_km": 0.176,
    "dist_police_km": 0.841,
    "dist_fire_km": 0.0,
    "emergency_safety_index": 48.9
  },
  {
    "school_index": 64,
    "school_name": "Indian School Of Business And Finance",
    "lat": 28.5392041,
    "lon": 77.2926159,
    "has_hospital": true,
    "has_police_station": true,
    "has_fire_station": false,
    "dist_hospital_km": 0.093,
    "dist_police_km": 0.406,
    "dist_fire_km": 0.0,
    "emergency_safety_index": 51.72
  },
  {
    "school_index": 65,
    "school_name": "New Ideal Public School",
    "lat": 28.5467878,
    "lon": 77.2921488,
    "has_hospital": true,
    "has_police_station": true,
    "has_fire_station": false,
    "dist_hospital_km": 0.42,
    "dist_police_km": 1.24,
    "dist_fire_km": 0.0,
    "emergency_safety_index": 45.4
  },
  {
    "school_index": 66,
    "school_name": "Disha Public School",
    "lat": 28.5480622,
    "lon": 77.2929511,
    "has_hospital": true,
    "has_police_station": true,
    "has_fire_station": false,
    "dist_hospital_km": 0.485,
    "dist_police_km": 1.387,
    "dist_fire_km": 0.0,
    "emergency_safety_index": 44.24
  },
  {
    "school_index": 67,
    "school_name": "Sanskar Pre School And Day Care",
    "lat": 28.5387269,
    "lon": 77.2982927,
    "has_hospital": true,
    "has_police_station": true,
    "has_fire_station": false,
    "dist_hospital_km": 0.332,
    "dist_police_km": 0.729,
    "dist_fire_km": 0.0,
    "emergency_safety_index": 48.66
  },
  {
    "school_index": 68,
    "school_name": "Jaishankar Memorial Centre",
    "lat": 28.5379491,
    "lon": 77.3002293,
    "has_hospital": true,
    "has_police_station": true,
    "has_fire_station": false,
    "dist_hospital_km": 0.532,
    "dist_police_km": 0.871,
    "dist_fire_km": 0.0,
    "emergency_safety_index": 46.8
  },
  {
    "school_index": 69,
    "school_name": "Mcd Public School",
    "lat": 28.5482349,
    "lon": 77.2940566,
    "has_hospital": true,
    "has_police_station": true,
    "has_fire_station": false,
    "dist_hospital_km": 0.462,
    "dist_police_km": 1.419,
    "dist_fire_km": 0.0,
    "emergency_safety_index": 44.19
  },
  {
    "school_index": 70,
    "school_name": "Polytechnic Ground",
    "lat": 28.5630363,
    "lon": 77.2809518,
    "has_hospital": true,
    "has_police_station": true,
    "has_fire_station": false,
    "dist_hospital_km": 0.51,
    "dist_police_km": 0.682,
    "dist_fire_km": 0.0,
    "emergency_safety_index": 47.94
  },
  {
    "school_index": 71,
    "school_name": "F-3 Block",
    "lat": 28.543135,
    "lon": 77.3323741,
    "has_hospital": true,
    "has_police_station": true,
    "has_fire_station": false,
    "dist_hospital_km": 1.843,
    "dist_police_km": 0.904,
    "dist_fire_km": 0.0,
    "emergency_safety_index": 39.48
  },
  {
    "school_index": 72,
    "school_name": "I-1 Block",
    "lat": 28.5430926,
    "lon": 77.3336792,
    "has_hospital": true,
    "has_police_station": true,
    "has_fire_station": false,
    "dist_hospital_km": 1.92,
    "dist_police_km": 0.792,
    "dist_fire_km": 0.0,
    "emergency_safety_index": 39.67
  },
  {
    "school_index": 73,
    "school_name": "1-2 Block",
    "lat": 28.5426088,
    "lon": 77.3335036,
    "has_hospital": true,
    "has_police_station": true,
    "has_fire_station": false,
    "dist_hospital_km": 1.868,
    "dist_police_km": 0.779,
    "dist_fire_km": 0.0,
    "emergency_safety_index": 40.02
  },
  {
    "school_index": 74,
    "school_name": "F-1 Block",
    "lat": 28.5436771,
    "lon": 77.3330489,
    "has_hospital": true,
    "has_police_station": true,
    "has_fire_station": false,
    "dist_hospital_km": 1.931,
    "dist_police_km": 0.879,
    "dist_fire_km": 0.0,
    "emergency_safety_index": 39.14
  },
  {
    "school_index": 75,
    "school_name": "J-3 Block",
    "lat": 28.5434459,
    "lon": 77.3341183,
    "has_hospital": true,
    "has_police_station": true,
    "has_fire_station": false,
    "dist_hospital_km": 1.977,
    "dist_police_km": 0.779,
    "dist_fire_km": 0.0,
    "emergency_safety_index": 39.43
  },
  {
    "school_index": 76,
    "school_name": "E2- Block",
    "lat": 28.5445826,
    "lon": 77.3338694,
    "has_hospital": false,
    "has_police_station": true,
    "has_fire_station": false,
    "dist_hospital_km": 0.0,
    "dist_police_km": 0.879,
    "dist_fire_km": 0.0,
    "emergency_safety_index": 15.86
  },
  {
    "school_index": 77,
    "school_name": "E-1 Block",
    "lat": 28.5451643,
    "lon": 77.3343636,
    "has_hospital": false,
    "has_police_station": true,
    "has_fire_station": false,
    "dist_hospital_km": 0.0,
    "dist_police_km": 0.89,
    "dist_fire_km": 0.0,
    "emergency_safety_index": 15.82
  },
  {
    "school_index": 78,
    "school_name": "E-3 Block",
    "lat": 28.5443355,
    "lon": 77.3333368,
    "has_hospital": true,
    "has_police_station": true,
    "has_fire_station": false,
    "dist_hospital_km": 2.007,
    "dist_police_km": 0.9,
    "dist_fire_km": 0.0,
    "emergency_safety_index": 38.61
  },
  {
    "school_index": 79,
    "school_name": "K-1 Block",
    "lat": 28.5457879,
    "lon": 77.3351404,
    "has_hospital": false,
    "has_police_station": true,
    "has_fire_station": false,
    "dist_hospital_km": 0.0,
    "dist_police_km": 0.896,
    "dist_fire_km": 0.0,
    "emergency_safety_index": 15.8
  },
  {
    "school_index": 80,
    "school_name": "K-2 Block",
    "lat": 28.5454107,
    "lon": 77.3359596,
    "has_hospital": false,
    "has_police_station": true,
    "has_fire_station": false,
    "dist_hospital_km": 0.0,
    "dist_police_km": 0.817,
    "dist_fire_km": 0.0,
    "emergency_safety_index": 16.1
  },
  {
    "school_index": 81,
    "school_name": "K-3 Block",
    "lat": 28.5447798,
    "lon": 77.3361581,
    "has_hospital": false,
    "has_police_station": true,
    "has_fire_station": false,
    "dist_hospital_km": 0.0,
    "dist_police_km": 0.747,
    "dist_fire_km": 0.0,
    "emergency_safety_index": 16.37
  },
  {
    "school_index": 82,
    "school_name": "J-1 Block",
    "lat": 28.5444779,
    "lon": 77.3353547,
    "has_hospital": false,
    "has_police_station": true,
    "has_fire_station": false,
    "dist_hospital_km": 0.0,
    "dist_police_km": 0.769,
    "dist_fire_km": 0.0,
    "emergency_safety_index": 16.29
  },
  {
    "school_index": 83,
    "school_name": "Kids Campus School",
    "lat": 28.5502739,
    "lon": 77.3672305,
    "has_hospital": true,
    "has_police_station": true,
    "has_fire_station": false,
    "dist_hospital_km": 1.491,
    "dist_police_km": 1.083,
    "dist_fire_km": 0.0,
    "emergency_safety_index": 40.42
  },
  {
    "school_index": 84,
    "school_name": "Jagran Public School",
    "lat": 28.5516286,
    "lon": 77.371396,
    "has_hospital": true,
    "has_police_station": true,
    "has_fire_station": false,
    "dist_hospital_km": 1.452,
    "dist_police_km": 1.057,
    "dist_fire_km": 0.0,
    "emergency_safety_index": 40.78
  },
  {
    "school_index": 85,
    "school_name": "Prince Public School",
    "lat": 28.5234229,
    "lon": 77.1745989,
    "has_hospital": true,
    "has_police_station": true,
    "has_fire_station": false,
    "dist_hospital_km": 0.425,
    "dist_police_km": 0.45,
    "dist_fire_km": 0.0,
    "emergency_safety_index": 49.67
  },
  {
    "school_index": 86,
    "school_name": "G D Goenka World School",
    "lat": 28.528608,
    "lon": 77.1543963,
    "has_hospital": true,
    "has_police_station": true,
    "has_fire_station": false,
    "dist_hospital_km": 0.648,
    "dist_police_km": 0.782,
    "dist_fire_km": 0.0,
    "emergency_safety_index": 46.65
  },
  {
    "school_index": 87,
    "school_name": "Gd Goenka Public School Junior Wing",
    "lat": 28.5303845,
    "lon": 77.1546584,
    "has_hospital": true,
    "has_police_station": true,
    "has_fire_station": false,
    "dist_hospital_km": 0.473,
    "dist_police_km": 0.61,
    "dist_fire_km": 0.0,
    "emergency_safety_index": 48.54
  },
  {
    "school_index": 88,
    "school_name": "School Of Computional And Integrative Sciences",
    "lat": 28.5419137,
    "lon": 77.1677984,
    "has_hospital": true,
    "has_police_station": true,
    "has_fire_station": false,
    "dist_hospital_km": 0.844,
    "dist_police_km": 1.73,
    "dist_fire_km": 0.0,
    "emergency_safety_index": 40.42
  },
  {
    "school_index": 89,
    "school_name": "Kendriya Vidhyalaya Jr School",
    "lat": 28.5441578,
    "lon": 77.1639313,
    "has_hospital": true,
    "has_police_station": true,
    "has_fire_station": false,
    "dist_hospital_km": 0.695,
    "dist_police_km": 1.544,
    "dist_fire_km": 0.0,
    "emergency_safety_index": 42.25
  },
  {
    "school_index": 90,
    "school_name": "Kendriya Vidhyalaya Jnu",
    "lat": 28.5467422,
    "lon": 77.1767781,
    "has_hospital": true,
    "has_police_station": true,
    "has_fire_station": false,
    "dist_hospital_km": 0.947,
    "dist_police_km": 1.466,
    "dist_fire_km": 0.0,
    "emergency_safety_index": 41.3
  },
  {
    "school_index": 91,
    "school_name": "Modern School",
    "lat": 28.5623892,
    "lon": 77.1571419,
    "has_hospital": true,
    "has_police_station": true,
    "has_fire_station": true,
    "dist_hospital_km": 1.525,
    "dist_police_km": 1.255,
    "dist_fire_km": 1.505,
    "emergency_safety_index": 71.43
  },
  {
    "school_index": 92,
    "school_name": "Sarvodaya Co-Ed Senior Secondary School",
    "lat": 28.5523626,
    "lon": 77.1702408,
    "has_hospital": true,
    "has_police_station": true,
    "has_fire_station": false,
    "dist_hospital_km": 0.409,
    "dist_police_km": 0.64,
    "dist_fire_km": 0.0,
    "emergency_safety_index": 48.72
  },
  {
    "school_index": 93,
    "school_name": "Jd Tytler School",
    "lat": 28.5509971,
    "lon": 77.1734247,
    "has_hospital": true,
    "has_police_station": true,
    "has_fire_station": false,
    "dist_hospital_km": 0.592,
    "dist_police_km": 0.892,
    "dist_fire_km": 0.0,
    "emergency_safety_index": 46.36
  },
  {
    "school_index": 94,
    "school_name": "Regional Centre For Biotechnology",
    "lat": 28.4047736,
    "lon": 77.2542179,
    "has_hospital": false,
    "has_police_station": false,
    "has_fire_station": false,
    "dist_hospital_km": 0.0,
    "dist_police_km": 0.0,
    "dist_fire_km": 0.0,
    "emergency_safety_index": 0.0
  },
  {
    "school_index": 95,
    "school_name": "A D Sr Sec School",
    "lat": 28.3831002,
    "lon": 77.2776412,
    "has_hospital": true,
    "has_police_station": true,
    "has_fire_station": false,
    "dist_hospital_km": 0.914,
    "dist_police_km": 1.876,
    "dist_fire_km": 0.0,
    "emergency_safety_index": 39.25
  },
  {
    "school_index": 96,
    "school_name": "National Institute Of Financial Management",
    "lat": 28.4020605,
    "lon": 77.2807249,
    "has_hospital": true,
    "has_police_station": true,
    "has_fire_station": false,
    "dist_hospital_km": 0.85,
    "dist_police_km": 1.14,
    "dist_fire_km": 0.0,
    "emergency_safety_index": 43.6
  },
  {
    "school_index": 97,
    "school_name": "Aggarwal Public School",
    "lat": 28.3513252,
    "lon": 77.3333272,
    "has_hospital": true,
    "has_police_station": true,
    "has_fire_station": false,
    "dist_hospital_km": 0.097,
    "dist_police_km": 1.992,
    "dist_fire_km": 0.0,
    "emergency_safety_index": 43.06
  },
  {
    "school_index": 98,
    "school_name": "Goverment Girls School",
    "lat": 28.3532013,
    "lon": 77.3317226,
    "has_hospital": true,
    "has_police_station": true,
    "has_fire_station": false,
    "dist_hospital_km": 0.281,
    "dist_police_km": 1.808,
    "dist_fire_km": 0.0,
    "emergency_safety_index": 43.06
  },
  {
    "school_index": 99,
    "school_name": "Young Man'S Christian Association Institute Of Engineering",
    "lat": 28.3673131,
    "lon": 77.3170692,
    "has_hospital": true,
    "has_police_station": true,
    "has_fire_station": false,
    "dist_hospital_km": 0.554,
    "dist_police_km": 1.794,
    "dist_fire_km": 0.0,
    "emergency_safety_index": 41.65
  },
  {
    "school_index": 100,
    "school_name": "Nalanda Vidyalaya",
    "lat": 28.3559317,
    "lon": 77.3289052,
    "has_hospital": true,
    "has_police_station": true,
    "has_fire_station": false,
    "dist_hospital_km": 0.266,
    "dist_police_km": 1.598,
    "dist_fire_km": 0.0,
    "emergency_safety_index": 44.29
  },
  {
    "school_index": 101,
    "school_name": "K L Mehta Dayanand Public School",
    "lat": 28.3582672,
    "lon": 77.3284363,
    "has_hospital": true,
    "has_police_station": true,
    "has_fire_station": false,
    "dist_hospital_km": 0.404,
    "dist_police_km": 1.384,
    "dist_fire_km": 0.0,
    "emergency_safety_index": 44.7
  },
  {
    "school_index": 102,
    "school_name": "Goverment School",
    "lat": 28.3671844,
    "lon": 77.3301939,
    "has_hospital": true,
    "has_police_station": true,
    "has_fire_station": false,
    "dist_hospital_km": 0.286,
    "dist_police_km": 0.545,
    "dist_fire_km": 0.0,
    "emergency_safety_index": 49.91
  },
  {
    "school_index": 103,
    "school_name": "Goverment Senior Secondary School",
    "lat": 28.3594496,
    "lon": 77.3258652,
    "has_hospital": true,
    "has_police_station": true,
    "has_fire_station": false,
    "dist_hospital_km": 0.482,
    "dist_police_km": 1.42,
    "dist_fire_km": 0.0,
    "emergency_safety_index": 44.08
  },
  {
    "school_index": 104,
    "school_name": "St John School",
    "lat": 28.3656321,
    "lon": 77.3249207,
    "has_hospital": true,
    "has_police_station": true,
    "has_fire_station": false,
    "dist_hospital_km": 0.436,
    "dist_police_km": 1.088,
    "dist_fire_km": 0.0,
    "emergency_safety_index": 46.14
  },
  {
    "school_index": 105,
    "school_name": "Karmvir Public School",
    "lat": 28.3770717,
    "lon": 77.3192861,
    "has_hospital": true,
    "has_police_station": true,
    "has_fire_station": true,
    "dist_hospital_km": 0.65,
    "dist_police_km": 1.796,
    "dist_fire_km": 1.969,
    "emergency_safety_index": 70.57
  },
  {
    "school_index": 106,
    "school_name": "Oriental Staff Training College",
    "lat": 28.378479,
    "lon": 77.3148346,
    "has_hospital": true,
    "has_police_station": false,
    "has_fire_station": true,
    "dist_hospital_km": 0.274,
    "dist_police_km": 0.0,
    "dist_fire_km": 1.573,
    "emergency_safety_index": 44.38
  },
  {
    "school_index": 107,
    "school_name": "Aashirwaad Hospital",
    "lat": 28.372205,
    "lon": 77.320824,
    "has_hospital": true,
    "has_police_station": true,
    "has_fire_station": false,
    "dist_hospital_km": 0.363,
    "dist_police_km": 1.455,
    "dist_fire_km": 0.0,
    "emergency_safety_index": 44.54
  },
  {
    "school_index": 108,
    "school_name": "Divine Public School",
    "lat": 28.3725322,
    "lon": 77.3318846,
    "has_hospital": true,
    "has_police_station": true,
    "has_fire_station": false,
    "dist_hospital_km": 0.558,
    "dist_police_km": 0.502,
    "dist_fire_km": 0.0,
    "emergency_safety_index": 48.66
  },
  {
    "school_index": 109,
    "school_name": "Aggarwal Hospital",
    "lat": 28.3772152,
    "lon": 77.3260411,
    "has_hospital": true,
    "has_police_station": true,
    "has_fire_station": false,
    "dist_hospital_km": 0.005,
    "dist_police_km": 1.273,
    "dist_fire_km": 0.0,
    "emergency_safety_index": 47.48
  },
  {
    "school_index": 110,
    "school_name": "Nav Jivan Public School",
    "lat": 28.3798004,
    "lon": 77.3269528,
    "has_hospital": true,
    "has_police_station": true,
    "has_fire_station": false,
    "dist_hospital_km": 0.302,
    "dist_police_km": 1.437,
    "dist_fire_km": 0.0,
    "emergency_safety_index": 44.97
  },
  {
    "school_index": 111,
    "school_name": "Tagore Academy",
    "lat": 28.3488124,
    "lon": 77.3349323,
    "has_hospital": true,
    "has_police_station": false,
    "has_fire_station": false,
    "dist_hospital_km": 0.32,
    "dist_police_km": 0.0,
    "dist_fire_km": 0.0,
    "emergency_safety_index": 18.01
  },
  {
    "school_index": 112,
    "school_name": "Taksh Shila Model School",
    "lat": 28.3528264,
    "lon": 77.3352603,
    "has_hospital": true,
    "has_police_station": true,
    "has_fire_station": false,
    "dist_hospital_km": 0.349,
    "dist_police_km": 1.816,
    "dist_fire_km": 0.0,
    "emergency_safety_index": 42.65
  },
  {
    "school_index": 113,
    "school_name": "Government Inter College",
    "lat": 28.3572627,
    "lon": 77.3333746,
    "has_hospital": true,
    "has_police_station": true,
    "has_fire_station": false,
    "dist_hospital_km": 0.725,
    "dist_police_km": 1.336,
    "dist_fire_km": 0.0,
    "emergency_safety_index": 43.21
  },
  {
    "school_index": 114,
    "school_name": "Womens Polytechnic College",
    "lat": 28.3667147,
    "lon": 77.334903,
    "has_hospital": true,
    "has_police_station": true,
    "has_fire_station": false,
    "dist_hospital_km": 0.183,
    "dist_police_km": 0.274,
    "dist_fire_km": 0.0,
    "emergency_safety_index": 51.95
  },
  {
    "school_index": 115,
    "school_name": "St Anthony'S Secondary School",
    "lat": 28.3729221,
    "lon": 77.3339457,
    "has_hospital": true,
    "has_police_station": true,
    "has_fire_station": false,
    "dist_hospital_km": 0.525,
    "dist_police_km": 0.439,
    "dist_fire_km": 0.0,
    "emergency_safety_index": 49.19
  },
  {
    "school_index": 116,
    "school_name": "Govt Girls School",
    "lat": 28.3822909,
    "lon": 77.2882448,
    "has_hospital": true,
    "has_police_station": true,
    "has_fire_station": true,
    "dist_hospital_km": 0.778,
    "dist_police_km": 1.529,
    "dist_fire_km": 1.904,
    "emergency_safety_index": 71.93
  },
  {
    "school_index": 117,
    "school_name": "Govr Boys School",
    "lat": 28.3832918,
    "lon": 77.2908082,
    "has_hospital": true,
    "has_police_station": true,
    "has_fire_station": true,
    "dist_hospital_km": 0.601,
    "dist_police_km": 1.409,
    "dist_fire_km": 1.63,
    "emergency_safety_index": 75.73
  },
  {
    "school_index": 118,
    "school_name": "Vidya Niketan School",
    "lat": 28.3889299,
    "lon": 77.2871143,
    "has_hospital": true,
    "has_police_station": true,
    "has_fire_station": true,
    "dist_hospital_km": 0.248,
    "dist_police_km": 0.832,
    "dist_fire_km": 1.812,
    "emergency_safety_index": 80.72
  },
  {
    "school_index": 119,
    "school_name": "Gita Bal Niketan School",
    "lat": 28.3926961,
    "lon": 77.287916,
    "has_hospital": true,
    "has_police_station": true,
    "has_fire_station": true,
    "dist_hospital_km": 0.172,
    "dist_police_km": 0.418,
    "dist_fire_km": 1.754,
    "emergency_safety_index": 84.37
  },
  {
    "school_index": 120,
    "school_name": "Govt Boys Higher Secondary School",
    "lat": 28.3842516,
    "lon": 77.2947629,
    "has_hospital": true,
    "has_police_station": true,
    "has_fire_station": true,
    "dist_hospital_km": 0.269,
    "dist_police_km": 1.378,
    "dist_fire_km": 1.24,
    "emergency_safety_index": 80.75
  },
  {
    "school_index": 121,
    "school_name": "Government Girls Senior Secondary School",
    "lat": 28.3825391,
    "lon": 77.3014881,
    "has_hospital": true,
    "has_police_station": true,
    "has_fire_station": true,
    "dist_hospital_km": 0.137,
    "dist_police_km": 1.862,
    "dist_fire_km": 0.927,
    "emergency_safety_index": 80.49
  },
  {
    "school_index": 122,
    "school_name": "Senior Secondary School",
    "lat": 28.3844955,
    "lon": 77.302385,
    "has_hospital": true,
    "has_police_station": true,
    "has_fire_station": true,
    "dist_hospital_km": 0.355,
    "dist_police_km": 1.752,
    "dist_fire_km": 0.693,
    "emergency_safety_index": 81.33
  },
  {
    "school_index": 123,
    "school_name": "Harscwitec Computer Education Center",
    "lat": 28.3877467,
    "lon": 77.2996522,
    "has_hospital": true,
    "has_police_station": true,
    "has_fire_station": true,
    "dist_hospital_km": 0.546,
    "dist_police_km": 1.307,
    "dist_fire_km": 0.635,
    "emergency_safety_index": 83.41
  },
  {
    "school_index": 124,
    "school_name": "Metro Govt Girls Senior Secondary School",
    "lat": 28.3886368,
    "lon": 77.2998441,
    "has_hospital": true,
    "has_police_station": true,
    "has_fire_station": true,
    "dist_hospital_km": 0.448,
    "dist_police_km": 1.254,
    "dist_fire_km": 0.584,
    "emergency_safety_index": 84.76
  },
  {
    "school_index": 125,
    "school_name": "Kl Mehta Dayanand Public School",
    "lat": 28.3879065,
    "lon": 77.3039578,
    "has_hospital": true,
    "has_police_station": true,
    "has_fire_station": true,
    "dist_hospital_km": 0.198,
    "dist_police_km": 1.625,
    "dist_fire_km": 0.287,
    "emergency_safety_index": 85.93
  },
  {
    "school_index": 126,
    "school_name": "Govt School Nit 3",
    "lat": 28.3963973,
    "lon": 77.2910546,
    "has_hospital": true,
    "has_police_station": true,
    "has_fire_station": true,
    "dist_hospital_km": 0.143,
    "dist_police_km": 0.108,
    "dist_fire_km": 1.587,
    "emergency_safety_index": 87.75
  },
  {
    "school_index": 127,
    "school_name": "Dav Centenary College",
    "lat": 28.3961291,
    "lon": 77.2941447,
    "has_hospital": true,
    "has_police_station": true,
    "has_fire_station": true,
    "dist_hospital_km": 0.221,
    "dist_police_km": 0.398,
    "dist_fire_km": 1.308,
    "emergency_safety_index": 87.15
  },
  {
    "school_index": 128,
    "school_name": "Shaheed Bhagat Singh Post Graduate Institute Of Mangaement",
    "lat": 28.3961718,
    "lon": 77.2961821,
    "has_hospital": true,
    "has_police_station": true,
    "has_fire_station": true,
    "dist_hospital_km": 0.18,
    "dist_police_km": 0.598,
    "dist_fire_km": 1.145,
    "emergency_safety_index": 87.18
  },
  {
    "school_index": 129,
    "school_name": "Kl Mehta Dayanand Women'S College",
    "lat": 28.3968967,
    "lon": 77.2990383,
    "has_hospital": true,
    "has_police_station": true,
    "has_fire_station": true,
    "dist_hospital_km": 0.075,
    "dist_police_km": 0.883,
    "dist_fire_km": 0.995,
    "emergency_safety_index": 86.98
  },
  {
    "school_index": 130,
    "school_name": "St Joseph'S Convent School",
    "lat": 28.3998176,
    "lon": 77.3029391,
    "has_hospital": true,
    "has_police_station": true,
    "has_fire_station": true,
    "dist_hospital_km": 0.329,
    "dist_police_km": 1.33,
    "dist_fire_km": 1.116,
    "emergency_safety_index": 81.5
  },
  {
    "school_index": 131,
    "school_name": "Apeejay School",
    "lat": 28.4183896,
    "lon": 77.2891138,
    "has_hospital": true,
    "has_police_station": true,
    "has_fire_station": false,
    "dist_hospital_km": 0.201,
    "dist_police_km": 1.605,
    "dist_fire_km": 0.0,
    "emergency_safety_index": 44.6
  },
  {
    "school_index": 132,
    "school_name": "Blooming Blossoms",
    "lat": 28.4165103,
    "lon": 77.2903432,
    "has_hospital": true,
    "has_police_station": true,
    "has_fire_station": false,
    "dist_hospital_km": 0.045,
    "dist_police_km": 1.741,
    "dist_fire_km": 0.0,
    "emergency_safety_index": 44.71
  },
  {
    "school_index": 133,
    "school_name": "Kendriya Vidyalaya No 1 Faridabad",
    "lat": 28.4076166,
    "lon": 77.2977256,
    "has_hospital": true,
    "has_police_station": true,
    "has_fire_station": false,
    "dist_hospital_km": 0.62,
    "dist_police_km": 1.498,
    "dist_fire_km": 0.0,
    "emergency_safety_index": 42.9
  },
  {
    "school_index": 134,
    "school_name": "Jiva Public School",
    "lat": 28.4147128,
    "lon": 77.2968109,
    "has_hospital": true,
    "has_police_station": true,
    "has_fire_station": false,
    "dist_hospital_km": 0.661,
    "dist_police_km": 1.809,
    "dist_fire_km": 0.0,
    "emergency_safety_index": 40.99
  },
  {
    "school_index": 135,
    "school_name": "Ryan International School",
    "lat": 28.4162792,
    "lon": 77.3006133,
    "has_hospital": true,
    "has_police_station": true,
    "has_fire_station": false,
    "dist_hospital_km": 0.984,
    "dist_police_km": 1.67,
    "dist_fire_km": 0.0,
    "emergency_safety_index": 39.99
  },
  {
    "school_index": 136,
    "school_name": "Gold Field Public School",
    "lat": 28.4204769,
    "lon": 77.3057661,
    "has_hospital": true,
    "has_police_station": true,
    "has_fire_station": false,
    "dist_hospital_km": 0.71,
    "dist_police_km": 1.441,
    "dist_fire_km": 0.0,
    "emergency_safety_index": 42.72
  },
  {
    "school_index": 137,
    "school_name": "Hommerton Grammar High School",
    "lat": 28.4242727,
    "lon": 77.2999991,
    "has_hospital": true,
    "has_police_station": true,
    "has_fire_station": false,
    "dist_hospital_km": 0.186,
    "dist_police_km": 0.797,
    "dist_fire_km": 0.0,
    "emergency_safety_index": 49.08
  },
  {
    "school_index": 138,
    "school_name": "Mahadav Desai Senior Secondary School",
    "lat": 28.4082266,
    "lon": 77.3139512,
    "has_hospital": true,
    "has_police_station": false,
    "has_fire_station": false,
    "dist_hospital_km": 0.396,
    "dist_police_km": 0.0,
    "dist_fire_km": 0.0,
    "emergency_safety_index": 17.72
  },
  {
    "school_index": 139,
    "school_name": "Delhi Public School",
    "lat": 28.4197636,
    "lon": 77.3119799,
    "has_hospital": true,
    "has_police_station": true,
    "has_fire_station": false,
    "dist_hospital_km": 0.394,
    "dist_police_km": 1.914,
    "dist_fire_km": 0.0,
    "emergency_safety_index": 41.87
  },
  {
    "school_index": 140,
    "school_name": "Modern Vidya Niketan",
    "lat": 28.4071898,
    "lon": 77.3272438,
    "has_hospital": true,
    "has_police_station": false,
    "has_fire_station": false,
    "dist_hospital_km": 0.381,
    "dist_police_km": 0.0,
    "dist_fire_km": 0.0,
    "emergency_safety_index": 17.78
  },
  {
    "school_index": 141,
    "school_name": "Avn Secondary School",
    "lat": 28.423539,
    "lon": 77.3141933,
    "has_hospital": true,
    "has_police_station": true,
    "has_fire_station": false,
    "dist_hospital_km": 0.287,
    "dist_police_km": 1.862,
    "dist_fire_km": 0.0,
    "emergency_safety_index": 42.74
  },
  {
    "school_index": 142,
    "school_name": "Dynasty International School",
    "lat": 28.4313155,
    "lon": 77.3123815,
    "has_hospital": true,
    "has_police_station": true,
    "has_fire_station": false,
    "dist_hospital_km": 0.52,
    "dist_police_km": 1.492,
    "dist_fire_km": 0.0,
    "emergency_safety_index": 43.48
  },
  {
    "school_index": 143,
    "school_name": "Center School",
    "lat": 28.3914408,
    "lon": 77.3489197,
    "has_hospital": true,
    "has_police_station": false,
    "has_fire_station": false,
    "dist_hospital_km": 0.861,
    "dist_police_km": 0.0,
    "dist_fire_km": 0.0,
    "emergency_safety_index": 15.93
  },
  {
    "school_index": 144,
    "school_name": "Delhi Public School",
    "lat": 28.3909345,
    "lon": 77.3490579,
    "has_hospital": true,
    "has_police_station": false,
    "has_fire_station": false,
    "dist_hospital_km": 0.916,
    "dist_police_km": 0.0,
    "dist_fire_km": 0.0,
    "emergency_safety_index": 15.72
  },
  {
    "school_index": 145,
    "school_name": "Shiv Nadar School Ground",
    "lat": 28.3915734,
    "lon": 77.3513958,
    "has_hospital": true,
    "has_police_station": false,
    "has_fire_station": false,
    "dist_hospital_km": 0.859,
    "dist_police_km": 0.0,
    "dist_fire_km": 0.0,
    "emergency_safety_index": 15.94
  },
  {
    "school_index": 146,
    "school_name": "Shiv Nadar School",
    "lat": 28.3903312,
    "lon": 77.3513856,
    "has_hospital": true,
    "has_police_station": false,
    "has_fire_station": false,
    "dist_hospital_km": 0.994,
    "dist_police_km": 0.0,
    "dist_fire_km": 0.0,
    "emergency_safety_index": 15.42
  },
  {
    "school_index": 147,
    "school_name": "Paramhansa Sr Sec School",
    "lat": 28.4042369,
    "lon": 77.3718496,
    "has_hospital": true,
    "has_police_station": false,
    "has_fire_station": false,
    "dist_hospital_km": 0.552,
    "dist_police_km": 0.0,
    "dist_fire_km": 0.0,
    "emergency_safety_index": 17.12
  },
  {
    "school_index": 148,
    "school_name": "Modern Delhi International School Ground",
    "lat": 28.4128421,
    "lon": 77.3376048,
    "has_hospital": true,
    "has_police_station": false,
    "has_fire_station": false,
    "dist_hospital_km": 0.905,
    "dist_police_km": 0.0,
    "dist_fire_km": 0.0,
    "emergency_safety_index": 15.76
  },
  {
    "school_index": 149,
    "school_name": "St Peters School",
    "lat": 28.4117583,
    "lon": 77.357094,
    "has_hospital": true,
    "has_police_station": false,
    "has_fire_station": false,
    "dist_hospital_km": 0.763,
    "dist_police_km": 0.0,
    "dist_fire_km": 0.0,
    "emergency_safety_index": 16.31
  },
  {
    "school_index": 150,
    "school_name": "Kr Mangalam World School",
    "lat": 28.4181103,
    "lon": 77.3563304,
    "has_hospital": true,
    "has_police_station": false,
    "has_fire_station": false,
    "dist_hospital_km": 0.064,
    "dist_police_km": 0.0,
    "dist_fire_km": 0.0,
    "emergency_safety_index": 19.0
  },
  {
    "school_index": 151,
    "school_name": "Govt Sr Sec School",
    "lat": 28.4095413,
    "lon": 77.3732625,
    "has_hospital": true,
    "has_police_station": false,
    "has_fire_station": false,
    "dist_hospital_km": 0.863,
    "dist_police_km": 0.0,
    "dist_fire_km": 0.0,
    "emergency_safety_index": 15.92
  },
  {
    "school_index": 152,
    "school_name": "South Asian University",
    "lat": 28.4849064,
    "lon": 77.2009939,
    "has_hospital": true,
    "has_police_station": false,
    "has_fire_station": false,
    "dist_hospital_km": 0.703,
    "dist_police_km": 0.0,
    "dist_fire_km": 0.0,
    "emergency_safety_index": 16.54
  },
  {
    "school_index": 153,
    "school_name": "Indira Gandhi National Open University",
    "lat": 28.4955957,
    "lon": 77.2033227,
    "has_hospital": true,
    "has_police_station": true,
    "has_fire_station": false,
    "dist_hospital_km": 1.492,
    "dist_police_km": 1.115,
    "dist_fire_km": 0.0,
    "emergency_safety_index": 40.24
  },
  {
    "school_index": 154,
    "school_name": "Shivani Vidya Niketan",
    "lat": 28.5045095,
    "lon": 77.1802208,
    "has_hospital": true,
    "has_police_station": false,
    "has_fire_station": false,
    "dist_hospital_km": 0.558,
    "dist_police_km": 0.0,
    "dist_fire_km": 0.0,
    "emergency_safety_index": 17.1
  },
  {
    "school_index": 155,
    "school_name": "Master Mind Public School",
    "lat": 28.5088864,
    "lon": 77.2023709,
    "has_hospital": true,
    "has_police_station": true,
    "has_fire_station": false,
    "dist_hospital_km": 0.133,
    "dist_police_km": 1.594,
    "dist_fire_km": 0.0,
    "emergency_safety_index": 45.03
  },
  {
    "school_index": 156,
    "school_name": "South Delhi Muncipal Corporation Nigam Pratibha Vidyalaya",
    "lat": 28.5153662,
    "lon": 77.1986825,
    "has_hospital": true,
    "has_police_station": true,
    "has_fire_station": false,
    "dist_hospital_km": 0.218,
    "dist_police_km": 1.3,
    "dist_fire_km": 0.0,
    "emergency_safety_index": 46.17
  },
  {
    "school_index": 157,
    "school_name": "Karmapa International Buddhist Institute",
    "lat": 28.5371216,
    "lon": 77.1842049,
    "has_hospital": true,
    "has_police_station": true,
    "has_fire_station": false,
    "dist_hospital_km": 0.308,
    "dist_police_km": 1.359,
    "dist_fire_km": 0.0,
    "emergency_safety_index": 45.36
  },
  {
    "school_index": 158,
    "school_name": "New Green Field School",
    "lat": 28.5157872,
    "lon": 77.2060145,
    "has_hospital": true,
    "has_police_station": true,
    "has_fire_station": false,
    "dist_hospital_km": 0.589,
    "dist_police_km": 0.874,
    "dist_fire_km": 0.0,
    "emergency_safety_index": 46.47
  },
  {
    "school_index": 159,
    "school_name": "Amity International School",
    "lat": 28.5234582,
    "lon": 77.2146709,
    "has_hospital": true,
    "has_police_station": true,
    "has_fire_station": false,
    "dist_hospital_km": 0.156,
    "dist_police_km": 0.4,
    "dist_fire_km": 0.0,
    "emergency_safety_index": 51.41
  },
  {
    "school_index": 160,
    "school_name": "Red Rose Public School",
    "lat": 28.5224386,
    "lon": 77.2058479,
    "has_hospital": true,
    "has_police_station": true,
    "has_fire_station": false,
    "dist_hospital_km": 0.79,
    "dist_police_km": 0.268,
    "dist_fire_km": 0.0,
    "emergency_safety_index": 48.67
  },
  {
    "school_index": 161,
    "school_name": "Vidya Niketan Senior Secondary School",
    "lat": 28.5208861,
    "lon": 77.2032663,
    "has_hospital": true,
    "has_police_station": true,
    "has_fire_station": false,
    "dist_hospital_km": 0.86,
    "dist_police_km": 0.571,
    "dist_fire_km": 0.0,
    "emergency_safety_index": 46.64
  },
  {
    "school_index": 162,
    "school_name": "Government School",
    "lat": 28.5233199,
    "lon": 77.2131703,
    "has_hospital": true,
    "has_police_station": true,
    "has_fire_station": false,
    "dist_hospital_km": 0.232,
    "dist_police_km": 0.468,
    "dist_fire_km": 0.0,
    "emergency_safety_index": 50.62
  },
  {
    "school_index": 163,
    "school_name": "Apeejay School Saket",
    "lat": 28.5205697,
    "lon": 77.2133534,
    "has_hospital": true,
    "has_police_station": true,
    "has_fire_station": false,
    "dist_hospital_km": 0.175,
    "dist_police_km": 0.577,
    "dist_fire_km": 0.0,
    "emergency_safety_index": 50.34
  },
  {
    "school_index": 164,
    "school_name": "Green Field School",
    "lat": 28.5234976,
    "lon": 77.2096748,
    "has_hospital": true,
    "has_police_station": true,
    "has_fire_station": false,
    "dist_hospital_km": 0.471,
    "dist_police_km": 0.127,
    "dist_fire_km": 0.0,
    "emergency_safety_index": 51.18
  },
  {
    "school_index": 165,
    "school_name": "Government School",
    "lat": 28.5226923,
    "lon": 77.209378,
    "has_hospital": true,
    "has_police_station": true,
    "has_fire_station": false,
    "dist_hospital_km": 0.563,
    "dist_police_km": 0.123,
    "dist_fire_km": 0.0,
    "emergency_safety_index": 50.7
  },
  {
    "school_index": 166,
    "school_name": "Delhi Institute Of Pharmaceutical Sciences And Research",
    "lat": 28.5168204,
    "lon": 77.2241584,
    "has_hospital": true,
    "has_police_station": true,
    "has_fire_station": false,
    "dist_hospital_km": 0.994,
    "dist_police_km": 1.269,
    "dist_fire_km": 0.0,
    "emergency_safety_index": 42.11
  },
  {
    "school_index": 167,
    "school_name": "Radha Krishna Vidya Niketan",
    "lat": 28.5208139,
    "lon": 77.2266679,
    "has_hospital": true,
    "has_police_station": true,
    "has_fire_station": false,
    "dist_hospital_km": 0.532,
    "dist_police_km": 1.124,
    "dist_fire_km": 0.0,
    "emergency_safety_index": 45.42
  },
  {
    "school_index": 168,
    "school_name": "Skv Raja Ram Mohan Roy School",
    "lat": 28.5304645,
    "lon": 77.2131775,
    "has_hospital": true,
    "has_police_station": true,
    "has_fire_station": false,
    "dist_hospital_km": 0.085,
    "dist_police_km": 0.592,
    "dist_fire_km": 0.0,
    "emergency_safety_index": 50.75
  },
  {
    "school_index": 169,
    "school_name": "Gyan Bharati School",
    "lat": 28.5254002,
    "lon": 77.2070077,
    "has_hospital": true,
    "has_police_station": true,
    "has_fire_station": false,
    "dist_hospital_km": 0.506,
    "dist_police_km": 0.263,
    "dist_fire_km": 0.0,
    "emergency_safety_index": 50.25
  },
  {
    "school_index": 170,
    "school_name": "Government Boys Senior Secondary School",
    "lat": 28.5342679,
    "lon": 77.2125141,
    "has_hospital": true,
    "has_police_station": true,
    "has_fire_station": false,
    "dist_hospital_km": 0.196,
    "dist_police_km": 0.7,
    "dist_fire_km": 0.0,
    "emergency_safety_index": 49.56
  },
  {
    "school_index": 171,
    "school_name": "Industrial Training Institute",
    "lat": 28.5358647,
    "lon": 77.2113476,
    "has_hospital": true,
    "has_police_station": true,
    "has_fire_station": false,
    "dist_hospital_km": 0.213,
    "dist_police_km": 0.864,
    "dist_fire_km": 0.0,
    "emergency_safety_index": 48.57
  },
  {
    "school_index": 172,
    "school_name": "Sarvodaya Kanya Vidyalaya",
    "lat": 28.5339621,
    "lon": 77.2131314,
    "has_hospital": true,
    "has_police_station": true,
    "has_fire_station": false,
    "dist_hospital_km": 0.192,
    "dist_police_km": 0.634,
    "dist_fire_km": 0.0,
    "emergency_safety_index": 49.94
  },
  {
    "school_index": 173,
    "school_name": "Delhi Public School International",
    "lat": 28.5282725,
    "lon": 77.2245027,
    "has_hospital": true,
    "has_police_station": true,
    "has_fire_station": false,
    "dist_hospital_km": 0.547,
    "dist_police_km": 0.41,
    "dist_fire_km": 0.0,
    "emergency_safety_index": 49.22
  },
  {
    "school_index": 174,
    "school_name": "College Of Vocational Studies",
    "lat": 28.5333499,
    "lon": 77.2268591,
    "has_hospital": true,
    "has_police_station": true,
    "has_fire_station": false,
    "dist_hospital_km": 0.142,
    "dist_police_km": 0.225,
    "dist_fire_km": 0.0,
    "emergency_safety_index": 52.44
  },
  {
    "school_index": 175,
    "school_name": "Shaheed Bhagat Singh College",
    "lat": 28.5347508,
    "lon": 77.2269128,
    "has_hospital": true,
    "has_police_station": true,
    "has_fire_station": false,
    "dist_hospital_km": 0.232,
    "dist_police_km": 0.356,
    "dist_fire_km": 0.0,
    "emergency_safety_index": 51.23
  },
  {
    "school_index": 176,
    "school_name": "Apeejay School",
    "lat": 28.536229,
    "lon": 77.2191239,
    "has_hospital": true,
    "has_police_station": true,
    "has_fire_station": false,
    "dist_hospital_km": 0.335,
    "dist_police_km": 0.38,
    "dist_fire_km": 0.0,
    "emergency_safety_index": 50.54
  },
  {
    "school_index": 177,
    "school_name": "Hari Vidya Bhawan",
    "lat": 28.496128,
    "lon": 77.2363978,
    "has_hospital": true,
    "has_police_station": false,
    "has_fire_station": false,
    "dist_hospital_km": 0.439,
    "dist_police_km": 0.0,
    "dist_fire_km": 0.0,
    "emergency_safety_index": 17.56
  },
  {
    "school_index": 178,
    "school_name": "Block A",
    "lat": 28.4953786,
    "lon": 77.2375688,
    "has_hospital": true,
    "has_police_station": false,
    "has_fire_station": false,
    "dist_hospital_km": 0.518,
    "dist_police_km": 0.0,
    "dist_fire_km": 0.0,
    "emergency_safety_index": 17.25
  },
  {
    "school_index": 179,
    "school_name": "Bachchan Prasad Sarvodaya Kanya Vidyalaya",
    "lat": 28.4995646,
    "lon": 77.2381647,
    "has_hospital": true,
    "has_police_station": false,
    "has_fire_station": false,
    "dist_hospital_km": 0.112,
    "dist_police_km": 0.0,
    "dist_fire_km": 0.0,
    "emergency_safety_index": 18.81
  },
  {
    "school_index": 180,
    "school_name": "Hamdarad Public School",
    "lat": 28.5044212,
    "lon": 77.2505942,
    "has_hospital": true,
    "has_police_station": false,
    "has_fire_station": false,
    "dist_hospital_km": 0.275,
    "dist_police_km": 0.0,
    "dist_fire_km": 0.0,
    "emergency_safety_index": 18.19
  },
  {
    "school_index": 181,
    "school_name": "Kendriya Vidyalaya",
    "lat": 28.511313,
    "lon": 77.2502214,
    "has_hospital": true,
    "has_police_station": true,
    "has_fire_station": false,
    "dist_hospital_km": 0.203,
    "dist_police_km": 1.54,
    "dist_fire_km": 0.0,
    "emergency_safety_index": 44.95
  },
  {
    "school_index": 182,
    "school_name": "Carmel Community Church",
    "lat": 28.5062487,
    "lon": 77.2468664,
    "has_hospital": true,
    "has_police_station": false,
    "has_fire_station": false,
    "dist_hospital_km": 0.309,
    "dist_police_km": 0.0,
    "dist_fire_km": 0.0,
    "emergency_safety_index": 18.06
  },
  {
    "school_index": 183,
    "school_name": "Skv Tughlakabad Village",
    "lat": 28.5101796,
    "lon": 77.2656855,
    "has_hospital": true,
    "has_police_station": true,
    "has_fire_station": false,
    "dist_hospital_km": 0.338,
    "dist_police_km": 1.958,
    "dist_fire_km": 0.0,
    "emergency_safety_index": 41.94
  },
  {
    "school_index": 184,
    "school_name": "Sdmc Primary School",
    "lat": 28.5242953,
    "lon": 77.2307245,
    "has_hospital": true,
    "has_police_station": true,
    "has_fire_station": false,
    "dist_hospital_km": 0.119,
    "dist_police_km": 0.999,
    "dist_fire_km": 0.0,
    "emergency_safety_index": 48.35
  },
  {
    "school_index": 185,
    "school_name": "Sdmc Primary School",
    "lat": 28.5248092,
    "lon": 77.2307811,
    "has_hospital": true,
    "has_police_station": true,
    "has_fire_station": false,
    "dist_hospital_km": 0.17,
    "dist_police_km": 0.955,
    "dist_fire_km": 0.0,
    "emergency_safety_index": 48.31
  },
  {
    "school_index": 186,
    "school_name": "Birla Vidya Niketan",
    "lat": 28.5266202,
    "lon": 77.2301703,
    "has_hospital": true,
    "has_police_station": true,
    "has_fire_station": false,
    "dist_hospital_km": 0.38,
    "dist_police_km": 0.757,
    "dist_fire_km": 0.0,
    "emergency_safety_index": 48.24
  },
  {
    "school_index": 187,
    "school_name": "Balvantray Mehta Vidya Bhawan",
    "lat": 28.5350929,
    "lon": 77.2357985,
    "has_hospital": true,
    "has_police_station": true,
    "has_fire_station": false,
    "dist_hospital_km": 0.395,
    "dist_police_km": 1.089,
    "dist_fire_km": 0.0,
    "emergency_safety_index": 46.36
  },
  {
    "school_index": 188,
    "school_name": "St John'S School",
    "lat": 28.537107,
    "lon": 77.2354313,
    "has_hospital": true,
    "has_police_station": true,
    "has_fire_station": false,
    "dist_hospital_km": 0.596,
    "dist_police_km": 1.15,
    "dist_fire_km": 0.0,
    "emergency_safety_index": 44.93
  },
  {
    "school_index": 189,
    "school_name": "Kalka Public School",
    "lat": 28.5289579,
    "lon": 77.2511198,
    "has_hospital": true,
    "has_police_station": true,
    "has_fire_station": false,
    "dist_hospital_km": 0.59,
    "dist_police_km": 0.569,
    "dist_fire_km": 0.0,
    "emergency_safety_index": 48.12
  },
  {
    "school_index": 190,
    "school_name": "Paul George Global School",
    "lat": 28.528279,
    "lon": 77.251458,
    "has_hospital": true,
    "has_police_station": true,
    "has_fire_station": false,
    "dist_hospital_km": 0.64,
    "dist_police_km": 0.488,
    "dist_fire_km": 0.0,
    "emergency_safety_index": 48.29
  },
  {
    "school_index": 191,
    "school_name": "St George'S School",
    "lat": 28.5283641,
    "lon": 77.2507709,
    "has_hospital": true,
    "has_police_station": true,
    "has_fire_station": false,
    "dist_hospital_km": 0.574,
    "dist_police_km": 0.537,
    "dist_fire_km": 0.0,
    "emergency_safety_index": 48.39
  },
  {
    "school_index": 192,
    "school_name": "Raisina Bengali School Secondary School",
    "lat": 28.5360857,
    "lon": 77.2482746,
    "has_hospital": true,
    "has_police_station": true,
    "has_fire_station": true,
    "dist_hospital_km": 0.402,
    "dist_police_km": 0.144,
    "dist_fire_km": 1.681,
    "emergency_safety_index": 85.15
  },
  {
    "school_index": 193,
    "school_name": "Kumar Mangalam School",
    "lat": 28.532607,
    "lon": 77.2483559,
    "has_hospital": true,
    "has_police_station": true,
    "has_fire_station": true,
    "dist_hospital_km": 0.425,
    "dist_police_km": 0.478,
    "dist_fire_km": 2.023,
    "emergency_safety_index": 80.49
  },
  {
    "school_index": 194,
    "school_name": "Govt Secondary School",
    "lat": 28.5127484,
    "lon": 77.2660559,
    "has_hospital": true,
    "has_police_station": true,
    "has_fire_station": false,
    "dist_hospital_km": 0.091,
    "dist_police_km": 1.753,
    "dist_fire_km": 0.0,
    "emergency_safety_index": 44.4
  },
  {
    "school_index": 195,
    "school_name": "New Green Field School",
    "lat": 28.5246515,
    "lon": 77.2548579,
    "has_hospital": true,
    "has_police_station": true,
    "has_fire_station": false,
    "dist_hospital_km": 1.113,
    "dist_police_km": 0.052,
    "dist_fire_km": 0.0,
    "emergency_safety_index": 48.09
  },
  {
    "school_index": 196,
    "school_name": "Shri Satya Sai Vidya Vihar School",
    "lat": 28.5289624,
    "lon": 77.2631402,
    "has_hospital": true,
    "has_police_station": true,
    "has_fire_station": false,
    "dist_hospital_km": 0.468,
    "dist_police_km": 0.323,
    "dist_fire_km": 0.0,
    "emergency_safety_index": 50.13
  },
  {
    "school_index": 197,
    "school_name": "Deepalaya",
    "lat": 28.5301323,
    "lon": 77.2676661,
    "has_hospital": true,
    "has_police_station": true,
    "has_fire_station": false,
    "dist_hospital_km": 0.298,
    "dist_police_km": 0.208,
    "dist_fire_km": 0.0,
    "emergency_safety_index": 51.68
  },
  {
    "school_index": 198,
    "school_name": "Aravali International School",
    "lat": 28.4461842,
    "lon": 77.2827984,
    "has_hospital": false,
    "has_police_station": true,
    "has_fire_station": false,
    "dist_hospital_km": 0.0,
    "dist_police_km": 1.67,
    "dist_fire_km": 0.0,
    "emergency_safety_index": 12.82
  },
  {
    "school_index": 199,
    "school_name": "Eicher School",
    "lat": 28.4395345,
    "lon": 77.2982064,
    "has_hospital": true,
    "has_police_station": true,
    "has_fire_station": false,
    "dist_hospital_km": 0.709,
    "dist_police_km": 0.957,
    "dist_fire_km": 0.0,
    "emergency_safety_index": 45.36
  },
  {
    "school_index": 200,
    "school_name": "Moden Vidya Niketan",
    "lat": 28.4477742,
    "lon": 77.2823133,
    "has_hospital": false,
    "has_police_station": true,
    "has_fire_station": false,
    "dist_hospital_km": 0.0,
    "dist_police_km": 1.502,
    "dist_fire_km": 0.0,
    "emergency_safety_index": 13.46
  },
  {
    "school_index": 201,
    "school_name": "Manav Rachna",
    "lat": 28.4501456,
    "lon": 77.2856495,
    "has_hospital": true,
    "has_police_station": true,
    "has_fire_station": false,
    "dist_hospital_km": 1.643,
    "dist_police_km": 1.218,
    "dist_fire_km": 0.0,
    "emergency_safety_index": 38.86
  },
  {
    "school_index": 202,
    "school_name": "Sos Hermann Gmeiner School",
    "lat": 28.4381481,
    "lon": 77.3230345,
    "has_hospital": true,
    "has_police_station": false,
    "has_fire_station": false,
    "dist_hospital_km": 0.499,
    "dist_police_km": 0.0,
    "dist_fire_km": 0.0,
    "emergency_safety_index": 17.32
  },
  {
    "school_index": 203,
    "school_name": "Holy Child Public School",
    "lat": 28.4340188,
    "lon": 77.3237631,
    "has_hospital": true,
    "has_police_station": false,
    "has_fire_station": false,
    "dist_hospital_km": 0.258,
    "dist_police_km": 0.0,
    "dist_fire_km": 0.0,
    "emergency_safety_index": 18.25
  },
  {
    "school_index": 204,
    "school_name": "Kalka Public School",
    "lat": 28.4607668,
    "lon": 77.2858307,
    "has_hospital": true,
    "has_police_station": true,
    "has_fire_station": false,
    "dist_hospital_km": 0.723,
    "dist_police_km": 0.094,
    "dist_fire_km": 0.0,
    "emergency_safety_index": 49.99
  },
  {
    "school_index": 205,
    "school_name": "Sos Children'S Village - Greenfields",
    "lat": 28.463139,
    "lon": 77.289574,
    "has_hospital": true,
    "has_police_station": true,
    "has_fire_station": false,
    "dist_hospital_km": 0.287,
    "dist_police_km": 0.507,
    "dist_fire_km": 0.0,
    "emergency_safety_index": 50.11
  },
  {
    "school_index": 206,
    "school_name": "Surya Modern Public School",
    "lat": 28.4801717,
    "lon": 77.2919469,
    "has_hospital": true,
    "has_police_station": true,
    "has_fire_station": false,
    "dist_hospital_km": 1.207,
    "dist_police_km": 1.901,
    "dist_fire_km": 0.0,
    "emergency_safety_index": 37.52
  },
  {
    "school_index": 207,
    "school_name": "Ideal Public School",
    "lat": 28.4816332,
    "lon": 77.2983933,
    "has_hospital": true,
    "has_police_station": true,
    "has_fire_station": false,
    "dist_hospital_km": 1.25,
    "dist_police_km": 1.446,
    "dist_fire_km": 0.0,
    "emergency_safety_index": 39.76
  },
  {
    "school_index": 208,
    "school_name": "Saffron Public School",
    "lat": 28.4755668,
    "lon": 77.3132859,
    "has_hospital": true,
    "has_police_station": false,
    "has_fire_station": false,
    "dist_hospital_km": 0.465,
    "dist_police_km": 0.0,
    "dist_fire_km": 0.0,
    "emergency_safety_index": 17.46
  },
  {
    "school_index": 209,
    "school_name": "Manav Rachna International School",
    "lat": 28.4949637,
    "lon": 77.2879558,
    "has_hospital": true,
    "has_police_station": true,
    "has_fire_station": false,
    "dist_hospital_km": 0.541,
    "dist_police_km": 0.818,
    "dist_fire_km": 0.0,
    "emergency_safety_index": 47.04
  },
  {
    "school_index": 210,
    "school_name": "St Columbus School",
    "lat": 28.492145,
    "lon": 77.2965464,
    "has_hospital": true,
    "has_police_station": true,
    "has_fire_station": false,
    "dist_hospital_km": 0.541,
    "dist_police_km": 0.728,
    "dist_fire_km": 0.0,
    "emergency_safety_index": 47.53
  },
  {
    "school_index": 211,
    "school_name": "Surajkund International School",
    "lat": 28.4933368,
    "lon": 77.2955958,
    "has_hospital": true,
    "has_police_station": true,
    "has_fire_station": false,
    "dist_hospital_km": 0.505,
    "dist_police_km": 0.8,
    "dist_fire_km": 0.0,
    "emergency_safety_index": 47.33
  },
  {
    "school_index": 212,
    "school_name": "Surajkund International",
    "lat": 28.4937114,
    "lon": 77.2958981,
    "has_hospital": true,
    "has_police_station": true,
    "has_fire_station": false,
    "dist_hospital_km": 0.552,
    "dist_police_km": 0.769,
    "dist_fire_km": 0.0,
    "emergency_safety_index": 47.24
  },
  {
    "school_index": 213,
    "school_name": "Blind School",
    "lat": 28.5030487,
    "lon": 77.2824615,
    "has_hospital": true,
    "has_police_station": true,
    "has_fire_station": false,
    "dist_hospital_km": 1.263,
    "dist_police_km": 0.816,
    "dist_fire_km": 0.0,
    "emergency_safety_index": 43.12
  },
  {
    "school_index": 214,
    "school_name": "Kendriya Vidyalaya",
    "lat": 28.509001,
    "lon": 77.3017178,
    "has_hospital": false,
    "has_police_station": true,
    "has_fire_station": false,
    "dist_hospital_km": 0.0,
    "dist_police_km": 1.334,
    "dist_fire_km": 0.0,
    "emergency_safety_index": 14.11
  },
  {
    "school_index": 215,
    "school_name": "Green Valley Public School",
    "lat": 28.503776,
    "lon": 77.3201157,
    "has_hospital": true,
    "has_police_station": true,
    "has_fire_station": false,
    "dist_hospital_km": 0.486,
    "dist_police_km": 0.509,
    "dist_fire_km": 0.0,
    "emergency_safety_index": 49.02
  },
  {
    "school_index": 216,
    "school_name": "Panchsheel Public School",
    "lat": 28.5076281,
    "lon": 77.3272202,
    "has_hospital": true,
    "has_police_station": true,
    "has_fire_station": false,
    "dist_hospital_km": 0.891,
    "dist_police_km": 1.318,
    "dist_fire_km": 0.0,
    "emergency_safety_index": 42.41
  },
  {
    "school_index": 217,
    "school_name": "Cricket Ground",
    "lat": 28.5074544,
    "lon": 77.3303522,
    "has_hospital": true,
    "has_police_station": true,
    "has_fire_station": false,
    "dist_hospital_km": 1.045,
    "dist_police_km": 1.151,
    "dist_fire_km": 0.0,
    "emergency_safety_index": 42.48
  },
  {
    "school_index": 218,
    "school_name": "S T Giri School",
    "lat": 28.5337395,
    "lon": 77.2909681,
    "has_hospital": true,
    "has_police_station": true,
    "has_fire_station": false,
    "dist_hospital_km": 0.697,
    "dist_police_km": 0.223,
    "dist_fire_km": 0.0,
    "emergency_safety_index": 49.43
  },
  {
    "school_index": 219,
    "school_name": "School Of Excellence Madanpur Khadar",
    "lat": 28.5295693,
    "lon": 77.3178688,
    "has_hospital": true,
    "has_police_station": true,
    "has_fire_station": false,
    "dist_hospital_km": 0.304,
    "dist_police_km": 0.152,
    "dist_fire_km": 0.0,
    "emergency_safety_index": 51.95
  },
  {
    "school_index": 220,
    "school_name": "Real View Public School",
    "lat": 28.5103115,
    "lon": 77.3357511,
    "has_hospital": true,
    "has_police_station": false,
    "has_fire_station": false,
    "dist_hospital_km": 1.643,
    "dist_police_km": 0.0,
    "dist_fire_km": 0.0,
    "emergency_safety_index": 12.92
  },
  {
    "school_index": 221,
    "school_name": "Step By Step School",
    "lat": 28.511446,
    "lon": 77.3782509,
    "has_hospital": true,
    "has_police_station": false,
    "has_fire_station": false,
    "dist_hospital_km": 0.237,
    "dist_police_km": 0.0,
    "dist_fire_km": 0.0,
    "emergency_safety_index": 18.33
  },
  {
    "school_index": 222,
    "school_name": "Genesis Global School",
    "lat": 28.5132379,
    "lon": 77.3814232,
    "has_hospital": true,
    "has_police_station": true,
    "has_fire_station": false,
    "dist_hospital_km": 0.559,
    "dist_police_km": 1.772,
    "dist_fire_km": 0.0,
    "emergency_safety_index": 41.74
  },
  {
    "school_index": 223,
    "school_name": "Jbm Global School",
    "lat": 28.5125501,
    "lon": 77.3791708,
    "has_hospital": true,
    "has_police_station": true,
    "has_fire_station": false,
    "dist_hospital_km": 0.327,
    "dist_police_km": 1.897,
    "dist_fire_km": 0.0,
    "emergency_safety_index": 42.33
  },
  {
    "school_index": 224,
    "school_name": "Somerville School",
    "lat": 28.5088352,
    "lon": 77.37528,
    "has_hospital": true,
    "has_police_station": false,
    "has_fire_station": false,
    "dist_hospital_km": 0.352,
    "dist_police_km": 0.0,
    "dist_fire_km": 0.0,
    "emergency_safety_index": 17.89
  },
  {
    "school_index": 225,
    "school_name": "Lotus Valley International School",
    "lat": 28.5379518,
    "lon": 77.3453446,
    "has_hospital": false,
    "has_police_station": true,
    "has_fire_station": false,
    "dist_hospital_km": 0.0,
    "dist_police_km": 0.495,
    "dist_fire_km": 0.0,
    "emergency_safety_index": 17.34
  },
  {
    "school_index": 226,
    "school_name": "Gyanshree School",
    "lat": 28.5356741,
    "lon": 77.3492227,
    "has_hospital": false,
    "has_police_station": true,
    "has_fire_station": false,
    "dist_hospital_km": 0.0,
    "dist_police_km": 0.94,
    "dist_fire_km": 0.0,
    "emergency_safety_index": 15.63
  },
  {
    "school_index": 227,
    "school_name": "Jaypee Public School",
    "lat": 28.5232896,
    "lon": 77.3650861,
    "has_hospital": true,
    "has_police_station": false,
    "has_fire_station": false,
    "dist_hospital_km": 1.645,
    "dist_police_km": 0.0,
    "dist_fire_km": 0.0,
    "emergency_safety_index": 12.91
  },
  {
    "school_index": 228,
    "school_name": "Delhi Public School",
    "lat": 28.5158287,
    "lon": 77.37527,
    "has_hospital": true,
    "has_police_station": true,
    "has_fire_station": false,
    "dist_hospital_km": 0.436,
    "dist_police_km": 1.717,
    "dist_fire_km": 0.0,
    "emergency_safety_index": 42.71
  },
  {
    "school_index": 229,
    "school_name": "Lingaya'S University Faridabad",
    "lat": 28.4097591,
    "lon": 77.4045554,
    "has_hospital": false,
    "has_police_station": false,
    "has_fire_station": false,
    "dist_hospital_km": 0.0,
    "dist_police_km": 0.0,
    "dist_fire_km": 0.0,
    "emergency_safety_index": 0.0
  },
  {
    "school_index": 230,
    "school_name": "The Shriram Millennium School",
    "lat": 28.4988818,
    "lon": 77.3975286,
    "has_hospital": true,
    "has_police_station": true,
    "has_fire_station": false,
    "dist_hospital_km": 1.332,
    "dist_police_km": 0.423,
    "dist_fire_km": 0.0,
    "emergency_safety_index": 44.88
  },
  {
    "school_index": 231,
    "school_name": "Shiv Nadar School Noida",
    "lat": 28.4943602,
    "lon": 77.4115352,
    "has_hospital": true,
    "has_police_station": true,
    "has_fire_station": false,
    "dist_hospital_km": 1.317,
    "dist_police_km": 1.144,
    "dist_fire_km": 0.0,
    "emergency_safety_index": 41.04
  },
  {
    "school_index": 232,
    "school_name": "Panchsheel Balak Inter College",
    "lat": 28.5097538,
    "lon": 77.3926584,
    "has_hospital": true,
    "has_police_station": true,
    "has_fire_station": false,
    "dist_hospital_km": 1.61,
    "dist_police_km": 1.404,
    "dist_fire_km": 0.0,
    "emergency_safety_index": 38.03
  },
  {
    "school_index": 233,
    "school_name": "Shanti International School",
    "lat": 28.4915571,
    "lon": 77.4121471,
    "has_hospital": true,
    "has_police_station": true,
    "has_fire_station": false,
    "dist_hospital_km": 1.634,
    "dist_police_km": 1.382,
    "dist_fire_km": 0.0,
    "emergency_safety_index": 38.02
  },
  {
    "school_index": 234,
    "school_name": "Indian Statistical Institute Delhi",
    "lat": 28.5392401,
    "lon": 77.1856988,
    "has_hospital": true,
    "has_police_station": true,
    "has_fire_station": false,
    "dist_hospital_km": 0.24,
    "dist_police_km": 1.636,
    "dist_fire_km": 0.0,
    "emergency_safety_index": 44.22
  },
  {
    "school_index": 235,
    "school_name": "Kendriya Vidhyalaya Jnu",
    "lat": 28.5472617,
    "lon": 77.1775204,
    "has_hospital": true,
    "has_police_station": true,
    "has_fire_station": false,
    "dist_hospital_km": 1.0,
    "dist_police_km": 1.457,
    "dist_fire_km": 0.0,
    "emergency_safety_index": 41.06
  },
  {
    "school_index": 236,
    "school_name": "Kendriya Vidyalaya",
    "lat": 28.5425515,
    "lon": 77.198105,
    "has_hospital": true,
    "has_police_station": true,
    "has_fire_station": false,
    "dist_hospital_km": 0.4,
    "dist_police_km": 1.464,
    "dist_fire_km": 0.0,
    "emergency_safety_index": 44.29
  },
  {
    "school_index": 237,
    "school_name": "The Mother'S International School",
    "lat": 28.5403284,
    "lon": 77.2018505,
    "has_hospital": true,
    "has_police_station": true,
    "has_fire_station": false,
    "dist_hospital_km": 0.349,
    "dist_police_km": 1.106,
    "dist_fire_km": 0.0,
    "emergency_safety_index": 46.51
  },
  {
    "school_index": 238,
    "school_name": "Kusuma School Of Biological Sciences",
    "lat": 28.5455575,
    "lon": 77.1941444,
    "has_hospital": true,
    "has_police_station": true,
    "has_fire_station": false,
    "dist_hospital_km": 0.316,
    "dist_police_km": 1.943,
    "dist_fire_km": 0.0,
    "emergency_safety_index": 42.14
  },
  {
    "school_index": 239,
    "school_name": "St Paul'S School",
    "lat": 28.5485981,
    "lon": 77.1995739,
    "has_hospital": true,
    "has_police_station": false,
    "has_fire_station": false,
    "dist_hospital_km": 0.356,
    "dist_police_km": 0.0,
    "dist_fire_km": 0.0,
    "emergency_safety_index": 17.87
  },
  {
    "school_index": 240,
    "school_name": "Saksham Pre School",
    "lat": 28.56283,
    "lon": 77.1882225,
    "has_hospital": true,
    "has_police_station": true,
    "has_fire_station": true,
    "dist_hospital_km": 0.236,
    "dist_police_km": 0.751,
    "dist_fire_km": 0.743,
    "emergency_safety_index": 88.47
  },
  {
    "school_index": 241,
    "school_name": "Sri Ram School Rk Puram",
    "lat": 28.5585897,
    "lon": 77.1792707,
    "has_hospital": true,
    "has_police_station": true,
    "has_fire_station": true,
    "dist_hospital_km": 0.803,
    "dist_police_km": 0.255,
    "dist_fire_km": 1.214,
    "emergency_safety_index": 84.85
  },
  {
    "school_index": 242,
    "school_name": "Kendriya Vidyalaya Rk Puram Sector-2",
    "lat": 28.56249,
    "lon": 77.1860721,
    "has_hospital": true,
    "has_police_station": true,
    "has_fire_station": true,
    "dist_hospital_km": 0.403,
    "dist_police_km": 0.545,
    "dist_fire_km": 0.697,
    "emergency_safety_index": 89.03
  },
  {
    "school_index": 243,
    "school_name": "Gargi Sarvodaya Kanya Vidyalaya",
    "lat": 28.5603646,
    "lon": 77.2014946,
    "has_hospital": true,
    "has_police_station": true,
    "has_fire_station": true,
    "dist_hospital_km": 0.12,
    "dist_police_km": 1.769,
    "dist_fire_km": 1.91,
    "emergency_safety_index": 74.67
  },
  {
    "school_index": 244,
    "school_name": "Mirambika",
    "lat": 28.5399635,
    "lon": 77.203736,
    "has_hospital": true,
    "has_police_station": true,
    "has_fire_station": false,
    "dist_hospital_km": 0.367,
    "dist_police_km": 1.036,
    "dist_fire_km": 0.0,
    "emergency_safety_index": 46.8
  },
  {
    "school_index": 245,
    "school_name": "Government Senior Secondary Schools",
    "lat": 28.5499596,
    "lon": 77.2145302,
    "has_hospital": true,
    "has_police_station": true,
    "has_fire_station": false,
    "dist_hospital_km": 0.675,
    "dist_police_km": 1.801,
    "dist_fire_km": 0.0,
    "emergency_safety_index": 40.96
  },
  {
    "school_index": 246,
    "school_name": "Mcd Primary Co-Educational School",
    "lat": 28.5468778,
    "lon": 77.214043,
    "has_hospital": true,
    "has_police_station": true,
    "has_fire_station": false,
    "dist_hospital_km": 0.381,
    "dist_police_km": 1.651,
    "dist_fire_km": 0.0,
    "emergency_safety_index": 43.37
  },
  {
    "school_index": 247,
    "school_name": "Manava Bharti India International School",
    "lat": 28.5405611,
    "lon": 77.2172541,
    "has_hospital": true,
    "has_police_station": true,
    "has_fire_station": false,
    "dist_hospital_km": 0.433,
    "dist_police_km": 0.887,
    "dist_fire_km": 0.0,
    "emergency_safety_index": 47.25
  },
  {
    "school_index": 248,
    "school_name": "Step By Step Nursery School",
    "lat": 28.543689,
    "lon": 77.2175151,
    "has_hospital": true,
    "has_police_station": true,
    "has_fire_station": false,
    "dist_hospital_km": 0.315,
    "dist_police_km": 1.223,
    "dist_fire_km": 0.0,
    "emergency_safety_index": 46.06
  },
  {
    "school_index": 249,
    "school_name": "Sarvodaya Kanya Vidhyalaya - Hauz Khas 1",
    "lat": 28.5431318,
    "lon": 77.2224675,
    "has_hospital": true,
    "has_police_station": true,
    "has_fire_station": false,
    "dist_hospital_km": 0.799,
    "dist_police_km": 1.182,
    "dist_fire_km": 0.0,
    "emergency_safety_index": 43.65
  },
  {
    "school_index": 250,
    "school_name": "Father Agnel School",
    "lat": 28.5607959,
    "lon": 77.2143147,
    "has_hospital": true,
    "has_police_station": true,
    "has_fire_station": false,
    "dist_hospital_km": 0.668,
    "dist_police_km": 1.897,
    "dist_fire_km": 0.0,
    "emergency_safety_index": 40.47
  },
  {
    "school_index": 251,
    "school_name": "National Institute Of Fashion Technology",
    "lat": 28.5562018,
    "lon": 77.2084081,
    "has_hospital": true,
    "has_police_station": false,
    "has_fire_station": false,
    "dist_hospital_km": 0.312,
    "dist_police_km": 0.0,
    "dist_fire_km": 0.0,
    "emergency_safety_index": 18.04
  },
  {
    "school_index": 252,
    "school_name": "Gargi College",
    "lat": 28.5548512,
    "lon": 77.2182649,
    "has_hospital": true,
    "has_police_station": true,
    "has_fire_station": false,
    "dist_hospital_km": 0.857,
    "dist_police_km": 1.371,
    "dist_fire_km": 0.0,
    "emergency_safety_index": 42.31
  },
  {
    "school_index": 253,
    "school_name": "Kamala Nehru College",
    "lat": 28.5557144,
    "lon": 77.2164121,
    "has_hospital": true,
    "has_police_station": true,
    "has_fire_station": false,
    "dist_hospital_km": 0.915,
    "dist_police_km": 1.558,
    "dist_fire_km": 0.0,
    "emergency_safety_index": 40.97
  },
  {
    "school_index": 254,
    "school_name": "The Indian School",
    "lat": 28.5565721,
    "lon": 77.228401,
    "has_hospital": true,
    "has_police_station": true,
    "has_fire_station": false,
    "dist_hospital_km": 0.268,
    "dist_police_km": 0.454,
    "dist_fire_km": 0.0,
    "emergency_safety_index": 50.5
  },
  {
    "school_index": 255,
    "school_name": "M C D Primary School C R Park",
    "lat": 28.5430623,
    "lon": 77.2451008,
    "has_hospital": true,
    "has_police_station": true,
    "has_fire_station": true,
    "dist_hospital_km": 0.433,
    "dist_police_km": 0.398,
    "dist_fire_km": 1.328,
    "emergency_safety_index": 85.61
  },
  {
    "school_index": 256,
    "school_name": "Shyama Prasad Mukherjee Sarvodaya Coeducational Vidyalaya",
    "lat": 28.5414045,
    "lon": 77.2456009,
    "has_hospital": true,
    "has_police_station": true,
    "has_fire_station": true,
    "dist_hospital_km": 0.575,
    "dist_police_km": 0.584,
    "dist_fire_km": 1.394,
    "emergency_safety_index": 82.98
  },
  {
    "school_index": 257,
    "school_name": "Sdmc Pratibha School",
    "lat": 28.5431479,
    "lon": 77.2508723,
    "has_hospital": true,
    "has_police_station": true,
    "has_fire_station": true,
    "dist_hospital_km": 0.424,
    "dist_police_km": 0.72,
    "dist_fire_km": 0.888,
    "emergency_safety_index": 86.45
  },
  {
    "school_index": 258,
    "school_name": "Deshbandhu College",
    "lat": 28.5398013,
    "lon": 77.2554794,
    "has_hospital": true,
    "has_police_station": true,
    "has_fire_station": true,
    "dist_hospital_km": 0.723,
    "dist_police_km": 0.671,
    "dist_fire_km": 1.058,
    "emergency_safety_index": 83.65
  },
  {
    "school_index": 259,
    "school_name": "Kautilya Government Sarvodaya Coeducational Vidyalaya",
    "lat": 28.5481373,
    "lon": 77.2454256,
    "has_hospital": true,
    "has_police_station": true,
    "has_fire_station": true,
    "dist_hospital_km": 0.16,
    "dist_police_km": 0.311,
    "dist_fire_km": 1.111,
    "emergency_safety_index": 89.45
  },
  {
    "school_index": 260,
    "school_name": "Guru Harkrishan Public School",
    "lat": 28.548122,
    "lon": 77.2465955,
    "has_hospital": true,
    "has_police_station": true,
    "has_fire_station": true,
    "dist_hospital_km": 0.241,
    "dist_police_km": 0.401,
    "dist_fire_km": 0.998,
    "emergency_safety_index": 89.07
  },
  {
    "school_index": 261,
    "school_name": "Veer Savarkar Sarvodaya Kanya Vidyalaya Number 1",
    "lat": 28.5451375,
    "lon": 77.2497973,
    "has_hospital": true,
    "has_police_station": true,
    "has_fire_station": true,
    "dist_hospital_km": 0.184,
    "dist_police_km": 0.542,
    "dist_fire_km": 0.817,
    "emergency_safety_index": 89.71
  },
  {
    "school_index": 262,
    "school_name": "Mata Gujri Public School",
    "lat": 28.5515057,
    "lon": 77.2379183,
    "has_hospital": true,
    "has_police_station": true,
    "has_fire_station": true,
    "dist_hospital_km": 0.421,
    "dist_police_km": 0.348,
    "dist_fire_km": 1.855,
    "emergency_safety_index": 82.51
  },
  {
    "school_index": 263,
    "school_name": "Kendriya Vidyalaya",
    "lat": 28.5609787,
    "lon": 77.2329936,
    "has_hospital": true,
    "has_police_station": true,
    "has_fire_station": false,
    "dist_hospital_km": 0.682,
    "dist_police_km": 0.742,
    "dist_fire_km": 0.0,
    "emergency_safety_index": 46.68
  },
  {
    "school_index": 264,
    "school_name": "Rajkumari Amrit Kaur College Of Nursing",
    "lat": 28.5624806,
    "lon": 77.2334788,
    "has_hospital": true,
    "has_police_station": true,
    "has_fire_station": false,
    "dist_hospital_km": 0.509,
    "dist_police_km": 0.913,
    "dist_fire_km": 0.0,
    "emergency_safety_index": 46.69
  },
  {
    "school_index": 265,
    "school_name": "Ss Khalsa Senior Secondary School",
    "lat": 28.5620877,
    "lon": 77.2414339,
    "has_hospital": true,
    "has_police_station": true,
    "has_fire_station": false,
    "dist_hospital_km": 0.31,
    "dist_police_km": 0.451,
    "dist_fire_km": 0.0,
    "emergency_safety_index": 50.29
  },
  {
    "school_index": 266,
    "school_name": "Frank Anthony Public School",
    "lat": 28.5610391,
    "lon": 77.2358433,
    "has_hospital": true,
    "has_police_station": true,
    "has_fire_station": false,
    "dist_hospital_km": 0.557,
    "dist_police_km": 0.822,
    "dist_fire_km": 0.0,
    "emergency_safety_index": 46.93
  },
  {
    "school_index": 267,
    "school_name": "Oxford Kids",
    "lat": 28.5563583,
    "lon": 77.2432313,
    "has_hospital": true,
    "has_police_station": true,
    "has_fire_station": true,
    "dist_hospital_km": 0.212,
    "dist_police_km": 0.299,
    "dist_fire_km": 1.537,
    "emergency_safety_index": 86.35
  },
  {
    "school_index": 268,
    "school_name": "Sarvodaya Kanya Vidyalaya No 2",
    "lat": 28.5561395,
    "lon": 77.2457747,
    "has_hospital": true,
    "has_police_station": true,
    "has_fire_station": true,
    "dist_hospital_km": 0.447,
    "dist_police_km": 0.339,
    "dist_fire_km": 1.316,
    "emergency_safety_index": 85.99
  },
  {
    "school_index": 269,
    "school_name": "The Study School",
    "lat": 28.557268,
    "lon": 77.243657,
    "has_hospital": true,
    "has_police_station": true,
    "has_fire_station": true,
    "dist_hospital_km": 0.3,
    "dist_police_km": 0.19,
    "dist_fire_km": 1.557,
    "emergency_safety_index": 86.35
  },
  {
    "school_index": 270,
    "school_name": "Tagore International School",
    "lat": 28.5587122,
    "lon": 77.2420203,
    "has_hospital": true,
    "has_police_station": true,
    "has_fire_station": true,
    "dist_hospital_km": 0.355,
    "dist_police_km": 0.222,
    "dist_fire_km": 1.781,
    "emergency_safety_index": 84.28
  },
  {
    "school_index": 271,
    "school_name": "Daisy Dales School",
    "lat": 28.5576403,
    "lon": 77.2445938,
    "has_hospital": true,
    "has_police_station": true,
    "has_fire_station": true,
    "dist_hospital_km": 0.399,
    "dist_police_km": 0.142,
    "dist_fire_km": 1.509,
    "emergency_safety_index": 86.33
  },
  {
    "school_index": 272,
    "school_name": "Acharya Narendra Dev College",
    "lat": 28.5391591,
    "lon": 77.2642742,
    "has_hospital": true,
    "has_police_station": true,
    "has_fire_station": true,
    "dist_hospital_km": 0.192,
    "dist_police_km": 0.938,
    "dist_fire_km": 1.342,
    "emergency_safety_index": 83.52
  },
  {
    "school_index": 273,
    "school_name": "School Of Excellence",
    "lat": 28.5433011,
    "lon": 77.2601751,
    "has_hospital": true,
    "has_police_station": true,
    "has_fire_station": true,
    "dist_hospital_km": 0.42,
    "dist_police_km": 0.853,
    "dist_fire_km": 0.742,
    "emergency_safety_index": 86.57
  },
  {
    "school_index": 274,
    "school_name": "Government Boys Girls Senior Secondary School",
    "lat": 28.5444437,
    "lon": 77.2768472,
    "has_hospital": true,
    "has_police_station": true,
    "has_fire_station": true,
    "dist_hospital_km": 0.749,
    "dist_police_km": 1.751,
    "dist_fire_km": 2.036,
    "emergency_safety_index": 69.76
  },
  {
    "school_index": 275,
    "school_name": "South Delhi Public School",
    "lat": 28.5598668,
    "lon": 77.2577017,
    "has_hospital": true,
    "has_police_station": true,
    "has_fire_station": true,
    "dist_hospital_km": 1.081,
    "dist_police_km": 0.996,
    "dist_fire_km": 1.184,
    "emergency_safety_index": 78.26
  },
  {
    "school_index": 276,
    "school_name": "Sarvodaya Kanya Vidyalaya",
    "lat": 28.5637562,
    "lon": 77.2724104,
    "has_hospital": true,
    "has_police_station": true,
    "has_fire_station": false,
    "dist_hospital_km": 0.084,
    "dist_police_km": 0.504,
    "dist_fire_km": 0.0,
    "emergency_safety_index": 51.23
  },
  {
    "school_index": 277,
    "school_name": "Jamia Millia Islamia",
    "lat": 28.5638885,
    "lon": 77.2821816,
    "has_hospital": true,
    "has_police_station": true,
    "has_fire_station": false,
    "dist_hospital_km": 0.404,
    "dist_police_km": 0.596,
    "dist_fire_km": 0.0,
    "emergency_safety_index": 48.99
  },
  {
    "school_index": 278,
    "school_name": "Don Bosco Technical Institute",
    "lat": 28.5591006,
    "lon": 77.2769483,
    "has_hospital": true,
    "has_police_station": true,
    "has_fire_station": false,
    "dist_hospital_km": 0.33,
    "dist_police_km": 1.006,
    "dist_fire_km": 0.0,
    "emergency_safety_index": 47.16
  },
  {
    "school_index": 279,
    "school_name": "Good Samaritan School",
    "lat": 28.546447,
    "lon": 77.2955195,
    "has_hospital": true,
    "has_police_station": true,
    "has_fire_station": false,
    "dist_hospital_km": 0.248,
    "dist_police_km": 1.258,
    "dist_fire_km": 0.0,
    "emergency_safety_index": 46.24
  },
  {
    "school_index": 280,
    "school_name": "Rahman Public School",
    "lat": 28.5476327,
    "lon": 77.3031706,
    "has_hospital": true,
    "has_police_station": true,
    "has_fire_station": false,
    "dist_hospital_km": 0.284,
    "dist_police_km": 1.741,
    "dist_fire_km": 0.0,
    "emergency_safety_index": 43.41
  },
  {
    "school_index": 281,
    "school_name": "Sarvodaya Kanya Vidayalya Noor Nagar",
    "lat": 28.5567941,
    "lon": 77.287949,
    "has_hospital": true,
    "has_police_station": true,
    "has_fire_station": false,
    "dist_hospital_km": 0.157,
    "dist_police_km": 0.555,
    "dist_fire_km": 0.0,
    "emergency_safety_index": 50.56
  },
  {
    "school_index": 282,
    "school_name": "Smart Kids Public School",
    "lat": 28.5559383,
    "lon": 77.2956138,
    "has_hospital": true,
    "has_police_station": true,
    "has_fire_station": false,
    "dist_hospital_km": 0.283,
    "dist_police_km": 1.003,
    "dist_fire_km": 0.0,
    "emergency_safety_index": 47.43
  },
  {
    "school_index": 283,
    "school_name": "Amity School",
    "lat": 28.555807,
    "lon": 77.3295694,
    "has_hospital": true,
    "has_police_station": true,
    "has_fire_station": false,
    "dist_hospital_km": 1.28,
    "dist_police_km": 1.781,
    "dist_fire_km": 0.0,
    "emergency_safety_index": 37.77
  },
  {
    "school_index": 284,
    "school_name": "Amity International School Primary Wing",
    "lat": 28.5556179,
    "lon": 77.3301744,
    "has_hospital": true,
    "has_police_station": true,
    "has_fire_station": false,
    "dist_hospital_km": 1.273,
    "dist_police_km": 1.82,
    "dist_fire_km": 0.0,
    "emergency_safety_index": 37.6
  },
  {
    "school_index": 285,
    "school_name": "Amity International School Aice",
    "lat": 28.555041,
    "lon": 77.3298155,
    "has_hospital": true,
    "has_police_station": true,
    "has_fire_station": false,
    "dist_hospital_km": 1.346,
    "dist_police_km": 1.869,
    "dist_fire_km": 0.0,
    "emergency_safety_index": 36.93
  },
  {
    "school_index": 286,
    "school_name": "Amity Global School",
    "lat": 28.5550308,
    "lon": 77.3304605,
    "has_hospital": true,
    "has_police_station": true,
    "has_fire_station": false,
    "dist_hospital_km": 1.322,
    "dist_police_km": 1.891,
    "dist_fire_km": 0.0,
    "emergency_safety_index": 36.94
  },
  {
    "school_index": 287,
    "school_name": "Mayur School",
    "lat": 28.5433588,
    "lon": 77.3367135,
    "has_hospital": false,
    "has_police_station": true,
    "has_fire_station": false,
    "dist_hospital_km": 0.0,
    "dist_police_km": 0.588,
    "dist_fire_km": 0.0,
    "emergency_safety_index": 16.98
  },
  {
    "school_index": 288,
    "school_name": "Womens Polytechnic College",
    "lat": 28.3675195,
    "lon": 77.3347225,
    "has_hospital": true,
    "has_police_station": true,
    "has_fire_station": false,
    "dist_hospital_km": 0.153,
    "dist_police_km": 0.19,
    "dist_fire_km": 0.0,
    "emergency_safety_index": 52.57
  },
  {
    "school_index": 289,
    "school_name": "Dayyanand Public School No-1",
    "lat": 28.3878837,
    "lon": 77.3030519,
    "has_hospital": true,
    "has_police_station": true,
    "has_fire_station": true,
    "dist_hospital_km": 0.286,
    "dist_police_km": 1.554,
    "dist_fire_km": 0.346,
    "emergency_safety_index": 85.43
  },
  {
    "school_index": 290,
    "school_name": "Sarvodaya Bal Senior Secondary Vidyalaya",
    "lat": 28.5275922,
    "lon": 77.1867383,
    "has_hospital": true,
    "has_police_station": true,
    "has_fire_station": false,
    "dist_hospital_km": 0.365,
    "dist_police_km": 0.873,
    "dist_fire_km": 0.0,
    "emergency_safety_index": 47.69
  },
  {
    "school_index": 291,
    "school_name": "Hamdard Nagar",
    "lat": 28.515913,
    "lon": 77.2500332,
    "has_hospital": true,
    "has_police_station": true,
    "has_fire_station": false,
    "dist_hospital_km": 0.213,
    "dist_police_km": 1.062,
    "dist_fire_km": 0.0,
    "emergency_safety_index": 47.49
  },
  {
    "school_index": 292,
    "school_name": "Dav Public School",
    "lat": 28.4781927,
    "lon": 77.3125653,
    "has_hospital": true,
    "has_police_station": true,
    "has_fire_station": false,
    "dist_hospital_km": 0.246,
    "dist_police_km": 1.932,
    "dist_fire_km": 0.0,
    "emergency_safety_index": 42.58
  },
  {
    "school_index": 293,
    "school_name": "G D Goenka Public School",
    "lat": 28.5372035,
    "lon": 77.2964173,
    "has_hospital": true,
    "has_police_station": true,
    "has_fire_station": false,
    "dist_hospital_km": 0.407,
    "dist_police_km": 0.492,
    "dist_fire_km": 0.0,
    "emergency_safety_index": 49.54
  },
  {
    "school_index": 294,
    "school_name": "Manava Bharati India International School",
    "lat": 28.5403013,
    "lon": 77.2166946,
    "has_hospital": true,
    "has_police_station": true,
    "has_fire_station": false,
    "dist_hospital_km": 0.382,
    "dist_police_km": 0.875,
    "dist_fire_km": 0.0,
    "emergency_safety_index": 47.59
  },
  {
    "school_index": 295,
    "school_name": "Jamia Millia Islamia",
    "lat": 28.5607526,
    "lon": 77.2845168,
    "has_hospital": true,
    "has_police_station": true,
    "has_fire_station": false,
    "dist_hospital_km": 0.696,
    "dist_police_km": 0.34,
    "dist_fire_km": 0.0,
    "emergency_safety_index": 48.79
  },
  {
    "school_index": 296,
    "school_name": "Guru Harkrishan Public School",
    "lat": 28.5405669,
    "lon": 77.2517768,
    "has_hospital": true,
    "has_police_station": true,
    "has_fire_station": true,
    "dist_hospital_km": 0.724,
    "dist_police_km": 0.475,
    "dist_fire_km": 1.08,
    "emergency_safety_index": 84.81
  }
]