[
  {
    "school_index": 0,
    "school_name": "Lnct World School 98",
    "lat": 22.6262703,
    "lon": 75.7551624,
    "has_hospital": false,
    "has_police_station": false,
    "has_fire_station": false,
    "dist_hospital_km": 0.0,
    "dist_police_km": 0.0,
    "dist_fire_km": 0,
    "emergency_safety_index": 0.0
  },
  {
    "school_index": 1,
    "school_name": "Government Primary School Bheslay",
    "lat": 22.6266008,
    "lon": 75.7498663,
    "has_hospital": false,
    "has_police_station": false,
    "has_fire_station": false,
    "dist_hospital_km": 0.0,
    "dist_police_km": 0.0,
    "dist_fire_km": 0,
    "emergency_safety_index": 0.0
  },
  {
    "school_index": 2,
    "school_name": "Government Higher Secondary School Pigdamber",
    "lat": 22.6181585,
    "lon": 75.7948241,
    "has_hospital": true,
    "has_police_station": false,
    "has_fire_station": false,
    "dist_hospital_km": 1.503,
    "dist_police_km": 0.0,
    "dist_fire_km": 0,
    "emergency_safety_index": 13.46
  },
  {
    "school_index": 3,
    "school_name": "Government Girls Secondary School Pigdamber",
    "lat": 22.618522,
    "lon": 75.7945295,
    "has_hospital": true,
    "has_police_station": false,
    "has_fire_station": false,
    "dist_hospital_km": 1.503,
    "dist_police_km": 0.0,
    "dist_fire_km": 0,
    "emergency_safety_index": 13.46
  },
  {
    "school_index": 4,
    "school_name": "F Blocb",
    "lat": 22.6264173,
    "lon": 75.7917438,
    "has_hospital": true,
    "has_police_station": false,
    "has_fire_station": false,
    "dist_hospital_km": 1.497,
    "dist_police_km": 0.0,
    "dist_fire_km": 0,
    "emergency_safety_index": 13.48
  },
  {
    "school_index": 5,
    "school_name": "Indian Institute Of Management Indore",
    "lat": 22.6268474,
    "lon": 75.7904077,
    "has_hospital": true,
    "has_police_station": false,
    "has_fire_station": false,
    "dist_hospital_km": 1.634,
    "dist_police_km": 0.0,
    "dist_fire_km": 0,
    "emergency_safety_index": 12.96
  },
  {
    "school_index": 6,
    "school_name": "Prerna Public High School",
    "lat": 22.6308146,
    "lon": 75.8055034,
    "has_hospital": true,
    "has_police_station": false,
    "has_fire_station": false,
    "dist_hospital_km": 0.226,
    "dist_police_km": 0.0,
    "dist_fire_km": 0,
    "emergency_safety_index": 18.38
  },
  {
    "school_index": 7,
    "school_name": "Sankul Government Girls Higher Secondary School Rau",
    "lat": 22.635497,
    "lon": 75.8101482,
    "has_hospital": true,
    "has_police_station": false,
    "has_fire_station": false,
    "dist_hospital_km": 0.173,
    "dist_police_km": 0.0,
    "dist_fire_km": 0,
    "emergency_safety_index": 18.58
  },
  {
    "school_index": 8,
    "school_name": "Government Secondary School Gurukul Rau",
    "lat": 22.6396415,
    "lon": 75.8044871,
    "has_hospital": true,
    "has_police_station": false,
    "has_fire_station": false,
    "dist_hospital_km": 0.612,
    "dist_police_km": 0.0,
    "dist_fire_km": 0,
    "emergency_safety_index": 16.89
  },
  {
    "school_index": 9,
    "school_name": "Maharishi Institute Of Management",
    "lat": 22.6466186,
    "lon": 75.8017991,
    "has_hospital": true,
    "has_police_station": false,
    "has_fire_station": false,
    "dist_hospital_km": 1.343,
    "dist_police_km": 0.0,
    "dist_fire_km": 0,
    "emergency_safety_index": 14.08
  },
  {
    "school_index": 10,
    "school_name": "Golden International School",
    "lat": 22.6479491,
    "lon": 75.8068259,
    "has_hospital": true,
    "has_police_station": false,
    "has_fire_station": false,
    "dist_hospital_km": 1.24,
    "dist_police_km": 0.0,
    "dist_fire_km": 0,
    "emergency_safety_index": 14.47
  },
  {
    "school_index": 11,
    "school_name": "St Norbert Church And School",
    "lat": 22.6556047,
    "lon": 75.8060819,
    "has_hospital": true,
    "has_police_station": false,
    "has_fire_station": false,
    "dist_hospital_km": 0.406,
    "dist_police_km": 0.0,
    "dist_fire_km": 0,
    "emergency_safety_index": 17.68
  },
  {
    "school_index": 12,
    "school_name": "Lg Academy",
    "lat": 22.6534999,
    "lon": 75.8066068,
    "has_hospital": true,
    "has_police_station": false,
    "has_fire_station": false,
    "dist_hospital_km": 0.641,
    "dist_police_km": 0.0,
    "dist_fire_km": 0,
    "emergency_safety_index": 16.78
  },
  {
    "school_index": 13,
    "school_name": "The Emerald Heights International School",
    "lat": 22.6502928,
    "lon": 75.8193805,
    "has_hospital": true,
    "has_police_station": false,
    "has_fire_station": false,
    "dist_hospital_km": 1.78,
    "dist_police_km": 0.0,
    "dist_fire_km": 0,
    "emergency_safety_index": 12.39
  },
  {
    "school_index": 14,
    "school_name": "Mini Higher Secondary School",
    "lat": 22.6648088,
    "lon": 75.8337307,
    "has_hospital": true,
    "has_police_station": false,
    "has_fire_station": false,
    "dist_hospital_km": 0.886,
    "dist_police_km": 0.0,
    "dist_fire_km": 0,
    "emergency_safety_index": 15.83
  },
  {
    "school_index": 15,
    "school_name": "Shaskiya Prodyogiki Madhyamik Vidhyalaya",
    "lat": 22.6654474,
    "lon": 75.8343717,
    "has_hospital": true,
    "has_police_station": false,
    "has_fire_station": false,
    "dist_hospital_km": 0.867,
    "dist_police_km": 0.0,
    "dist_fire_km": 0,
    "emergency_safety_index": 15.91
  },
  {
    "school_index": 16,
    "school_name": "Government Hindi Primary School Sukhnivas",
    "lat": 22.6715885,
    "lon": 75.7969659,
    "has_hospital": true,
    "has_police_station": false,
    "has_fire_station": false,
    "dist_hospital_km": 1.603,
    "dist_police_km": 0.0,
    "dist_fire_km": 0,
    "emergency_safety_index": 13.08
  },
  {
    "school_index": 17,
    "school_name": "Government Primary School Sukhnivas",
    "lat": 22.6726128,
    "lon": 75.7979222,
    "has_hospital": true,
    "has_police_station": false,
    "has_fire_station": false,
    "dist_hospital_km": 1.663,
    "dist_police_km": 0.0,
    "dist_fire_km": 0,
    "emergency_safety_index": 12.84
  },
  {
    "school_index": 18,
    "school_name": "Government Higher Secondary School Ahir Khedi",
    "lat": 22.6797193,
    "lon": 75.8103629,
    "has_hospital": true,
    "has_police_station": false,
    "has_fire_station": false,
    "dist_hospital_km": 1.554,
    "dist_police_km": 0.0,
    "dist_fire_km": 0,
    "emergency_safety_index": 13.26
  },
  {
    "school_index": 19,
    "school_name": "Government Middle School Dilipnagar Nainod",
    "lat": 22.7195688,
    "lon": 75.7786301,
    "has_hospital": false,
    "has_police_station": false,
    "has_fire_station": false,
    "dist_hospital_km": 0.0,
    "dist_police_km": 0.0,
    "dist_fire_km": 0,
    "emergency_safety_index": 0.0
  },
  {
    "school_index": 20,
    "school_name": "Sun Shine School",
    "lat": 22.7389668,
    "lon": 75.7897881,
    "has_hospital": true,
    "has_police_station": false,
    "has_fire_station": false,
    "dist_hospital_km": 0.169,
    "dist_police_km": 0.0,
    "dist_fire_km": 0,
    "emergency_safety_index": 18.59
  },
  {
    "school_index": 21,
    "school_name": "Government Higher Secondary School",
    "lat": 22.743023,
    "lon": 75.7933521,
    "has_hospital": true,
    "has_police_station": false,
    "has_fire_station": false,
    "dist_hospital_km": 0.301,
    "dist_police_km": 0.0,
    "dist_fire_km": 0,
    "emergency_safety_index": 18.09
  },
  {
    "school_index": 22,
    "school_name": "Shaskiya Prathmik Vidyalaya",
    "lat": 22.7390903,
    "lon": 75.7924104,
    "has_hospital": true,
    "has_police_station": false,
    "has_fire_station": false,
    "dist_hospital_km": 0.092,
    "dist_police_km": 0.0,
    "dist_fire_km": 0,
    "emergency_safety_index": 18.89
  },
  {
    "school_index": 23,
    "school_name": "Kendra Vidhyalaya Kramank 2",
    "lat": 22.7319906,
    "lon": 75.8007019,
    "has_hospital": true,
    "has_police_station": false,
    "has_fire_station": false,
    "dist_hospital_km": 1.003,
    "dist_police_km": 0.0,
    "dist_fire_km": 0,
    "emergency_safety_index": 15.38
  },
  {
    "school_index": 24,
    "school_name": "Shaskiya Prathmik Vidaylaya Bijasan Shetra",
    "lat": 22.731805,
    "lon": 75.8022667,
    "has_hospital": true,
    "has_police_station": false,
    "has_fire_station": false,
    "dist_hospital_km": 0.841,
    "dist_police_km": 0.0,
    "dist_fire_km": 0,
    "emergency_safety_index": 16.01
  },
  {
    "school_index": 25,
    "school_name": "National Public School",
    "lat": 22.7334255,
    "lon": 75.8076274,
    "has_hospital": true,
    "has_police_station": false,
    "has_fire_station": false,
    "dist_hospital_km": 0.457,
    "dist_police_km": 0.0,
    "dist_fire_km": 0,
    "emergency_safety_index": 17.49
  },
  {
    "school_index": 26,
    "school_name": "Government Primary School Gandhi Nagar",
    "lat": 22.7461602,
    "lon": 75.8018366,
    "has_hospital": true,
    "has_police_station": false,
    "has_fire_station": false,
    "dist_hospital_km": 1.192,
    "dist_police_km": 0.0,
    "dist_fire_km": 0,
    "emergency_safety_index": 14.66
  },
  {
    "school_index": 27,
    "school_name": "Sunshine Academy",
    "lat": 22.6658994,
    "lon": 75.8137321,
    "has_hospital": true,
    "has_police_station": false,
    "has_fire_station": false,
    "dist_hospital_km": 1.185,
    "dist_police_km": 0.0,
    "dist_fire_km": 0,
    "emergency_safety_index": 14.68
  },
  {
    "school_index": 28,
    "school_name": "Ishwar Prem Vidhya Mandir",
    "lat": 22.6687157,
    "lon": 75.8193695,
    "has_hospital": true,
    "has_police_station": false,
    "has_fire_station": false,
    "dist_hospital_km": 0.562,
    "dist_police_km": 0.0,
    "dist_fire_km": 0,
    "emergency_safety_index": 17.08
  },
  {
    "school_index": 29,
    "school_name": "Ryan International School",
    "lat": 22.6748771,
    "lon": 75.8211565,
    "has_hospital": true,
    "has_police_station": false,
    "has_fire_station": false,
    "dist_hospital_km": 0.775,
    "dist_police_km": 0.0,
    "dist_fire_km": 0,
    "emergency_safety_index": 16.26
  },
  {
    "school_index": 30,
    "school_name": "Shaskiya Kanya Uchattar Madhyamik Vidhyalaya",
    "lat": 22.6705038,
    "lon": 75.8264485,
    "has_hospital": true,
    "has_police_station": false,
    "has_fire_station": false,
    "dist_hospital_km": 0.251,
    "dist_police_km": 0.0,
    "dist_fire_km": 0,
    "emergency_safety_index": 18.28
  },
  {
    "school_index": 31,
    "school_name": "Alpine Academy",
    "lat": 22.6762184,
    "lon": 75.8301526,
    "has_hospital": true,
    "has_police_station": false,
    "has_fire_station": false,
    "dist_hospital_km": 0.279,
    "dist_police_km": 0.0,
    "dist_fire_km": 0,
    "emergency_safety_index": 18.17
  },
  {
    "school_index": 32,
    "school_name": "Shasakiya Madhyamik Vidhyalaya",
    "lat": 22.6737188,
    "lon": 75.8286506,
    "has_hospital": true,
    "has_police_station": false,
    "has_fire_station": false,
    "dist_hospital_km": 0.223,
    "dist_police_km": 0.0,
    "dist_fire_km": 0,
    "emergency_safety_index": 18.39
  },
  {
    "school_index": 33,
    "school_name": "Alpine Public School",
    "lat": 22.6767035,
    "lon": 75.8340204,
    "has_hospital": true,
    "has_police_station": false,
    "has_fire_station": false,
    "dist_hospital_km": 0.331,
    "dist_police_km": 0.0,
    "dist_fire_km": 0,
    "emergency_safety_index": 17.97
  },
  {
    "school_index": 34,
    "school_name": "Shaskiya Balak Uchattar Madhyamik Vidhyalaya",
    "lat": 22.672662,
    "lon": 75.8346024,
    "has_hospital": true,
    "has_police_station": false,
    "has_fire_station": false,
    "dist_hospital_km": 0.267,
    "dist_police_km": 0.0,
    "dist_fire_km": 0,
    "emergency_safety_index": 18.22
  },
  {
    "school_index": 35,
    "school_name": "New Public High School",
    "lat": 22.6871371,
    "lon": 75.824917,
    "has_hospital": true,
    "has_police_station": true,
    "has_fire_station": false,
    "dist_hospital_km": 0.204,
    "dist_police_km": 1.973,
    "dist_fire_km": 0,
    "emergency_safety_index": 42.58
  },
  {
    "school_index": 36,
    "school_name": "Boonsun Higher Secondary School",
    "lat": 22.6865185,
    "lon": 75.8228302,
    "has_hospital": true,
    "has_police_station": false,
    "has_fire_station": false,
    "dist_hospital_km": 0.185,
    "dist_police_km": 0.0,
    "dist_fire_km": 0,
    "emergency_safety_index": 18.53
  },
  {
    "school_index": 37,
    "school_name": "Golden Kids School",
    "lat": 22.6847089,
    "lon": 75.8310597,
    "has_hospital": true,
    "has_police_station": true,
    "has_fire_station": false,
    "dist_hospital_km": 0.156,
    "dist_police_km": 1.652,
    "dist_fire_km": 0,
    "emergency_safety_index": 44.59
  },
  {
    "school_index": 38,
    "school_name": "Popeye Kids School",
    "lat": 22.6828108,
    "lon": 75.8303238,
    "has_hospital": true,
    "has_police_station": true,
    "has_fire_station": false,
    "dist_hospital_km": 0.16,
    "dist_police_km": 1.862,
    "dist_fire_km": 0,
    "emergency_safety_index": 43.43
  },
  {
    "school_index": 39,
    "school_name": "Twinkle Twinkle Nursery School",
    "lat": 22.6828108,
    "lon": 75.8310039,
    "has_hospital": true,
    "has_police_station": true,
    "has_fire_station": false,
    "dist_hospital_km": 0.2,
    "dist_police_km": 1.82,
    "dist_fire_km": 0,
    "emergency_safety_index": 43.44
  },
  {
    "school_index": 40,
    "school_name": "Gyankriti School",
    "lat": 22.6796486,
    "lon": 75.8330709,
    "has_hospital": true,
    "has_police_station": false,
    "has_fire_station": false,
    "dist_hospital_km": 0.579,
    "dist_police_km": 0.0,
    "dist_fire_km": 0,
    "emergency_safety_index": 17.02
  },
  {
    "school_index": 41,
    "school_name": "Annie Besant School",
    "lat": 22.684727,
    "lon": 75.8339356,
    "has_hospital": true,
    "has_police_station": true,
    "has_fire_station": false,
    "dist_hospital_km": 0.261,
    "dist_police_km": 1.473,
    "dist_fire_km": 0,
    "emergency_safety_index": 44.99
  },
  {
    "school_index": 42,
    "school_name": "Shree Madhav Vidya Peeth",
    "lat": 22.682851,
    "lon": 75.8321439,
    "has_hospital": true,
    "has_police_station": true,
    "has_fire_station": false,
    "dist_hospital_km": 0.29,
    "dist_police_km": 1.748,
    "dist_fire_km": 0,
    "emergency_safety_index": 43.34
  },
  {
    "school_index": 43,
    "school_name": "New Honey Public School",
    "lat": 22.6854296,
    "lon": 75.8286735,
    "has_hospital": true,
    "has_police_station": true,
    "has_fire_station": false,
    "dist_hospital_km": 0.102,
    "dist_police_km": 1.768,
    "dist_fire_km": 0,
    "emergency_safety_index": 44.25
  },
  {
    "school_index": 44,
    "school_name": "Mini Land Play School",
    "lat": 22.688826,
    "lon": 75.8331272,
    "has_hospital": true,
    "has_police_station": true,
    "has_fire_station": false,
    "dist_hospital_km": 0.306,
    "dist_police_km": 1.176,
    "dist_fire_km": 0,
    "emergency_safety_index": 46.37
  },
  {
    "school_index": 45,
    "school_name": "Shaskiya Parthmik Vidhyalaya",
    "lat": 22.6870319,
    "lon": 75.8325773,
    "has_hospital": true,
    "has_police_station": true,
    "has_fire_station": false,
    "dist_hospital_km": 0.309,
    "dist_police_km": 1.356,
    "dist_fire_km": 0,
    "emergency_safety_index": 45.37
  },
  {
    "school_index": 46,
    "school_name": "Spn Academy",
    "lat": 22.6658558,
    "lon": 75.8404496,
    "has_hospital": true,
    "has_police_station": false,
    "has_fire_station": false,
    "dist_hospital_km": 1.184,
    "dist_police_km": 0.0,
    "dist_fire_km": 0,
    "emergency_safety_index": 14.69
  },
  {
    "school_index": 47,
    "school_name": "Shaskiya Kanya Uchattar Madhyamik Vidhyalaya",
    "lat": 22.6656751,
    "lon": 75.839484,
    "has_hospital": true,
    "has_police_station": false,
    "has_fire_station": false,
    "dist_hospital_km": 1.154,
    "dist_police_km": 0.0,
    "dist_fire_km": 0,
    "emergency_safety_index": 14.8
  },
  {
    "school_index": 48,
    "school_name": "Government Primary School",
    "lat": 22.676362,
    "lon": 75.8630338,
    "has_hospital": true,
    "has_police_station": true,
    "has_fire_station": false,
    "dist_hospital_km": 0.897,
    "dist_police_km": 1.358,
    "dist_fire_km": 0,
    "emergency_safety_index": 42.16
  },
  {
    "school_index": 49,
    "school_name": "Minavra Shaskiya Vidhyalaya",
    "lat": 22.6956126,
    "lon": 75.8365483,
    "has_hospital": true,
    "has_police_station": true,
    "has_fire_station": false,
    "dist_hospital_km": 0.058,
    "dist_police_km": 0.524,
    "dist_fire_km": 0,
    "emergency_safety_index": 51.27
  },
  {
    "school_index": 50,
    "school_name": "Chhatrapati Shivaji Maharaj Public School",
    "lat": 22.6972049,
    "lon": 75.8343344,
    "has_hospital": true,
    "has_police_station": true,
    "has_fire_station": false,
    "dist_hospital_km": 0.081,
    "dist_police_km": 0.764,
    "dist_fire_km": 0,
    "emergency_safety_index": 49.83
  },
  {
    "school_index": 51,
    "school_name": "Life Line H S School",
    "lat": 22.6949916,
    "lon": 75.8521722,
    "has_hospital": true,
    "has_police_station": true,
    "has_fire_station": false,
    "dist_hospital_km": 0.349,
    "dist_police_km": 1.085,
    "dist_fire_km": 0,
    "emergency_safety_index": 46.63
  },
  {
    "school_index": 52,
    "school_name": "Brilliant H S School",
    "lat": 22.6979362,
    "lon": 75.8636963,
    "has_hospital": true,
    "has_police_station": true,
    "has_fire_station": false,
    "dist_hospital_km": 0.247,
    "dist_police_km": 0.79,
    "dist_fire_km": 0,
    "emergency_safety_index": 48.79
  },
  {
    "school_index": 53,
    "school_name": "Euro Kids Pre-School",
    "lat": 22.7037746,
    "lon": 75.8532464,
    "has_hospital": true,
    "has_police_station": true,
    "has_fire_station": false,
    "dist_hospital_km": 0.253,
    "dist_police_km": 0.981,
    "dist_fire_km": 0,
    "emergency_safety_index": 47.72
  },
  {
    "school_index": 54,
    "school_name": "Deaf Dumb And Blind School Sewa Mandir",
    "lat": 22.7045729,
    "lon": 75.8642661,
    "has_hospital": true,
    "has_police_station": true,
    "has_fire_station": false,
    "dist_hospital_km": 0.32,
    "dist_police_km": 1.44,
    "dist_fire_km": 0,
    "emergency_safety_index": 44.85
  },
  {
    "school_index": 55,
    "school_name": "Swami Haridas Udaasi Government High School Sindhi Colony",
    "lat": 22.7025986,
    "lon": 75.8641376,
    "has_hospital": true,
    "has_police_station": true,
    "has_fire_station": false,
    "dist_hospital_km": 0.22,
    "dist_police_km": 1.235,
    "dist_fire_km": 0,
    "emergency_safety_index": 46.51
  },
  {
    "school_index": 56,
    "school_name": "Sarafa Vidhya Niketan",
    "lat": 22.7070918,
    "lon": 75.8427602,
    "has_hospital": true,
    "has_police_station": true,
    "has_fire_station": false,
    "dist_hospital_km": 0.107,
    "dist_police_km": 0.502,
    "dist_fire_km": 0,
    "emergency_safety_index": 51.12
  },
  {
    "school_index": 57,
    "school_name": "Government Malav Girls H S School",
    "lat": 22.7051735,
    "lon": 75.8417573,
    "has_hospital": true,
    "has_police_station": true,
    "has_fire_station": false,
    "dist_hospital_km": 0.155,
    "dist_police_km": 0.725,
    "dist_fire_km": 0,
    "emergency_safety_index": 49.64
  },
  {
    "school_index": 58,
    "school_name": "Shri Vaishnav Politechnic Colg",
    "lat": 22.7065775,
    "lon": 75.8396543,
    "has_hospital": true,
    "has_police_station": true,
    "has_fire_station": false,
    "dist_hospital_km": 0.229,
    "dist_police_km": 0.799,
    "dist_fire_km": 0,
    "emergency_safety_index": 48.84
  },
  {
    "school_index": 59,
    "school_name": "Deaf And Blind School",
    "lat": 22.7064351,
    "lon": 75.8428904,
    "has_hospital": true,
    "has_police_station": true,
    "has_fire_station": false,
    "dist_hospital_km": 0.104,
    "dist_police_km": 0.543,
    "dist_fire_km": 0,
    "emergency_safety_index": 50.91
  },
  {
    "school_index": 60,
    "school_name": "Shaskiya Malwa Kanya Uchattar Madhyamik Vidhyalaya",
    "lat": 22.7059378,
    "lon": 75.8419168,
    "has_hospital": true,
    "has_police_station": true,
    "has_fire_station": false,
    "dist_hospital_km": 0.069,
    "dist_police_km": 0.653,
    "dist_fire_km": 0,
    "emergency_safety_index": 50.5
  },
  {
    "school_index": 61,
    "school_name": "Shri Bd Toshniwal Maheswari Bal Mandir",
    "lat": 22.7110242,
    "lon": 75.8491892,
    "has_hospital": true,
    "has_police_station": true,
    "has_fire_station": false,
    "dist_hospital_km": 0.127,
    "dist_police_km": 0.298,
    "dist_fire_km": 0,
    "emergency_safety_index": 52.12
  },
  {
    "school_index": 62,
    "school_name": "Bal Vinay Mandir",
    "lat": 22.7100784,
    "lon": 75.8480864,
    "has_hospital": true,
    "has_police_station": true,
    "has_fire_station": false,
    "dist_hospital_km": 0.171,
    "dist_police_km": 0.164,
    "dist_fire_km": 0,
    "emergency_safety_index": 52.61
  },
  {
    "school_index": 63,
    "school_name": "Shree Bal Vinay Mandir",
    "lat": 22.7104293,
    "lon": 75.8475488,
    "has_hospital": true,
    "has_police_station": true,
    "has_fire_station": false,
    "dist_hospital_km": 0.211,
    "dist_police_km": 0.118,
    "dist_fire_km": 0,
    "emergency_safety_index": 52.64
  },
  {
    "school_index": 64,
    "school_name": "Shri Cloth Market Vaishnav Higher Secondary School",
    "lat": 22.7134985,
    "lon": 75.8425525,
    "has_hospital": true,
    "has_police_station": true,
    "has_fire_station": false,
    "dist_hospital_km": 0.135,
    "dist_police_km": 0.559,
    "dist_fire_km": 0,
    "emergency_safety_index": 50.66
  },
  {
    "school_index": 65,
    "school_name": "M B Khalsa High School",
    "lat": 22.7148791,
    "lon": 75.8403316,
    "has_hospital": true,
    "has_police_station": true,
    "has_fire_station": false,
    "dist_hospital_km": 0.193,
    "dist_police_km": 0.831,
    "dist_fire_km": 0,
    "emergency_safety_index": 48.86
  },
  {
    "school_index": 66,
    "school_name": "Bal Shiksha Mandir School",
    "lat": 22.7141554,
    "lon": 75.8488811,
    "has_hospital": true,
    "has_police_station": true,
    "has_fire_station": false,
    "dist_hospital_km": 0.067,
    "dist_police_km": 0.521,
    "dist_fire_km": 0,
    "emergency_safety_index": 51.23
  },
  {
    "school_index": 67,
    "school_name": "Government Girls School Booth No 39",
    "lat": 22.715009,
    "lon": 75.8477492,
    "has_hospital": true,
    "has_police_station": true,
    "has_fire_station": false,
    "dist_hospital_km": 0.115,
    "dist_police_km": 0.57,
    "dist_fire_km": 0,
    "emergency_safety_index": 50.7
  },
  {
    "school_index": 68,
    "school_name": "Shaskiya Prathmik Vidhyalaya",
    "lat": 22.7124036,
    "lon": 75.8495999,
    "has_hospital": true,
    "has_police_station": true,
    "has_fire_station": false,
    "dist_hospital_km": 0.143,
    "dist_police_km": 0.415,
    "dist_fire_km": 0,
    "emergency_safety_index": 51.4
  },
  {
    "school_index": 69,
    "school_name": "Vedaant Pre School",
    "lat": 22.708341,
    "lon": 75.857125,
    "has_hospital": true,
    "has_police_station": true,
    "has_fire_station": false,
    "dist_hospital_km": 0.155,
    "dist_police_km": 1.107,
    "dist_fire_km": 0,
    "emergency_safety_index": 47.56
  },
  {
    "school_index": 70,
    "school_name": "Indira Vidya Sagar School",
    "lat": 22.7061005,
    "lon": 75.854424,
    "has_hospital": true,
    "has_police_station": true,
    "has_fire_station": false,
    "dist_hospital_km": 0.251,
    "dist_police_km": 0.923,
    "dist_fire_km": 0,
    "emergency_safety_index": 48.04
  },
  {
    "school_index": 71,
    "school_name": "Government Malav Girls Higher Secondary School Moti Tabela",
    "lat": 22.7077712,
    "lon": 75.852599,
    "has_hospital": true,
    "has_police_station": true,
    "has_fire_station": false,
    "dist_hospital_km": 0.314,
    "dist_police_km": 0.674,
    "dist_fire_km": 0,
    "emergency_safety_index": 49.06
  },
  {
    "school_index": 72,
    "school_name": "Shaskiya High School",
    "lat": 22.7096004,
    "lon": 75.8583749,
    "has_hospital": true,
    "has_police_station": true,
    "has_fire_station": false,
    "dist_hospital_km": 0.328,
    "dist_police_km": 1.22,
    "dist_fire_km": 0,
    "emergency_safety_index": 46.01
  },
  {
    "school_index": 73,
    "school_name": "Government Rajat Jayanti Girls Higher Secondary School",
    "lat": 22.711414,
    "lon": 75.8643991,
    "has_hospital": true,
    "has_police_station": true,
    "has_fire_station": false,
    "dist_hospital_km": 0.663,
    "dist_police_km": 1.843,
    "dist_fire_km": 0,
    "emergency_safety_index": 40.79
  },
  {
    "school_index": 74,
    "school_name": "Kids Pardise",
    "lat": 22.7060681,
    "lon": 75.8597424,
    "has_hospital": true,
    "has_police_station": true,
    "has_fire_station": false,
    "dist_hospital_km": 0.215,
    "dist_police_km": 1.428,
    "dist_fire_km": 0,
    "emergency_safety_index": 45.49
  },
  {
    "school_index": 75,
    "school_name": "Kids Heaven",
    "lat": 22.7067384,
    "lon": 75.8590159,
    "has_hospital": true,
    "has_police_station": true,
    "has_fire_station": false,
    "dist_hospital_km": 0.318,
    "dist_police_km": 1.335,
    "dist_fire_km": 0,
    "emergency_safety_index": 45.44
  },
  {
    "school_index": 76,
    "school_name": "Ganesh Vidyaa",
    "lat": 22.7063151,
    "lon": 75.8580258,
    "has_hospital": true,
    "has_police_station": true,
    "has_fire_station": false,
    "dist_hospital_km": 0.313,
    "dist_police_km": 1.253,
    "dist_fire_km": 0,
    "emergency_safety_index": 45.91
  },
  {
    "school_index": 77,
    "school_name": "Government New Urdu Girls School Moti Tabela",
    "lat": 22.711982,
    "lon": 75.8550891,
    "has_hospital": true,
    "has_police_station": true,
    "has_fire_station": false,
    "dist_hospital_km": 0.174,
    "dist_police_km": 0.909,
    "dist_fire_km": 0,
    "emergency_safety_index": 48.54
  },
  {
    "school_index": 78,
    "school_name": "Nayapitha Urdu School",
    "lat": 22.7137199,
    "lon": 75.8516968,
    "has_hospital": true,
    "has_police_station": true,
    "has_fire_station": false,
    "dist_hospital_km": 0.255,
    "dist_police_km": 0.674,
    "dist_fire_km": 0,
    "emergency_safety_index": 49.38
  },
  {
    "school_index": 79,
    "school_name": "Shaskiya Madhyamik Vidhyalay Kramak 52",
    "lat": 22.7137416,
    "lon": 75.858301,
    "has_hospital": true,
    "has_police_station": true,
    "has_fire_station": false,
    "dist_hospital_km": 0.361,
    "dist_police_km": 1.28,
    "dist_fire_km": 0,
    "emergency_safety_index": 45.5
  },
  {
    "school_index": 80,
    "school_name": "Government Urdu Girls Secondary School Hathipala",
    "lat": 22.714202,
    "lon": 75.8632398,
    "has_hospital": true,
    "has_police_station": true,
    "has_fire_station": false,
    "dist_hospital_km": 0.485,
    "dist_police_km": 1.78,
    "dist_fire_km": 0,
    "emergency_safety_index": 42.1
  },
  {
    "school_index": 81,
    "school_name": "Government Hindi Primary School",
    "lat": 22.675174,
    "lon": 75.8684492,
    "has_hospital": true,
    "has_police_station": true,
    "has_fire_station": false,
    "dist_hospital_km": 1.115,
    "dist_police_km": 1.15,
    "dist_fire_km": 0,
    "emergency_safety_index": 42.1
  },
  {
    "school_index": 82,
    "school_name": "Goverment Primary School",
    "lat": 22.6739415,
    "lon": 75.8811575,
    "has_hospital": true,
    "has_police_station": true,
    "has_fire_station": false,
    "dist_hospital_km": 0.168,
    "dist_police_km": 1.488,
    "dist_fire_km": 0,
    "emergency_safety_index": 45.42
  },
  {
    "school_index": 83,
    "school_name": "Devi Ahilya University",
    "lat": 22.6893034,
    "lon": 75.8704724,
    "has_hospital": true,
    "has_police_station": true,
    "has_fire_station": false,
    "dist_hospital_km": 0.528,
    "dist_police_km": 0.395,
    "dist_fire_km": 0,
    "emergency_safety_index": 49.41
  },
  {
    "school_index": 84,
    "school_name": "Iips Davv",
    "lat": 22.6883848,
    "lon": 75.8762358,
    "has_hospital": true,
    "has_police_station": true,
    "has_fire_station": false,
    "dist_hospital_km": 0.54,
    "dist_police_km": 0.546,
    "dist_fire_km": 0,
    "emergency_safety_index": 48.52
  },
  {
    "school_index": 85,
    "school_name": "School Of Pharmacy Davv",
    "lat": 22.6838988,
    "lon": 75.8801981,
    "has_hospital": true,
    "has_police_station": true,
    "has_fire_station": false,
    "dist_hospital_km": 0.164,
    "dist_police_km": 0.782,
    "dist_fire_km": 0,
    "emergency_safety_index": 49.28
  },
  {
    "school_index": 86,
    "school_name": "Sita Devi Higher Secondary School",
    "lat": 22.6842813,
    "lon": 75.8905077,
    "has_hospital": true,
    "has_police_station": true,
    "has_fire_station": false,
    "dist_hospital_km": 0.455,
    "dist_police_km": 1.835,
    "dist_fire_km": 0,
    "emergency_safety_index": 41.97
  },
  {
    "school_index": 87,
    "school_name": "Government Higher Secondary School",
    "lat": 22.6876073,
    "lon": 75.8809376,
    "has_hospital": true,
    "has_police_station": true,
    "has_fire_station": false,
    "dist_hospital_km": 0.284,
    "dist_police_km": 0.909,
    "dist_fire_km": 0,
    "emergency_safety_index": 47.94
  },
  {
    "school_index": 88,
    "school_name": "Government Primary School",
    "lat": 22.6859047,
    "lon": 75.8882868,
    "has_hospital": true,
    "has_police_station": true,
    "has_fire_station": false,
    "dist_hospital_km": 0.17,
    "dist_police_km": 1.611,
    "dist_fire_km": 0,
    "emergency_safety_index": 44.74
  },
  {
    "school_index": 89,
    "school_name": "Government Primary School Palda",
    "lat": 22.6811829,
    "lon": 75.8955717,
    "has_hospital": true,
    "has_police_station": false,
    "has_fire_station": false,
    "dist_hospital_km": 1.073,
    "dist_police_km": 0.0,
    "dist_fire_km": 0,
    "emergency_safety_index": 15.12
  },
  {
    "school_index": 90,
    "school_name": "Malviya Samaj Vidhya Niketan Jaagrati Nagar",
    "lat": 22.7045344,
    "lon": 75.8651055,
    "has_hospital": true,
    "has_police_station": true,
    "has_fire_station": false,
    "dist_hospital_km": 0.395,
    "dist_police_km": 1.415,
    "dist_fire_km": 0,
    "emergency_safety_index": 44.58
  },
  {
    "school_index": 91,
    "school_name": "Kendriya Vidyalaya",
    "lat": 22.7027427,
    "lon": 75.8801865,
    "has_hospital": true,
    "has_police_station": true,
    "has_fire_station": false,
    "dist_hospital_km": 0.564,
    "dist_police_km": 1.712,
    "dist_fire_km": 0,
    "emergency_safety_index": 42.04
  },
  {
    "school_index": 92,
    "school_name": "Shashkiya Hindi Prathmik Vidhalaya",
    "lat": 22.6997327,
    "lon": 75.8892524,
    "has_hospital": true,
    "has_police_station": true,
    "has_fire_station": false,
    "dist_hospital_km": 0.796,
    "dist_police_km": 1.717,
    "dist_fire_km": 0,
    "emergency_safety_index": 40.75
  },
  {
    "school_index": 93,
    "school_name": "Sanyogitaganj School",
    "lat": 22.7093093,
    "lon": 75.8779425,
    "has_hospital": true,
    "has_police_station": false,
    "has_fire_station": false,
    "dist_hospital_km": 0.1,
    "dist_police_km": 0.0,
    "dist_fire_km": 0,
    "emergency_safety_index": 18.86
  },
  {
    "school_index": 94,
    "school_name": "Government Girls Middle School Number 22",
    "lat": 22.717623,
    "lon": 75.8793411,
    "has_hospital": true,
    "has_police_station": true,
    "has_fire_station": false,
    "dist_hospital_km": 0.149,
    "dist_police_km": 1.196,
    "dist_fire_km": 0,
    "emergency_safety_index": 47.11
  },
  {
    "school_index": 95,
    "school_name": "St Paul Institute Of Professional Studies",
    "lat": 22.7143014,
    "lon": 75.8891773,
    "has_hospital": true,
    "has_police_station": true,
    "has_fire_station": false,
    "dist_hospital_km": 0.395,
    "dist_police_km": 1.206,
    "dist_fire_km": 0,
    "emergency_safety_index": 45.72
  },
  {
    "school_index": 96,
    "school_name": "Dcbm",
    "lat": 22.7030026,
    "lon": 75.8955576,
    "has_hospital": true,
    "has_police_station": true,
    "has_fire_station": false,
    "dist_hospital_km": 0.882,
    "dist_police_km": 0.984,
    "dist_fire_km": 0,
    "emergency_safety_index": 44.28
  },
  {
    "school_index": 97,
    "school_name": "Prince Convent High School",
    "lat": 22.6936602,
    "lon": 75.9059653,
    "has_hospital": true,
    "has_police_station": true,
    "has_fire_station": false,
    "dist_hospital_km": 0.124,
    "dist_police_km": 1.347,
    "dist_fire_km": 0,
    "emergency_safety_index": 46.43
  },
  {
    "school_index": 98,
    "school_name": "Bethel Christian School",
    "lat": 22.6936553,
    "lon": 75.9069013,
    "has_hospital": true,
    "has_police_station": true,
    "has_fire_station": false,
    "dist_hospital_km": 0.166,
    "dist_police_km": 1.36,
    "dist_fire_km": 0,
    "emergency_safety_index": 46.13
  },
  {
    "school_index": 99,
    "school_name": "Government School Pipliyahana",
    "lat": 22.708863,
    "lon": 75.9016791,
    "has_hospital": true,
    "has_police_station": true,
    "has_fire_station": false,
    "dist_hospital_km": 0.491,
    "dist_police_km": 0.467,
    "dist_fire_km": 0,
    "emergency_safety_index": 49.22
  },
  {
    "school_index": 100,
    "school_name": "St Arnolds School",
    "lat": 22.7134637,
    "lon": 75.8916456,
    "has_hospital": true,
    "has_police_station": true,
    "has_fire_station": false,
    "dist_hospital_km": 0.442,
    "dist_police_km": 1.351,
    "dist_fire_km": 0,
    "emergency_safety_index": 44.67
  },
  {
    "school_index": 101,
    "school_name": "Little Angels Convent Higher Secondary School",
    "lat": 22.7154526,
    "lon": 75.9009467,
    "has_hospital": true,
    "has_police_station": true,
    "has_fire_station": false,
    "dist_hospital_km": 0.514,
    "dist_police_km": 1.149,
    "dist_fire_km": 0,
    "emergency_safety_index": 45.38
  },
  {
    "school_index": 102,
    "school_name": "Tagore Public School",
    "lat": 22.7175903,
    "lon": 75.9139756,
    "has_hospital": true,
    "has_police_station": true,
    "has_fire_station": false,
    "dist_hospital_km": 0.758,
    "dist_police_km": 1.628,
    "dist_fire_km": 0,
    "emergency_safety_index": 41.45
  },
  {
    "school_index": 103,
    "school_name": "Adarsh Shishu Vihar Higher Secondary School",
    "lat": 22.7163385,
    "lon": 75.9146786,
    "has_hospital": true,
    "has_police_station": true,
    "has_fire_station": false,
    "dist_hospital_km": 0.851,
    "dist_police_km": 1.564,
    "dist_fire_km": 0,
    "emergency_safety_index": 41.29
  },
  {
    "school_index": 104,
    "school_name": "Kids Kemp School",
    "lat": 22.7207613,
    "lon": 75.822967,
    "has_hospital": true,
    "has_police_station": false,
    "has_fire_station": false,
    "dist_hospital_km": 0.383,
    "dist_police_km": 0.0,
    "dist_fire_km": 0,
    "emergency_safety_index": 17.77
  },
  {
    "school_index": 105,
    "school_name": "Shaskiya Prathmik Vidyalaya Kramank 37",
    "lat": 22.7247128,
    "lon": 75.8216299,
    "has_hospital": true,
    "has_police_station": false,
    "has_fire_station": false,
    "dist_hospital_km": 0.114,
    "dist_police_km": 0.0,
    "dist_fire_km": 0,
    "emergency_safety_index": 18.81
  },
  {
    "school_index": 106,
    "school_name": "Shri-G International School",
    "lat": 22.7370917,
    "lon": 75.8202016,
    "has_hospital": true,
    "has_police_station": false,
    "has_fire_station": false,
    "dist_hospital_km": 0.878,
    "dist_police_km": 0.0,
    "dist_fire_km": 0,
    "emergency_safety_index": 15.87
  },
  {
    "school_index": 107,
    "school_name": "The Vedansh International School",
    "lat": 22.7378986,
    "lon": 75.8157475,
    "has_hospital": true,
    "has_police_station": false,
    "has_fire_station": false,
    "dist_hospital_km": 1.0,
    "dist_police_km": 0.0,
    "dist_fire_km": 0,
    "emergency_safety_index": 15.4
  },
  {
    "school_index": 108,
    "school_name": "Shaskiya Prathmik Vidyalaya",
    "lat": 22.7319984,
    "lon": 75.8269425,
    "has_hospital": true,
    "has_police_station": false,
    "has_fire_station": false,
    "dist_hospital_km": 0.492,
    "dist_police_km": 0.0,
    "dist_fire_km": 0,
    "emergency_safety_index": 17.35
  },
  {
    "school_index": 109,
    "school_name": "Vijay Mateshwari Bal Mandir Vmb Academy",
    "lat": 22.7331014,
    "lon": 75.8290637,
    "has_hospital": true,
    "has_police_station": false,
    "has_fire_station": false,
    "dist_hospital_km": 0.7,
    "dist_police_km": 0.0,
    "dist_fire_km": 0,
    "emergency_safety_index": 16.55
  },
  {
    "school_index": 110,
    "school_name": "Shashkiya Madhyamik Vidhyalaya",
    "lat": 22.7352215,
    "lon": 75.8378291,
    "has_hospital": true,
    "has_police_station": false,
    "has_fire_station": false,
    "dist_hospital_km": 0.486,
    "dist_police_km": 0.0,
    "dist_fire_km": 0,
    "emergency_safety_index": 17.37
  },
  {
    "school_index": 111,
    "school_name": "Government Central School",
    "lat": 22.7325967,
    "lon": 75.8323574,
    "has_hospital": true,
    "has_police_station": false,
    "has_fire_station": false,
    "dist_hospital_km": 0.663,
    "dist_police_km": 0.0,
    "dist_fire_km": 0,
    "emergency_safety_index": 16.69
  },
  {
    "school_index": 112,
    "school_name": "Shashkiya Madhyamik Vidhyalaya",
    "lat": 22.7425437,
    "lon": 75.838151,
    "has_hospital": true,
    "has_police_station": false,
    "has_fire_station": false,
    "dist_hospital_km": 0.206,
    "dist_police_km": 0.0,
    "dist_fire_km": 0,
    "emergency_safety_index": 18.45
  },
  {
    "school_index": 113,
    "school_name": "St Sebastian'S Higher Secondary School",
    "lat": 22.7390706,
    "lon": 75.834703,
    "has_hospital": true,
    "has_police_station": false,
    "has_fire_station": false,
    "dist_hospital_km": 0.096,
    "dist_police_km": 0.0,
    "dist_fire_km": 0,
    "emergency_safety_index": 18.88
  },
  {
    "school_index": 114,
    "school_name": "Government Sharada Kanya Higher Secondary School",
    "lat": 22.7209469,
    "lon": 75.841139,
    "has_hospital": true,
    "has_police_station": true,
    "has_fire_station": false,
    "dist_hospital_km": 0.134,
    "dist_police_km": 1.333,
    "dist_fire_km": 0,
    "emergency_safety_index": 46.45
  },
  {
    "school_index": 115,
    "school_name": "Government Subhash Higher Secondary School",
    "lat": 22.7224758,
    "lon": 75.8431828,
    "has_hospital": true,
    "has_police_station": true,
    "has_fire_station": false,
    "dist_hospital_km": 0.399,
    "dist_police_km": 1.426,
    "dist_fire_km": 0,
    "emergency_safety_index": 44.5
  },
  {
    "school_index": 116,
    "school_name": "Shri Cloth Market Girls School",
    "lat": 22.719347,
    "lon": 75.8400555,
    "has_hospital": true,
    "has_police_station": true,
    "has_fire_station": false,
    "dist_hospital_km": 0.076,
    "dist_police_km": 1.23,
    "dist_fire_km": 0,
    "emergency_safety_index": 47.32
  },
  {
    "school_index": 117,
    "school_name": "Ramakrishna Mission Vidhyapeeth",
    "lat": 22.7265503,
    "lon": 75.8401192,
    "has_hospital": true,
    "has_police_station": true,
    "has_fire_station": false,
    "dist_hospital_km": 0.583,
    "dist_police_km": 1.951,
    "dist_fire_km": 0,
    "emergency_safety_index": 40.64
  },
  {
    "school_index": 118,
    "school_name": "Government Primary School Number 28",
    "lat": 22.7195713,
    "lon": 75.857318,
    "has_hospital": true,
    "has_police_station": true,
    "has_fire_station": false,
    "dist_hospital_km": 0.109,
    "dist_police_km": 1.537,
    "dist_fire_km": 0,
    "emergency_safety_index": 45.47
  },
  {
    "school_index": 119,
    "school_name": "Govt Navin Malaw Girls High School Indore",
    "lat": 22.7210093,
    "lon": 75.8576265,
    "has_hospital": true,
    "has_police_station": true,
    "has_fire_station": false,
    "dist_hospital_km": 0.239,
    "dist_police_km": 1.673,
    "dist_fire_km": 0,
    "emergency_safety_index": 44.03
  },
  {
    "school_index": 120,
    "school_name": "Government Higher Secondary School Vivekanand",
    "lat": 22.7198533,
    "lon": 75.8566529,
    "has_hospital": true,
    "has_police_station": true,
    "has_fire_station": false,
    "dist_hospital_km": 0.084,
    "dist_police_km": 1.511,
    "dist_fire_km": 0,
    "emergency_safety_index": 45.75
  },
  {
    "school_index": 121,
    "school_name": "Kasturba Girls Higher Secondary School",
    "lat": 22.7206172,
    "lon": 75.8543395,
    "has_hospital": true,
    "has_police_station": true,
    "has_fire_station": false,
    "dist_hospital_km": 0.121,
    "dist_police_km": 1.427,
    "dist_fire_km": 0,
    "emergency_safety_index": 46.01
  },
  {
    "school_index": 122,
    "school_name": "Government Maharaja Shivaji Rao Higher Secondary School",
    "lat": 22.7244612,
    "lon": 75.8610798,
    "has_hospital": true,
    "has_police_station": false,
    "has_fire_station": false,
    "dist_hospital_km": 0.33,
    "dist_police_km": 0.0,
    "dist_fire_km": 0,
    "emergency_safety_index": 17.97
  },
  {
    "school_index": 123,
    "school_name": "Shishu Vihar Rambagh School",
    "lat": 22.7250173,
    "lon": 75.8578451,
    "has_hospital": true,
    "has_police_station": false,
    "has_fire_station": false,
    "dist_hospital_km": 0.584,
    "dist_police_km": 0.0,
    "dist_fire_km": 0,
    "emergency_safety_index": 17.0
  },
  {
    "school_index": 124,
    "school_name": "Sandipani School",
    "lat": 22.72903,
    "lon": 75.8546714,
    "has_hospital": true,
    "has_police_station": false,
    "has_fire_station": false,
    "dist_hospital_km": 0.471,
    "dist_police_km": 0.0,
    "dist_fire_km": 0,
    "emergency_safety_index": 17.43
  },
  {
    "school_index": 125,
    "school_name": "Government Hindi Kanya Madhyamik Vidhyalaya",
    "lat": 22.7250519,
    "lon": 75.8595094,
    "has_hospital": true,
    "has_police_station": false,
    "has_fire_station": false,
    "dist_hospital_km": 0.497,
    "dist_police_km": 0.0,
    "dist_fire_km": 0,
    "emergency_safety_index": 17.33
  },
  {
    "school_index": 126,
    "school_name": "Nutan Government Higher Secondary School",
    "lat": 22.7279656,
    "lon": 75.86226,
    "has_hospital": true,
    "has_police_station": false,
    "has_fire_station": false,
    "dist_hospital_km": 0.451,
    "dist_police_km": 0.0,
    "dist_fire_km": 0,
    "emergency_safety_index": 17.51
  },
  {
    "school_index": 127,
    "school_name": "Police Public School",
    "lat": 22.7312881,
    "lon": 75.8459388,
    "has_hospital": true,
    "has_police_station": false,
    "has_fire_station": false,
    "dist_hospital_km": 0.476,
    "dist_police_km": 0.0,
    "dist_fire_km": 0,
    "emergency_safety_index": 17.41
  },
  {
    "school_index": 128,
    "school_name": "Vimal Higher Secondary School",
    "lat": 22.7333815,
    "lon": 75.8478318,
    "has_hospital": true,
    "has_police_station": false,
    "has_fire_station": false,
    "dist_hospital_km": 0.392,
    "dist_police_km": 0.0,
    "dist_fire_km": 0,
    "emergency_safety_index": 17.74
  },
  {
    "school_index": 129,
    "school_name": "Ideal International School",
    "lat": 22.7419191,
    "lon": 75.8414903,
    "has_hospital": true,
    "has_police_station": false,
    "has_fire_station": false,
    "dist_hospital_km": 0.26,
    "dist_police_km": 0.0,
    "dist_fire_km": 0,
    "emergency_safety_index": 18.24
  },
  {
    "school_index": 130,
    "school_name": "Akshay Academy",
    "lat": 22.739819,
    "lon": 75.8482026,
    "has_hospital": true,
    "has_police_station": false,
    "has_fire_station": false,
    "dist_hospital_km": 0.032,
    "dist_police_km": 0.0,
    "dist_fire_km": 0,
    "emergency_safety_index": 19.12
  },
  {
    "school_index": 131,
    "school_name": "Government School Banganga",
    "lat": 22.740853,
    "lon": 75.8499889,
    "has_hospital": true,
    "has_police_station": false,
    "has_fire_station": false,
    "dist_hospital_km": 0.215,
    "dist_police_km": 0.0,
    "dist_fire_km": 0,
    "emergency_safety_index": 18.42
  },
  {
    "school_index": 132,
    "school_name": "Ahilya Ashram",
    "lat": 22.7345622,
    "lon": 75.8610095,
    "has_hospital": true,
    "has_police_station": false,
    "has_fire_station": false,
    "dist_hospital_km": 0.763,
    "dist_police_km": 0.0,
    "dist_fire_km": 0,
    "emergency_safety_index": 16.31
  },
  {
    "school_index": 133,
    "school_name": "Ahilyaashram And Chandrawati Kanya Uchhatar Madhyamik Vidhalaya No 1",
    "lat": 22.734232,
    "lon": 75.860467,
    "has_hospital": true,
    "has_police_station": false,
    "has_fire_station": false,
    "dist_hospital_km": 0.83,
    "dist_police_km": 0.0,
    "dist_fire_km": 0,
    "emergency_safety_index": 16.05
  },
  {
    "school_index": 134,
    "school_name": "Government Primary School",
    "lat": 22.7396619,
    "lon": 75.851613,
    "has_hospital": true,
    "has_police_station": false,
    "has_fire_station": false,
    "dist_hospital_km": 0.292,
    "dist_police_km": 0.0,
    "dist_fire_km": 0,
    "emergency_safety_index": 18.12
  },
  {
    "school_index": 135,
    "school_name": "Shrisainath H S School",
    "lat": 22.741177,
    "lon": 75.8522346,
    "has_hospital": true,
    "has_police_station": false,
    "has_fire_station": false,
    "dist_hospital_km": 0.427,
    "dist_police_km": 0.0,
    "dist_fire_km": 0,
    "emergency_safety_index": 17.6
  },
  {
    "school_index": 136,
    "school_name": "Government Secondary School",
    "lat": 22.7453452,
    "lon": 75.8154716,
    "has_hospital": true,
    "has_police_station": false,
    "has_fire_station": false,
    "dist_hospital_km": 1.777,
    "dist_police_km": 0.0,
    "dist_fire_km": 0,
    "emergency_safety_index": 12.41
  },
  {
    "school_index": 137,
    "school_name": "Government Hindi Unnat Ms No 37",
    "lat": 22.7489591,
    "lon": 75.8124554,
    "has_hospital": false,
    "has_police_station": false,
    "has_fire_station": false,
    "dist_hospital_km": 0.0,
    "dist_police_km": 0.0,
    "dist_fire_km": 0,
    "emergency_safety_index": 0.0
  },
  {
    "school_index": 138,
    "school_name": "Sandipani Vidya Vihar",
    "lat": 22.7447329,
    "lon": 75.820545,
    "has_hospital": true,
    "has_police_station": false,
    "has_fire_station": false,
    "dist_hospital_km": 1.595,
    "dist_police_km": 0.0,
    "dist_fire_km": 0,
    "emergency_safety_index": 13.11
  },
  {
    "school_index": 139,
    "school_name": "Government School Tigaria",
    "lat": 22.7622117,
    "lon": 75.8283019,
    "has_hospital": false,
    "has_police_station": false,
    "has_fire_station": false,
    "dist_hospital_km": 0.0,
    "dist_police_km": 0.0,
    "dist_fire_km": 0,
    "emergency_safety_index": 0.0
  },
  {
    "school_index": 140,
    "school_name": "Sunderam Public School",
    "lat": 22.7467464,
    "lon": 75.839712,
    "has_hospital": true,
    "has_police_station": false,
    "has_fire_station": false,
    "dist_hospital_km": 0.673,
    "dist_police_km": 0.0,
    "dist_fire_km": 0,
    "emergency_safety_index": 16.65
  },
  {
    "school_index": 141,
    "school_name": "Government Primary School",
    "lat": 22.7459363,
    "lon": 75.8499044,
    "has_hospital": true,
    "has_police_station": false,
    "has_fire_station": false,
    "dist_hospital_km": 0.445,
    "dist_police_km": 0.0,
    "dist_fire_km": 0,
    "emergency_safety_index": 17.53
  },
  {
    "school_index": 142,
    "school_name": "Government Ahillya Aashram Girls Higher Secondary School 2",
    "lat": 22.7447008,
    "lon": 75.8466911,
    "has_hospital": true,
    "has_police_station": false,
    "has_fire_station": false,
    "dist_hospital_km": 0.364,
    "dist_police_km": 0.0,
    "dist_fire_km": 0,
    "emergency_safety_index": 17.84
  },
  {
    "school_index": 143,
    "school_name": "Indore Convent",
    "lat": 22.7471038,
    "lon": 75.8455934,
    "has_hospital": true,
    "has_police_station": false,
    "has_fire_station": false,
    "dist_hospital_km": 0.108,
    "dist_police_km": 0.0,
    "dist_fire_km": 0,
    "emergency_safety_index": 18.83
  },
  {
    "school_index": 144,
    "school_name": "Government Girls Primary School No 48",
    "lat": 22.7483123,
    "lon": 75.860817,
    "has_hospital": true,
    "has_police_station": false,
    "has_fire_station": false,
    "dist_hospital_km": 0.194,
    "dist_police_km": 0.0,
    "dist_fire_km": 0,
    "emergency_safety_index": 18.5
  },
  {
    "school_index": 145,
    "school_name": "Government Public School Bhagirathpura",
    "lat": 22.7636685,
    "lon": 75.8470211,
    "has_hospital": true,
    "has_police_station": false,
    "has_fire_station": false,
    "dist_hospital_km": 0.487,
    "dist_police_km": 0.0,
    "dist_fire_km": 0,
    "emergency_safety_index": 17.37
  },
  {
    "school_index": 146,
    "school_name": "Kids Care School",
    "lat": 22.7650127,
    "lon": 75.840919,
    "has_hospital": true,
    "has_police_station": false,
    "has_fire_station": false,
    "dist_hospital_km": 0.97,
    "dist_police_km": 0.0,
    "dist_fire_km": 0,
    "emergency_safety_index": 15.51
  },
  {
    "school_index": 147,
    "school_name": "Gyan Jyoti Public School",
    "lat": 22.7578525,
    "lon": 75.8610074,
    "has_hospital": true,
    "has_police_station": false,
    "has_fire_station": false,
    "dist_hospital_km": 0.315,
    "dist_police_km": 0.0,
    "dist_fire_km": 0,
    "emergency_safety_index": 18.03
  },
  {
    "school_index": 148,
    "school_name": "Government Boys Urdu Secondary School Nayapura",
    "lat": 22.7245422,
    "lon": 75.8659606,
    "has_hospital": true,
    "has_police_station": false,
    "has_fire_station": false,
    "dist_hospital_km": 0.171,
    "dist_police_km": 0.0,
    "dist_fire_km": 0,
    "emergency_safety_index": 18.59
  },
  {
    "school_index": 149,
    "school_name": "Brahma Samaj Montessori School",
    "lat": 22.7196059,
    "lon": 75.8654505,
    "has_hospital": true,
    "has_police_station": false,
    "has_fire_station": false,
    "dist_hospital_km": 0.168,
    "dist_police_km": 0.0,
    "dist_fire_km": 0,
    "emergency_safety_index": 18.6
  },
  {
    "school_index": 150,
    "school_name": "St Umar Higher Secondary School",
    "lat": 22.7256135,
    "lon": 75.8891191,
    "has_hospital": true,
    "has_police_station": true,
    "has_fire_station": false,
    "dist_hospital_km": 0.062,
    "dist_police_km": 0.152,
    "dist_fire_km": 0,
    "emergency_safety_index": 53.27
  },
  {
    "school_index": 151,
    "school_name": "Sica Pre Primary School",
    "lat": 22.7294555,
    "lon": 75.890094,
    "has_hospital": true,
    "has_police_station": true,
    "has_fire_station": false,
    "dist_hospital_km": 0.254,
    "dist_police_km": 0.544,
    "dist_fire_km": 0,
    "emergency_safety_index": 50.09
  },
  {
    "school_index": 152,
    "school_name": "Vivekananda Academy",
    "lat": 22.7263051,
    "lon": 75.8893035,
    "has_hospital": true,
    "has_police_station": true,
    "has_fire_station": false,
    "dist_hospital_km": 0.055,
    "dist_police_km": 0.21,
    "dist_fire_km": 0,
    "emergency_safety_index": 52.99
  },
  {
    "school_index": 153,
    "school_name": "New Annapurna Bal Vinay Mandir",
    "lat": 22.742556,
    "lon": 75.8672489,
    "has_hospital": true,
    "has_police_station": false,
    "has_fire_station": false,
    "dist_hospital_km": 0.409,
    "dist_police_km": 0.0,
    "dist_fire_km": 0,
    "emergency_safety_index": 17.67
  },
  {
    "school_index": 154,
    "school_name": "Sashkiya Prathmik Vidhyalaya",
    "lat": 22.7400626,
    "lon": 75.8720246,
    "has_hospital": true,
    "has_police_station": false,
    "has_fire_station": false,
    "dist_hospital_km": 0.212,
    "dist_police_km": 0.0,
    "dist_fire_km": 0,
    "emergency_safety_index": 18.43
  },
  {
    "school_index": 155,
    "school_name": "Government School Subhash Nagar",
    "lat": 22.7434057,
    "lon": 75.8715176,
    "has_hospital": true,
    "has_police_station": false,
    "has_fire_station": false,
    "dist_hospital_km": 0.167,
    "dist_police_km": 0.0,
    "dist_fire_km": 0,
    "emergency_safety_index": 18.6
  },
  {
    "school_index": 156,
    "school_name": "High Light H S School",
    "lat": 22.7351732,
    "lon": 75.8840811,
    "has_hospital": true,
    "has_police_station": true,
    "has_fire_station": false,
    "dist_hospital_km": 0.173,
    "dist_police_km": 1.185,
    "dist_fire_km": 0,
    "emergency_safety_index": 47.04
  },
  {
    "school_index": 157,
    "school_name": "Chetna Public School",
    "lat": 22.7340946,
    "lon": 75.8853149,
    "has_hospital": true,
    "has_police_station": true,
    "has_fire_station": false,
    "dist_hospital_km": 0.192,
    "dist_police_km": 1.034,
    "dist_fire_km": 0,
    "emergency_safety_index": 47.76
  },
  {
    "school_index": 158,
    "school_name": "Shaskiya Unnat Mahavidhyalay No 96",
    "lat": 22.7349456,
    "lon": 75.8852505,
    "has_hospital": true,
    "has_police_station": true,
    "has_fire_station": false,
    "dist_hospital_km": 0.165,
    "dist_police_km": 1.128,
    "dist_fire_km": 0,
    "emergency_safety_index": 47.39
  },
  {
    "school_index": 159,
    "school_name": "Gyanodaya Vidhalaya",
    "lat": 22.7369414,
    "lon": 75.8885141,
    "has_hospital": true,
    "has_police_station": true,
    "has_fire_station": false,
    "dist_hospital_km": 0.183,
    "dist_police_km": 1.323,
    "dist_fire_km": 0,
    "emergency_safety_index": 46.24
  },
  {
    "school_index": 160,
    "school_name": "Government Girls School",
    "lat": 22.7204034,
    "lon": 75.8923443,
    "has_hospital": true,
    "has_police_station": true,
    "has_fire_station": false,
    "dist_hospital_km": 0.27,
    "dist_police_km": 0.7,
    "dist_fire_km": 0,
    "emergency_safety_index": 49.15
  },
  {
    "school_index": 161,
    "school_name": "Kidzshala Pre School And Day Care",
    "lat": 22.7217906,
    "lon": 75.8971263,
    "has_hospital": true,
    "has_police_station": true,
    "has_fire_station": false,
    "dist_hospital_km": 0.147,
    "dist_police_km": 1.028,
    "dist_fire_km": 0,
    "emergency_safety_index": 48.04
  },
  {
    "school_index": 162,
    "school_name": "Sunrise Nursery Play School",
    "lat": 22.7218664,
    "lon": 75.8936239,
    "has_hospital": true,
    "has_police_station": true,
    "has_fire_station": false,
    "dist_hospital_km": 0.293,
    "dist_police_km": 0.699,
    "dist_fire_km": 0,
    "emergency_safety_index": 49.03
  },
  {
    "school_index": 163,
    "school_name": "Government School Vinoba Nagar",
    "lat": 22.7208813,
    "lon": 75.8920869,
    "has_hospital": true,
    "has_police_station": true,
    "has_fire_station": false,
    "dist_hospital_km": 0.212,
    "dist_police_km": 0.644,
    "dist_fire_km": 0,
    "emergency_safety_index": 49.77
  },
  {
    "school_index": 164,
    "school_name": "Shri Tilak Nagar Higher Secondary School And Bal Mandir",
    "lat": 22.718834,
    "lon": 75.898455,
    "has_hospital": true,
    "has_police_station": true,
    "has_fire_station": false,
    "dist_hospital_km": 0.105,
    "dist_police_km": 1.298,
    "dist_fire_km": 0,
    "emergency_safety_index": 46.8
  },
  {
    "school_index": 165,
    "school_name": "Shree Krishna Public School",
    "lat": 22.718908,
    "lon": 75.9001092,
    "has_hospital": true,
    "has_police_station": true,
    "has_fire_station": false,
    "dist_hospital_km": 0.275,
    "dist_police_km": 1.44,
    "dist_fire_km": 0,
    "emergency_safety_index": 45.1
  },
  {
    "school_index": 166,
    "school_name": "Mini Heights",
    "lat": 22.7272895,
    "lon": 75.8965011,
    "has_hospital": true,
    "has_police_station": true,
    "has_fire_station": false,
    "dist_hospital_km": 0.185,
    "dist_police_km": 0.93,
    "dist_fire_km": 0,
    "emergency_safety_index": 48.36
  },
  {
    "school_index": 167,
    "school_name": "Sardar Patel Innovative",
    "lat": 22.7196554,
    "lon": 75.9095407,
    "has_hospital": true,
    "has_police_station": true,
    "has_fire_station": false,
    "dist_hospital_km": 0.345,
    "dist_police_km": 1.628,
    "dist_fire_km": 0,
    "emergency_safety_index": 43.69
  },
  {
    "school_index": 168,
    "school_name": "Seventh Day Adventist",
    "lat": 22.7213687,
    "lon": 75.9143499,
    "has_hospital": true,
    "has_police_station": true,
    "has_fire_station": false,
    "dist_hospital_km": 0.872,
    "dist_police_km": 1.611,
    "dist_fire_km": 0,
    "emergency_safety_index": 40.92
  },
  {
    "school_index": 169,
    "school_name": "Government Girls Secondary School",
    "lat": 22.7318342,
    "lon": 75.9029444,
    "has_hospital": true,
    "has_police_station": true,
    "has_fire_station": false,
    "dist_hospital_km": 0.173,
    "dist_police_km": 1.27,
    "dist_fire_km": 0,
    "emergency_safety_index": 46.58
  },
  {
    "school_index": 170,
    "school_name": "Government Higher Secondary School",
    "lat": 22.7331205,
    "lon": 75.9013378,
    "has_hospital": true,
    "has_police_station": true,
    "has_fire_station": false,
    "dist_hospital_km": 0.171,
    "dist_police_km": 1.387,
    "dist_fire_km": 0,
    "emergency_safety_index": 45.95
  },
  {
    "school_index": 171,
    "school_name": "N M S Malviya Nagar",
    "lat": 22.7407181,
    "lon": 75.8939724,
    "has_hospital": true,
    "has_police_station": true,
    "has_fire_station": false,
    "dist_hospital_km": 0.23,
    "dist_police_km": 1.217,
    "dist_fire_km": 0,
    "emergency_safety_index": 46.56
  },
  {
    "school_index": 172,
    "school_name": "Shri Barfani Academy",
    "lat": 22.7415147,
    "lon": 75.8973312,
    "has_hospital": true,
    "has_police_station": true,
    "has_fire_station": false,
    "dist_hospital_km": 0.26,
    "dist_police_km": 1.144,
    "dist_fire_km": 0,
    "emergency_safety_index": 46.79
  },
  {
    "school_index": 173,
    "school_name": "St Loysis Higher Secondary School",
    "lat": 22.7325282,
    "lon": 75.9090941,
    "has_hospital": true,
    "has_police_station": true,
    "has_fire_station": false,
    "dist_hospital_km": 0.285,
    "dist_police_km": 0.669,
    "dist_fire_km": 0,
    "emergency_safety_index": 49.24
  },
  {
    "school_index": 174,
    "school_name": "Joint Mission H S School",
    "lat": 22.7477458,
    "lon": 75.8741757,
    "has_hospital": true,
    "has_police_station": false,
    "has_fire_station": false,
    "dist_hospital_km": 0.188,
    "dist_police_km": 0.0,
    "dist_fire_km": 0,
    "emergency_safety_index": 18.52
  },
  {
    "school_index": 175,
    "school_name": "Shaskiya Uchchatar Madhyamik Vidhyalaya",
    "lat": 22.7476728,
    "lon": 75.8822116,
    "has_hospital": true,
    "has_police_station": true,
    "has_fire_station": false,
    "dist_hospital_km": 0.398,
    "dist_police_km": 1.399,
    "dist_fire_km": 0,
    "emergency_safety_index": 44.65
  },
  {
    "school_index": 176,
    "school_name": "Sarada Ramakrishna Vidya Mandir",
    "lat": 22.7532395,
    "lon": 75.8828956,
    "has_hospital": true,
    "has_police_station": true,
    "has_fire_station": false,
    "dist_hospital_km": 0.309,
    "dist_police_km": 1.271,
    "dist_fire_km": 0,
    "emergency_safety_index": 45.83
  },
  {
    "school_index": 177,
    "school_name": "Kanyakubj Nursing College",
    "lat": 22.7560578,
    "lon": 75.8838975,
    "has_hospital": true,
    "has_police_station": true,
    "has_fire_station": false,
    "dist_hospital_km": 0.217,
    "dist_police_km": 1.257,
    "dist_fire_km": 0,
    "emergency_safety_index": 46.41
  },
  {
    "school_index": 178,
    "school_name": "Bhumika Higher Secondary School",
    "lat": 22.7504605,
    "lon": 75.9005251,
    "has_hospital": true,
    "has_police_station": true,
    "has_fire_station": false,
    "dist_hospital_km": 0.305,
    "dist_police_km": 0.564,
    "dist_fire_km": 0,
    "emergency_safety_index": 49.7
  },
  {
    "school_index": 179,
    "school_name": "Bal Krishna Public High School",
    "lat": 22.751717,
    "lon": 75.8988507,
    "has_hospital": true,
    "has_police_station": true,
    "has_fire_station": false,
    "dist_hospital_km": 0.426,
    "dist_police_km": 0.378,
    "dist_fire_km": 0,
    "emergency_safety_index": 50.06
  },
  {
    "school_index": 180,
    "school_name": "Prestige Institute Of Management And Research",
    "lat": 22.7543241,
    "lon": 75.9023926,
    "has_hospital": true,
    "has_police_station": true,
    "has_fire_station": false,
    "dist_hospital_km": 0.116,
    "dist_police_km": 0.8,
    "dist_fire_km": 0,
    "emergency_safety_index": 49.45
  },
  {
    "school_index": 181,
    "school_name": "St Arnold'S Higher Secondary School",
    "lat": 22.7582694,
    "lon": 75.8953114,
    "has_hospital": true,
    "has_police_station": true,
    "has_fire_station": false,
    "dist_hospital_km": 0.337,
    "dist_police_km": 0.741,
    "dist_fire_km": 0,
    "emergency_safety_index": 48.57
  },
  {
    "school_index": 182,
    "school_name": "Government High Secondary School",
    "lat": 22.7623743,
    "lon": 75.8920087,
    "has_hospital": true,
    "has_police_station": true,
    "has_fire_station": false,
    "dist_hospital_km": 0.165,
    "dist_police_km": 1.24,
    "dist_fire_km": 0,
    "emergency_safety_index": 46.79
  },
  {
    "school_index": 183,
    "school_name": "St Arnold'S",
    "lat": 22.7578353,
    "lon": 75.8941346,
    "has_hospital": true,
    "has_police_station": true,
    "has_fire_station": false,
    "dist_hospital_km": 0.429,
    "dist_police_km": 0.7,
    "dist_fire_km": 0,
    "emergency_safety_index": 48.29
  },
  {
    "school_index": 184,
    "school_name": "New Arihant Academy",
    "lat": 22.7686051,
    "lon": 75.8911729,
    "has_hospital": true,
    "has_police_station": true,
    "has_fire_station": false,
    "dist_hospital_km": 0.269,
    "dist_police_km": 1.934,
    "dist_fire_km": 0,
    "emergency_safety_index": 42.44
  },
  {
    "school_index": 185,
    "school_name": "Navodaya Convnt School",
    "lat": 22.7680709,
    "lon": 75.8931202,
    "has_hospital": true,
    "has_police_station": true,
    "has_fire_station": false,
    "dist_hospital_km": 0.476,
    "dist_police_km": 1.842,
    "dist_fire_km": 0,
    "emergency_safety_index": 41.82
  },
  {
    "school_index": 186,
    "school_name": "Tender Hearts School",
    "lat": 22.7659204,
    "lon": 75.8924859,
    "has_hospital": true,
    "has_police_station": true,
    "has_fire_station": false,
    "dist_hospital_km": 0.262,
    "dist_police_km": 1.615,
    "dist_fire_km": 0,
    "emergency_safety_index": 44.22
  },
  {
    "school_index": 187,
    "school_name": "Shaskiya Prathmik Vidhlaya No 30",
    "lat": 22.7657733,
    "lon": 75.8947811,
    "has_hospital": true,
    "has_police_station": true,
    "has_fire_station": false,
    "dist_hospital_km": 0.409,
    "dist_police_km": 1.575,
    "dist_fire_km": 0,
    "emergency_safety_index": 43.63
  },
  {
    "school_index": 188,
    "school_name": "Government High School",
    "lat": 22.7650127,
    "lon": 75.8910643,
    "has_hospital": true,
    "has_police_station": true,
    "has_fire_station": false,
    "dist_hospital_km": 0.144,
    "dist_police_km": 1.548,
    "dist_fire_km": 0,
    "emergency_safety_index": 45.22
  },
  {
    "school_index": 189,
    "school_name": "All Saint Hss",
    "lat": 22.7662277,
    "lon": 75.8915228,
    "has_hospital": true,
    "has_police_station": true,
    "has_fire_station": false,
    "dist_hospital_km": 0.274,
    "dist_police_km": 1.668,
    "dist_fire_km": 0,
    "emergency_safety_index": 43.86
  },
  {
    "school_index": 190,
    "school_name": "Zealous Academy",
    "lat": 22.7643165,
    "lon": 75.9022651,
    "has_hospital": true,
    "has_police_station": true,
    "has_fire_station": false,
    "dist_hospital_km": 0.262,
    "dist_police_km": 1.589,
    "dist_fire_km": 0,
    "emergency_safety_index": 44.36
  },
  {
    "school_index": 191,
    "school_name": "Indo German Tool Rool",
    "lat": 22.7811968,
    "lon": 75.8470559,
    "has_hospital": true,
    "has_police_station": false,
    "has_fire_station": false,
    "dist_hospital_km": 1.714,
    "dist_police_km": 0.0,
    "dist_fire_km": 0,
    "emergency_safety_index": 12.65
  },
  {
    "school_index": 192,
    "school_name": "Saims Nursing College",
    "lat": 22.7969389,
    "lon": 75.8458923,
    "has_hospital": true,
    "has_police_station": false,
    "has_fire_station": false,
    "dist_hospital_km": 0.063,
    "dist_police_km": 0.0,
    "dist_fire_km": 0,
    "emergency_safety_index": 19.0
  },
  {
    "school_index": 193,
    "school_name": "Arihant Public School",
    "lat": 22.7706875,
    "lon": 75.8898533,
    "has_hospital": true,
    "has_police_station": false,
    "has_fire_station": false,
    "dist_hospital_km": 0.169,
    "dist_police_km": 0.0,
    "dist_fire_km": 0,
    "emergency_safety_index": 18.59
  },
  {
    "school_index": 194,
    "school_name": "Government Primary School",
    "lat": 22.782892,
    "lon": 75.909357,
    "has_hospital": true,
    "has_police_station": true,
    "has_fire_station": false,
    "dist_hospital_km": 1.151,
    "dist_police_km": 0.467,
    "dist_fire_km": 0,
    "emergency_safety_index": 45.63
  },
  {
    "school_index": 195,
    "school_name": "Government Secondary School Lasudiya Mori",
    "lat": 22.7833398,
    "lon": 75.9094118,
    "has_hospital": true,
    "has_police_station": true,
    "has_fire_station": false,
    "dist_hospital_km": 1.103,
    "dist_police_km": 0.444,
    "dist_fire_km": 0,
    "emergency_safety_index": 46.01
  },
  {
    "school_index": 196,
    "school_name": "Shri L K Prajapati Public School",
    "lat": 22.7893029,
    "lon": 75.9003058,
    "has_hospital": true,
    "has_police_station": true,
    "has_fire_station": false,
    "dist_hospital_km": 0.805,
    "dist_police_km": 0.703,
    "dist_fire_km": 0,
    "emergency_safety_index": 46.22
  },
  {
    "school_index": 197,
    "school_name": "Anand Isher Panj Pyare Public School",
    "lat": 22.7863109,
    "lon": 75.9053992,
    "has_hospital": true,
    "has_police_station": true,
    "has_fire_station": false,
    "dist_hospital_km": 0.765,
    "dist_police_km": 0.108,
    "dist_fire_km": 0,
    "emergency_safety_index": 49.68
  },
  {
    "school_index": 198,
    "school_name": "Government Primary School",
    "lat": 22.791479,
    "lon": 75.9135479,
    "has_hospital": true,
    "has_police_station": true,
    "has_fire_station": false,
    "dist_hospital_km": 0.688,
    "dist_police_km": 1.054,
    "dist_fire_km": 0,
    "emergency_safety_index": 44.95
  },
  {
    "school_index": 199,
    "school_name": "Government Secondary School Talavali Chaanda",
    "lat": 22.7962333,
    "lon": 75.9105887,
    "has_hospital": true,
    "has_police_station": true,
    "has_fire_station": false,
    "dist_hospital_km": 0.51,
    "dist_police_km": 1.308,
    "dist_fire_km": 0,
    "emergency_safety_index": 44.54
  },
  {
    "school_index": 200,
    "school_name": "Government Primary Schools Talavali Chaanda",
    "lat": 22.7983976,
    "lon": 75.9118126,
    "has_hospital": true,
    "has_police_station": true,
    "has_fire_station": false,
    "dist_hospital_km": 0.772,
    "dist_police_km": 1.579,
    "dist_fire_km": 0,
    "emergency_safety_index": 41.64
  },
  {
    "school_index": 201,
    "school_name": "Laurels School International Pre School",
    "lat": 22.7979887,
    "lon": 75.9145993,
    "has_hospital": true,
    "has_police_station": true,
    "has_fire_station": false,
    "dist_hospital_km": 0.951,
    "dist_police_km": 1.674,
    "dist_fire_km": 0,
    "emergency_safety_index": 40.14
  },
  {
    "school_index": 202,
    "school_name": "Government Primary School Dhaabli",
    "lat": 22.8114598,
    "lon": 75.9087,
    "has_hospital": false,
    "has_police_station": false,
    "has_fire_station": false,
    "dist_hospital_km": 0.0,
    "dist_police_km": 0.0,
    "dist_fire_km": 0,
    "emergency_safety_index": 0.0
  },
  {
    "school_index": 203,
    "school_name": "Government Primary And Secondary School Bicholi",
    "lat": 22.6963615,
    "lon": 75.9279399,
    "has_hospital": true,
    "has_police_station": false,
    "has_fire_station": false,
    "dist_hospital_km": 0.753,
    "dist_police_km": 0.0,
    "dist_fire_km": 0,
    "emergency_safety_index": 16.35
  },
  {
    "school_index": 204,
    "school_name": "Agrawal Public School",
    "lat": 22.7034489,
    "lon": 75.9176996,
    "has_hospital": true,
    "has_police_station": true,
    "has_fire_station": false,
    "dist_hospital_km": 0.291,
    "dist_police_km": 1.358,
    "dist_fire_km": 0,
    "emergency_safety_index": 45.46
  },
  {
    "school_index": 205,
    "school_name": "Shishukunj Pre School",
    "lat": 22.7078817,
    "lon": 75.9326449,
    "has_hospital": true,
    "has_police_station": false,
    "has_fire_station": false,
    "dist_hospital_km": 1.303,
    "dist_police_km": 0.0,
    "dist_fire_km": 0,
    "emergency_safety_index": 14.23
  },
  {
    "school_index": 206,
    "school_name": "Shaskiya Urdu Madhyamik Vidhalaya",
    "lat": 22.7374584,
    "lon": 75.9169523,
    "has_hospital": true,
    "has_police_station": true,
    "has_fire_station": false,
    "dist_hospital_km": 0.587,
    "dist_police_km": 0.3,
    "dist_fire_km": 0,
    "emergency_safety_index": 49.6
  },
  {
    "school_index": 207,
    "school_name": "Graduate School Of Business Gsb College",
    "lat": 22.7705549,
    "lon": 75.9386573,
    "has_hospital": true,
    "has_police_station": false,
    "has_fire_station": false,
    "dist_hospital_km": 1.509,
    "dist_police_km": 0.0,
    "dist_fire_km": 0,
    "emergency_safety_index": 13.44
  },
  {
    "school_index": 208,
    "school_name": "S B Public School",
    "lat": 22.8176608,
    "lon": 75.9233165,
    "has_hospital": true,
    "has_police_station": false,
    "has_fire_station": false,
    "dist_hospital_km": 0.447,
    "dist_police_km": 0.0,
    "dist_fire_km": 0,
    "emergency_safety_index": 17.52
  },
  {
    "school_index": 209,
    "school_name": "Manas Wisdom Education Academy",
    "lat": 22.817526,
    "lon": 75.9269562,
    "has_hospital": true,
    "has_police_station": false,
    "has_fire_station": false,
    "dist_hospital_km": 0.181,
    "dist_police_km": 0.0,
    "dist_fire_km": 0,
    "emergency_safety_index": 18.55
  },
  {
    "school_index": 210,
    "school_name": "Swami Vivekanand Eminent School",
    "lat": 22.8182764,
    "lon": 75.9266894,
    "has_hospital": true,
    "has_police_station": false,
    "has_fire_station": false,
    "dist_hospital_km": 0.117,
    "dist_police_km": 0.0,
    "dist_fire_km": 0,
    "emergency_safety_index": 18.79
  },
  {
    "school_index": 211,
    "school_name": "Governmental Secondary Boys School",
    "lat": 22.8176138,
    "lon": 75.92484,
    "has_hospital": true,
    "has_police_station": false,
    "has_fire_station": false,
    "dist_hospital_km": 0.309,
    "dist_police_km": 0.0,
    "dist_fire_km": 0,
    "emergency_safety_index": 18.06
  },
  {
    "school_index": 212,
    "school_name": "Nav Niketan Public School",
    "lat": 22.8201998,
    "lon": 75.9261167,
    "has_hospital": true,
    "has_police_station": false,
    "has_fire_station": false,
    "dist_hospital_km": 0.179,
    "dist_police_km": 0.0,
    "dist_fire_km": 0,
    "emergency_safety_index": 18.56
  },
  {
    "school_index": 213,
    "school_name": "Government Higher Secondary School Manglia",
    "lat": 22.8178992,
    "lon": 75.9243071,
    "has_hospital": true,
    "has_police_station": false,
    "has_fire_station": false,
    "dist_hospital_km": 0.343,
    "dist_police_km": 0.0,
    "dist_fire_km": 0,
    "emergency_safety_index": 17.92
  },
  {
    "school_index": 214,
    "school_name": "Saraswati Shishu Mandir Manglia",
    "lat": 22.8178931,
    "lon": 75.9253044,
    "has_hospital": true,
    "has_police_station": false,
    "has_fire_station": false,
    "dist_hospital_km": 0.253,
    "dist_police_km": 0.0,
    "dist_fire_km": 0,
    "emergency_safety_index": 18.27
  },
  {
    "school_index": 215,
    "school_name": "Government Girls School Manglia",
    "lat": 22.8172372,
    "lon": 75.9251699,
    "has_hospital": true,
    "has_police_station": false,
    "has_fire_station": false,
    "dist_hospital_km": 0.308,
    "dist_police_km": 0.0,
    "dist_fire_km": 0,
    "emergency_safety_index": 18.06
  },
  {
    "school_index": 216,
    "school_name": "Dwfdc",
    "lat": 22.8199254,
    "lon": 75.9428751,
    "has_hospital": true,
    "has_police_station": false,
    "has_fire_station": false,
    "dist_hospital_km": 0.034,
    "dist_police_km": 0.0,
    "dist_fire_km": 0,
    "emergency_safety_index": 19.11
  },
  {
    "school_index": 217,
    "school_name": "G D Goenka Public School",
    "lat": 22.8132609,
    "lon": 75.9433203,
    "has_hospital": true,
    "has_police_station": false,
    "has_fire_station": false,
    "dist_hospital_km": 0.722,
    "dist_police_km": 0.0,
    "dist_fire_km": 0,
    "emergency_safety_index": 16.47
  },
  {
    "school_index": 218,
    "school_name": "Indian Institute Of Management Indore",
    "lat": 22.627185,
    "lon": 75.7907456,
    "has_hospital": true,
    "has_police_station": false,
    "has_fire_station": false,
    "dist_hospital_km": 1.601,
    "dist_police_km": 0.0,
    "dist_fire_km": 0,
    "emergency_safety_index": 13.08
  },
  {
    "school_index": 219,
    "school_name": "World Peace School",
    "lat": 22.7377781,
    "lon": 75.7821438,
    "has_hospital": true,
    "has_police_station": false,
    "has_fire_station": false,
    "dist_hospital_km": 0.729,
    "dist_police_km": 0.0,
    "dist_fire_km": 0,
    "emergency_safety_index": 16.44
  },
  {
    "school_index": 220,
    "school_name": "Modern Dental College And Research Center",
    "lat": 22.736913,
    "lon": 75.790029,
    "has_hospital": true,
    "has_police_station": false,
    "has_fire_station": false,
    "dist_hospital_km": 0.256,
    "dist_police_km": 0.0,
    "dist_fire_km": 0,
    "emergency_safety_index": 18.26
  },
  {
    "school_index": 221,
    "school_name": "Government Primary And Middle School Filter Station",
    "lat": 22.7560518,
    "lon": 75.7778657,
    "has_hospital": false,
    "has_police_station": false,
    "has_fire_station": false,
    "dist_hospital_km": 0.0,
    "dist_police_km": 0.0,
    "dist_fire_km": 0,
    "emergency_safety_index": 0.0
  },
  {
    "school_index": 222,
    "school_name": "Symboisis University Of Applied Sciences",
    "lat": 22.7536328,
    "lon": 75.7921739,
    "has_hospital": true,
    "has_police_station": false,
    "has_fire_station": false,
    "dist_hospital_km": 1.438,
    "dist_police_km": 0.0,
    "dist_fire_km": 0,
    "emergency_safety_index": 13.71
  },
  {
    "school_index": 223,
    "school_name": "Nmimis",
    "lat": 22.7500783,
    "lon": 75.7954314,
    "has_hospital": true,
    "has_police_station": false,
    "has_fire_station": false,
    "dist_hospital_km": 1.106,
    "dist_police_km": 0.0,
    "dist_fire_km": 0,
    "emergency_safety_index": 14.99
  },
  {
    "school_index": 224,
    "school_name": "Symboisis University Of Applied Sciences",
    "lat": 22.7531585,
    "lon": 75.7949312,
    "has_hospital": true,
    "has_police_station": false,
    "has_fire_station": false,
    "dist_hospital_km": 1.421,
    "dist_police_km": 0.0,
    "dist_fire_km": 0,
    "emergency_safety_index": 13.78
  },
  {
    "school_index": 225,
    "school_name": "St Joseph Convent School",
    "lat": 22.6722983,
    "lon": 75.8397216,
    "has_hospital": true,
    "has_police_station": false,
    "has_fire_station": false,
    "dist_hospital_km": 0.494,
    "dist_police_km": 0.0,
    "dist_fire_km": 0,
    "emergency_safety_index": 17.34
  },
  {
    "school_index": 226,
    "school_name": "Kasera Bazar Vidya Niketan",
    "lat": 22.7005727,
    "lon": 75.8287043,
    "has_hospital": true,
    "has_police_station": true,
    "has_fire_station": false,
    "dist_hospital_km": 0.123,
    "dist_police_km": 1.425,
    "dist_fire_km": 0,
    "emergency_safety_index": 46.01
  },
  {
    "school_index": 227,
    "school_name": "Gaikwad Education Society",
    "lat": 22.6972065,
    "lon": 75.8437165,
    "has_hospital": true,
    "has_police_station": true,
    "has_fire_station": false,
    "dist_hospital_km": 0.116,
    "dist_police_km": 0.257,
    "dist_fire_km": 0,
    "emergency_safety_index": 52.4
  },
  {
    "school_index": 228,
    "school_name": "Trilok Chand Jain School",
    "lat": 22.7096875,
    "lon": 75.8456728,
    "has_hospital": true,
    "has_police_station": true,
    "has_fire_station": false,
    "dist_hospital_km": 0.124,
    "dist_police_km": 0.092,
    "dist_fire_km": 0,
    "emergency_safety_index": 53.26
  },
  {
    "school_index": 229,
    "school_name": "Shri Bd Toshniwal School",
    "lat": 22.7103486,
    "lon": 75.849164,
    "has_hospital": true,
    "has_police_station": true,
    "has_fire_station": false,
    "dist_hospital_km": 0.071,
    "dist_police_km": 0.277,
    "dist_fire_km": 0,
    "emergency_safety_index": 52.54
  },
  {
    "school_index": 230,
    "school_name": "Khalsa Higher Secoandary School",
    "lat": 22.7140017,
    "lon": 75.8394435,
    "has_hospital": true,
    "has_police_station": true,
    "has_fire_station": false,
    "dist_hospital_km": 0.254,
    "dist_police_km": 0.848,
    "dist_fire_km": 0,
    "emergency_safety_index": 48.43
  },
  {
    "school_index": 231,
    "school_name": "Vaishnav Campus",
    "lat": 22.7140901,
    "lon": 75.8417733,
    "has_hospital": true,
    "has_police_station": true,
    "has_fire_station": false,
    "dist_hospital_km": 0.184,
    "dist_police_km": 0.663,
    "dist_fire_km": 0,
    "emergency_safety_index": 49.82
  },
  {
    "school_index": 232,
    "school_name": "Front Ground",
    "lat": 22.6716778,
    "lon": 75.8813472,
    "has_hospital": true,
    "has_police_station": true,
    "has_fire_station": false,
    "dist_hospital_km": 0.158,
    "dist_police_km": 1.708,
    "dist_fire_km": 0,
    "emergency_safety_index": 44.28
  },
  {
    "school_index": 233,
    "school_name": "Main Building",
    "lat": 22.6716439,
    "lon": 75.8819965,
    "has_hospital": true,
    "has_police_station": true,
    "has_fire_station": false,
    "dist_hospital_km": 0.213,
    "dist_police_km": 1.747,
    "dist_fire_km": 0,
    "emergency_safety_index": 43.76
  },
  {
    "school_index": 234,
    "school_name": "Back Ground",
    "lat": 22.6717168,
    "lon": 75.882816,
    "has_hospital": true,
    "has_police_station": true,
    "has_fire_station": false,
    "dist_hospital_km": 0.284,
    "dist_police_km": 1.788,
    "dist_fire_km": 0,
    "emergency_safety_index": 43.15
  },
  {
    "school_index": 235,
    "school_name": "Backstage Iet Davv",
    "lat": 22.6802986,
    "lon": 75.8800132,
    "has_hospital": true,
    "has_police_station": true,
    "has_fire_station": false,
    "dist_hospital_km": 0.501,
    "dist_police_km": 0.906,
    "dist_fire_km": 0,
    "emergency_safety_index": 46.77
  },
  {
    "school_index": 236,
    "school_name": "St Pauls Higher Secondary School",
    "lat": 22.7139705,
    "lon": 75.8900181,
    "has_hospital": true,
    "has_police_station": true,
    "has_fire_station": false,
    "dist_hospital_km": 0.4,
    "dist_police_km": 1.256,
    "dist_fire_km": 0,
    "emergency_safety_index": 45.42
  },
  {
    "school_index": 237,
    "school_name": "Mgm Medical College",
    "lat": 22.7142969,
    "lon": 75.8829716,
    "has_hospital": true,
    "has_police_station": true,
    "has_fire_station": false,
    "dist_hospital_km": 0.077,
    "dist_police_km": 1.294,
    "dist_fire_km": 0,
    "emergency_safety_index": 46.97
  },
  {
    "school_index": 238,
    "school_name": "New Girls Degree College",
    "lat": 22.7282214,
    "lon": 75.8447436,
    "has_hospital": true,
    "has_police_station": false,
    "has_fire_station": false,
    "dist_hospital_km": 0.668,
    "dist_police_km": 0.0,
    "dist_fire_km": 0,
    "emergency_safety_index": 16.67
  },
  {
    "school_index": 239,
    "school_name": "Sgsits",
    "lat": 22.7262664,
    "lon": 75.8717793,
    "has_hospital": true,
    "has_police_station": true,
    "has_fire_station": false,
    "dist_hospital_km": 0.349,
    "dist_police_km": 1.644,
    "dist_fire_km": 0,
    "emergency_safety_index": 43.58
  },
  {
    "school_index": 240,
    "school_name": "Swami Vivekananda School",
    "lat": 22.7245334,
    "lon": 75.8811654,
    "has_hospital": true,
    "has_police_station": true,
    "has_fire_station": false,
    "dist_hospital_km": 0.119,
    "dist_police_km": 0.678,
    "dist_fire_km": 0,
    "emergency_safety_index": 50.09
  },
  {
    "school_index": 241,
    "school_name": "Christian Eminent School",
    "lat": 22.7362642,
    "lon": 75.8866866,
    "has_hospital": true,
    "has_police_station": true,
    "has_fire_station": false,
    "dist_hospital_km": 0.092,
    "dist_police_km": 1.25,
    "dist_fire_km": 0,
    "emergency_safety_index": 47.13
  },
  {
    "school_index": 242,
    "school_name": "Mig Colony School",
    "lat": 22.7378097,
    "lon": 75.8861626,
    "has_hospital": true,
    "has_police_station": true,
    "has_fire_station": false,
    "dist_hospital_km": 0.077,
    "dist_police_km": 1.426,
    "dist_fire_km": 0,
    "emergency_safety_index": 46.25
  },
  {
    "school_index": 243,
    "school_name": "Shashkiya Uchhatar Madhyamik Vidhalaya",
    "lat": 22.7476804,
    "lon": 75.8754532,
    "has_hospital": true,
    "has_police_station": false,
    "has_fire_station": false,
    "dist_hospital_km": 0.276,
    "dist_police_km": 0.0,
    "dist_fire_km": 0,
    "emergency_safety_index": 18.18
  },
  {
    "school_index": 244,
    "school_name": "Sica School",
    "lat": 22.755602,
    "lon": 75.8907464,
    "has_hospital": true,
    "has_police_station": true,
    "has_fire_station": false,
    "dist_hospital_km": 0.32,
    "dist_police_km": 0.634,
    "dist_fire_km": 0,
    "emergency_safety_index": 49.24
  },
  {
    "school_index": 245,
    "school_name": "Softvision College",
    "lat": 22.7529045,
    "lon": 75.8814065,
    "has_hospital": true,
    "has_police_station": true,
    "has_fire_station": false,
    "dist_hospital_km": 0.4,
    "dist_police_km": 1.418,
    "dist_fire_km": 0,
    "emergency_safety_index": 44.54
  },
  {
    "school_index": 246,
    "school_name": "Softvision College",
    "lat": 22.754446,
    "lon": 75.8855916,
    "has_hospital": true,
    "has_police_station": true,
    "has_fire_station": false,
    "dist_hospital_km": 0.086,
    "dist_police_km": 1.031,
    "dist_fire_km": 0,
    "emergency_safety_index": 48.35
  },
  {
    "school_index": 247,
    "school_name": "Vaishnava Higher Secondary School",
    "lat": 22.7595891,
    "lon": 75.8782759,
    "has_hospital": true,
    "has_police_station": true,
    "has_fire_station": false,
    "dist_hospital_km": 0.065,
    "dist_police_km": 1.946,
    "dist_fire_km": 0,
    "emergency_safety_index": 43.49
  },
  {
    "school_index": 248,
    "school_name": "Prestige Institute Of Engineering And Science",
    "lat": 22.7606395,
    "lon": 75.8855809,
    "has_hospital": true,
    "has_police_station": true,
    "has_fire_station": false,
    "dist_hospital_km": 0.224,
    "dist_police_km": 1.405,
    "dist_fire_km": 0,
    "emergency_safety_index": 45.57
  },
  {
    "school_index": 249,
    "school_name": "Prestige Public School",
    "lat": 22.7607138,
    "lon": 75.8835831,
    "has_hospital": true,
    "has_police_station": true,
    "has_fire_station": false,
    "dist_hospital_km": 0.202,
    "dist_police_km": 1.561,
    "dist_fire_km": 0,
    "emergency_safety_index": 44.84
  },
  {
    "school_index": 250,
    "school_name": "The South Indian Cultural Association Senior Secondary School",
    "lat": 22.7656796,
    "lon": 75.8840907,
    "has_hospital": true,
    "has_police_station": true,
    "has_fire_station": false,
    "dist_hospital_km": 0.319,
    "dist_police_km": 1.933,
    "dist_fire_km": 0,
    "emergency_safety_index": 42.17
  },
  {
    "school_index": 251,
    "school_name": "Vibgyor Roots & Rise Schools",
    "lat": 22.7651263,
    "lon": 75.8831773,
    "has_hospital": true,
    "has_police_station": true,
    "has_fire_station": false,
    "dist_hospital_km": 0.334,
    "dist_police_km": 1.942,
    "dist_fire_km": 0,
    "emergency_safety_index": 42.04
  },
  {
    "school_index": 252,
    "school_name": "Daisy Dales School",
    "lat": 22.7654421,
    "lon": 75.8854472,
    "has_hospital": true,
    "has_police_station": true,
    "has_fire_station": false,
    "dist_hospital_km": 0.177,
    "dist_police_km": 1.833,
    "dist_fire_km": 0,
    "emergency_safety_index": 43.49
  },
  {
    "school_index": 253,
    "school_name": "Govt Institute Of Fine Arts",
    "lat": 22.7674875,
    "lon": 75.8870845,
    "has_hospital": true,
    "has_police_station": true,
    "has_fire_station": false,
    "dist_hospital_km": 0.271,
    "dist_police_km": 1.95,
    "dist_fire_km": 0,
    "emergency_safety_index": 42.34
  },
  {
    "school_index": 254,
    "school_name": "St Arnold'S Higher Secondary School",
    "lat": 22.7579433,
    "lon": 75.8948021,
    "has_hospital": true,
    "has_police_station": true,
    "has_fire_station": false,
    "dist_hospital_km": 0.388,
    "dist_police_km": 0.705,
    "dist_fire_km": 0,
    "emergency_safety_index": 48.48
  },
  {
    "school_index": 255,
    "school_name": "Sri Sathya Sai Vidhya Vihar",
    "lat": 22.7560665,
    "lon": 75.897944,
    "has_hospital": true,
    "has_police_station": true,
    "has_fire_station": false,
    "dist_hospital_km": 0.473,
    "dist_police_km": 0.572,
    "dist_fire_km": 0,
    "emergency_safety_index": 48.74
  },
  {
    "school_index": 256,
    "school_name": "Podar International School",
    "lat": 22.7575516,
    "lon": 75.8936353,
    "has_hospital": true,
    "has_police_station": true,
    "has_fire_station": false,
    "dist_hospital_km": 0.478,
    "dist_police_km": 0.679,
    "dist_fire_km": 0,
    "emergency_safety_index": 48.14
  },
  {
    "school_index": 257,
    "school_name": "Podar International School",
    "lat": 22.7568202,
    "lon": 75.8958712,
    "has_hospital": true,
    "has_police_station": true,
    "has_fire_station": false,
    "dist_hospital_km": 0.488,
    "dist_police_km": 0.584,
    "dist_fire_km": 0,
    "emergency_safety_index": 48.6
  },
  {
    "school_index": 258,
    "school_name": "Ecs Bagless School",
    "lat": 22.7559102,
    "lon": 75.8949513,
    "has_hospital": true,
    "has_police_station": true,
    "has_fire_station": false,
    "dist_hospital_km": 0.434,
    "dist_police_km": 0.479,
    "dist_fire_km": 0,
    "emergency_safety_index": 49.46
  },
  {
    "school_index": 259,
    "school_name": "Shree Gujarati Samaj",
    "lat": 22.7556459,
    "lon": 75.8995431,
    "has_hospital": true,
    "has_police_station": true,
    "has_fire_station": false,
    "dist_hospital_km": 0.363,
    "dist_police_km": 0.635,
    "dist_fire_km": 0,
    "emergency_safety_index": 49.0
  },
  {
    "school_index": 260,
    "school_name": "Rotary Paul Harris School",
    "lat": 22.7561643,
    "lon": 75.902876,
    "has_hospital": true,
    "has_police_station": true,
    "has_fire_station": false,
    "dist_hospital_km": 0.114,
    "dist_police_km": 0.939,
    "dist_fire_km": 0,
    "emergency_safety_index": 48.7
  },
  {
    "school_index": 261,
    "school_name": "Satya Sai Vidya Vihar Bal Mandir",
    "lat": 22.756675,
    "lon": 75.9001578,
    "has_hospital": true,
    "has_police_station": true,
    "has_fire_station": false,
    "dist_hospital_km": 0.242,
    "dist_police_km": 0.761,
    "dist_fire_km": 0,
    "emergency_safety_index": 48.97
  },
  {
    "school_index": 262,
    "school_name": "Pioneer Convent",
    "lat": 22.7567418,
    "lon": 75.9143726,
    "has_hospital": true,
    "has_police_station": false,
    "has_fire_station": false,
    "dist_hospital_km": 0.245,
    "dist_police_km": 0.0,
    "dist_fire_km": 0,
    "emergency_safety_index": 18.3
  },
  {
    "school_index": 263,
    "school_name": "Indore Public School Eastern Campus",
    "lat": 22.7505082,
    "lon": 75.9130298,
    "has_hospital": true,
    "has_police_station": true,
    "has_fire_station": false,
    "dist_hospital_km": 0.723,
    "dist_police_km": 1.626,
    "dist_fire_km": 0,
    "emergency_safety_index": 41.65
  },
  {
    "school_index": 264,
    "school_name": "Ishaque Patel Public School",
    "lat": 22.7497955,
    "lon": 75.9170409,
    "has_hospital": true,
    "has_police_station": true,
    "has_fire_station": false,
    "dist_hospital_km": 0.948,
    "dist_police_km": 1.561,
    "dist_fire_km": 0,
    "emergency_safety_index": 40.78
  },
  {
    "school_index": 265,
    "school_name": "Sri Ayappa Public School",
    "lat": 22.7544752,
    "lon": 75.9089963,
    "has_hospital": true,
    "has_police_station": true,
    "has_fire_station": false,
    "dist_hospital_km": 0.264,
    "dist_police_km": 1.454,
    "dist_fire_km": 0,
    "emergency_safety_index": 45.08
  },
  {
    "school_index": 266,
    "school_name": "Bhavans Prominent School",
    "lat": 22.768076,
    "lon": 75.9154343,
    "has_hospital": true,
    "has_police_station": false,
    "has_fire_station": false,
    "dist_hospital_km": 0.991,
    "dist_police_km": 0.0,
    "dist_fire_km": 0,
    "emergency_safety_index": 15.43
  },
  {
    "school_index": 267,
    "school_name": "Christian Eminent Academy",
    "lat": 22.7659429,
    "lon": 75.9153482,
    "has_hospital": true,
    "has_police_station": false,
    "has_fire_station": false,
    "dist_hospital_km": 0.888,
    "dist_police_km": 0.0,
    "dist_fire_km": 0,
    "emergency_safety_index": 15.83
  },
  {
    "school_index": 268,
    "school_name": "Shri Aurobindo Institute Of Medical Science And Dental Clinic",
    "lat": 22.7972551,
    "lon": 75.8440047,
    "has_hospital": true,
    "has_police_station": false,
    "has_fire_station": false,
    "dist_hospital_km": 0.122,
    "dist_police_km": 0.0,
    "dist_fire_km": 0,
    "emergency_safety_index": 18.78
  },
  {
    "school_index": 269,
    "school_name": "Artistic World Academy",
    "lat": 22.7969306,
    "lon": 75.8996708,
    "has_hospital": true,
    "has_police_station": true,
    "has_fire_station": false,
    "dist_hospital_km": 0.872,
    "dist_police_km": 1.425,
    "dist_fire_km": 0,
    "emergency_safety_index": 41.93
  },
  {
    "school_index": 270,
    "school_name": "Agarwal Public School",
    "lat": 22.7023844,
    "lon": 75.9178488,
    "has_hospital": true,
    "has_police_station": true,
    "has_fire_station": false,
    "dist_hospital_km": 0.214,
    "dist_police_km": 1.4,
    "dist_fire_km": 0,
    "emergency_safety_index": 45.65
  },
  {
    "school_index": 271,
    "school_name": "Advanced Academy",
    "lat": 22.7511624,
    "lon": 75.9265726,
    "has_hospital": true,
    "has_police_station": false,
    "has_fire_station": false,
    "dist_hospital_km": 1.19,
    "dist_police_km": 0.0,
    "dist_fire_km": 0,
    "emergency_safety_index": 14.66
  },
  {
    "school_index": 272,
    "school_name": "Bombay Public School",
    "lat": 22.7570178,
    "lon": 75.9198229,
    "has_hospital": true,
    "has_police_station": false,
    "has_fire_station": false,
    "dist_hospital_km": 0.768,
    "dist_police_km": 0.0,
    "dist_fire_km": 0,
    "emergency_safety_index": 16.29
  },
  {
    "school_index": 273,
    "school_name": "Sica Nipania",
    "lat": 22.7557103,
    "lon": 75.9288349,
    "has_hospital": true,
    "has_police_station": false,
    "has_fire_station": false,
    "dist_hospital_km": 0.698,
    "dist_police_km": 0.0,
    "dist_fire_km": 0,
    "emergency_safety_index": 16.56
  },
  {
    "school_index": 274,
    "school_name": "Delhi Public School Indore",
    "lat": 22.7621993,
    "lon": 75.9326846,
    "has_hospital": true,
    "has_police_station": false,
    "has_fire_station": false,
    "dist_hospital_km": 0.546,
    "dist_police_km": 0.0,
    "dist_fire_km": 0,
    "emergency_safety_index": 17.14
  },
  {
    "school_index": 275,
    "school_name": "Malwa Institute Of Technology",
    "lat": 22.758378,
    "lon": 75.9388869,
    "has_hospital": true,
    "has_police_station": false,
    "has_fire_station": false,
    "dist_hospital_km": 1.241,
    "dist_police_km": 0.0,
    "dist_fire_km": 0,
    "emergency_safety_index": 14.47
  },
  {
    "school_index": 276,
    "school_name": "L K Prime Academy School",
    "lat": 22.8179273,
    "lon": 75.9262805,
    "has_hospital": true,
    "has_police_station": false,
    "has_fire_station": false,
    "dist_hospital_km": 0.173,
    "dist_police_km": 0.0,
    "dist_fire_km": 0,
    "emergency_safety_index": 18.58
  },
  {
    "school_index": 277,
    "school_name": "Acropolis Institute Of Technology And Research",
    "lat": 22.8214286,
    "lon": 75.9432118,
    "has_hospital": true,
    "has_police_station": false,
    "has_fire_station": false,
    "dist_hospital_km": 0.186,
    "dist_police_km": 0.0,
    "dist_fire_km": 0,
    "emergency_safety_index": 18.53
  }
]