[
  {
    "school_index": 0,
    "school_name": "Podra Mahakali Vidyalaya",
    "lat": 22.5604779,
    "lon": 88.2687635,
    "has_hospital": true,
    "has_police_station": true,
    "has_fire_station": false,
    "dist_hospital_km": 0.778,
    "dist_police_km": 1.031,
    "dist_fire_km": 0.0,
    "emergency_safety_index": 44.59
  },
  {
    "school_index": 1,
    "school_name": "Purba Barisha High School",
    "lat": 22.4774268,
    "lon": 88.3203914,
    "has_hospital": true,
    "has_police_station": false,
    "has_fire_station": false,
    "dist_hospital_km": 1.363,
    "dist_police_km": 0.0,
    "dist_fire_km": 0.0,
    "emergency_safety_index": 14.0
  },
  {
    "school_index": 2,
    "school_name": "National Gems Higher Secoundry School",
    "lat": 22.492189,
    "lon": 88.3146978,
    "has_hospital": true,
    "has_police_station": true,
    "has_fire_station": false,
    "dist_hospital_km": 0.419,
    "dist_police_km": 1.336,
    "dist_fire_km": 0.0,
    "emergency_safety_index": 44.88
  },
  {
    "school_index": 3,
    "school_name": "Behla Blind School",
    "lat": 22.4911829,
    "lon": 88.3158083,
    "has_hospital": true,
    "has_police_station": true,
    "has_fire_station": false,
    "dist_hospital_km": 0.578,
    "dist_police_km": 1.411,
    "dist_fire_km": 0.0,
    "emergency_safety_index": 43.61
  },
  {
    "school_index": 4,
    "school_name": "Shaw Public Girls High School",
    "lat": 22.492422,
    "lon": 88.313523,
    "has_hospital": true,
    "has_police_station": true,
    "has_fire_station": false,
    "dist_hospital_km": 0.333,
    "dist_police_km": 1.357,
    "dist_fire_km": 0.0,
    "emergency_safety_index": 45.23
  },
  {
    "school_index": 5,
    "school_name": "Mbc Behala College",
    "lat": 22.5079522,
    "lon": 88.3077078,
    "has_hospital": true,
    "has_police_station": true,
    "has_fire_station": false,
    "dist_hospital_km": 0.472,
    "dist_police_km": 0.138,
    "dist_fire_km": 0.0,
    "emergency_safety_index": 51.11
  },
  {
    "school_index": 6,
    "school_name": "Swami Pranabananda School",
    "lat": 22.4856531,
    "lon": 88.3421025,
    "has_hospital": true,
    "has_police_station": false,
    "has_fire_station": false,
    "dist_hospital_km": 0.105,
    "dist_police_km": 0.0,
    "dist_fire_km": 0.0,
    "emergency_safety_index": 18.84
  },
  {
    "school_index": 7,
    "school_name": "Nshm Knowledge Campus",
    "lat": 22.4964795,
    "lon": 88.3387967,
    "has_hospital": true,
    "has_police_station": false,
    "has_fire_station": false,
    "dist_hospital_km": 0.681,
    "dist_police_km": 0.0,
    "dist_fire_km": 0.0,
    "emergency_safety_index": 16.62
  },
  {
    "school_index": 8,
    "school_name": "Southend School",
    "lat": 22.4817158,
    "lon": 88.345584,
    "has_hospital": true,
    "has_police_station": false,
    "has_fire_station": false,
    "dist_hospital_km": 0.548,
    "dist_police_km": 0.0,
    "dist_fire_km": 0.0,
    "emergency_safety_index": 17.14
  },
  {
    "school_index": 9,
    "school_name": "Netaji Nagar College",
    "lat": 22.4819819,
    "lon": 88.3581756,
    "has_hospital": true,
    "has_police_station": false,
    "has_fire_station": false,
    "dist_hospital_km": 0.398,
    "dist_police_km": 0.0,
    "dist_fire_km": 0.0,
    "emergency_safety_index": 17.71
  },
  {
    "school_index": 10,
    "school_name": "Netaji Nagar Women S College",
    "lat": 22.4813535,
    "lon": 88.3598113,
    "has_hospital": true,
    "has_police_station": false,
    "has_fire_station": false,
    "dist_hospital_km": 0.554,
    "dist_police_km": 0.0,
    "dist_fire_km": 0.0,
    "emergency_safety_index": 17.11
  },
  {
    "school_index": 11,
    "school_name": "Dinbandhu Andrews College",
    "lat": 22.4685134,
    "lon": 88.3784471,
    "has_hospital": true,
    "has_police_station": false,
    "has_fire_station": false,
    "dist_hospital_km": 0.098,
    "dist_police_km": 0.0,
    "dist_fire_km": 0.0,
    "emergency_safety_index": 18.87
  },
  {
    "school_index": 12,
    "school_name": "Bd Memorial Primary School",
    "lat": 22.4674766,
    "lon": 88.3778406,
    "has_hospital": true,
    "has_police_station": false,
    "has_fire_station": false,
    "dist_hospital_km": 0.154,
    "dist_police_km": 0.0,
    "dist_fire_km": 0.0,
    "emergency_safety_index": 18.65
  },
  {
    "school_index": 13,
    "school_name": "Sb Girls High School",
    "lat": 22.4647949,
    "lon": 88.3778875,
    "has_hospital": true,
    "has_police_station": false,
    "has_fire_station": false,
    "dist_hospital_km": 0.383,
    "dist_police_km": 0.0,
    "dist_fire_km": 0.0,
    "emergency_safety_index": 17.77
  },
  {
    "school_index": 14,
    "school_name": "Garia Barada Prasad Uchcha Vidyalaya Estd -1919",
    "lat": 22.462766,
    "lon": 88.3807611,
    "has_hospital": true,
    "has_police_station": false,
    "has_fire_station": false,
    "dist_hospital_km": 0.602,
    "dist_police_km": 0.0,
    "dist_fire_km": 0.0,
    "emergency_safety_index": 16.93
  },
  {
    "school_index": 15,
    "school_name": "Kendua Mahendragarh High School",
    "lat": 22.476745,
    "lon": 88.3810173,
    "has_hospital": true,
    "has_police_station": false,
    "has_fire_station": false,
    "dist_hospital_km": 0.597,
    "dist_police_km": 0.0,
    "dist_fire_km": 0.0,
    "emergency_safety_index": 16.95
  },
  {
    "school_index": 16,
    "school_name": "Pluto Play School",
    "lat": 22.4767216,
    "lon": 88.3757992,
    "has_hospital": true,
    "has_police_station": false,
    "has_fire_station": false,
    "dist_hospital_km": 0.276,
    "dist_police_km": 0.0,
    "dist_fire_km": 0.0,
    "emergency_safety_index": 18.18
  },
  {
    "school_index": 17,
    "school_name": "Welland Gouldsmith School",
    "lat": 22.4709812,
    "lon": 88.3847329,
    "has_hospital": true,
    "has_police_station": false,
    "has_fire_station": false,
    "dist_hospital_km": 0.656,
    "dist_police_km": 0.0,
    "dist_fire_km": 0.0,
    "emergency_safety_index": 16.72
  },
  {
    "school_index": 18,
    "school_name": "Iti Tollygunge",
    "lat": 22.4852557,
    "lon": 88.3432922,
    "has_hospital": true,
    "has_police_station": false,
    "has_fire_station": false,
    "dist_hospital_km": 0.202,
    "dist_police_km": 0.0,
    "dist_fire_km": 0.0,
    "emergency_safety_index": 18.47
  },
  {
    "school_index": 19,
    "school_name": "Iti",
    "lat": 22.4852308,
    "lon": 88.3460047,
    "has_hospital": true,
    "has_police_station": false,
    "has_fire_station": false,
    "dist_hospital_km": 0.155,
    "dist_police_km": 0.0,
    "dist_fire_km": 0.0,
    "emergency_safety_index": 18.65
  },
  {
    "school_index": 20,
    "school_name": "South City International School",
    "lat": 22.5002815,
    "lon": 88.3623891,
    "has_hospital": true,
    "has_police_station": true,
    "has_fire_station": true,
    "dist_hospital_km": 0.245,
    "dist_police_km": 0.614,
    "dist_fire_km": 0.138,
    "emergency_safety_index": 93.35
  },
  {
    "school_index": 21,
    "school_name": "Sammilani Mahavidyalaya",
    "lat": 22.4828028,
    "lon": 88.3904786,
    "has_hospital": true,
    "has_police_station": true,
    "has_fire_station": false,
    "dist_hospital_km": 0.231,
    "dist_police_km": 1.8,
    "dist_fire_km": 0.0,
    "emergency_safety_index": 43.38
  },
  {
    "school_index": 22,
    "school_name": "Electrical Engineering Department",
    "lat": 22.4963206,
    "lon": 88.3716345,
    "has_hospital": true,
    "has_police_station": true,
    "has_fire_station": true,
    "dist_hospital_km": 0.312,
    "dist_police_km": 0.822,
    "dist_fire_km": 1.159,
    "emergency_safety_index": 84.71
  },
  {
    "school_index": 23,
    "school_name": "Jadavpur N K Pal Adarsha Sikshayatan",
    "lat": 22.5008535,
    "lon": 88.3739599,
    "has_hospital": true,
    "has_police_station": true,
    "has_fire_station": true,
    "dist_hospital_km": 0.492,
    "dist_police_km": 0.675,
    "dist_fire_km": 1.254,
    "emergency_safety_index": 83.86
  },
  {
    "school_index": 24,
    "school_name": "Adarsha Balika Shikshayatan",
    "lat": 22.500405,
    "lon": 88.3750971,
    "has_hospital": true,
    "has_police_station": true,
    "has_fire_station": true,
    "dist_hospital_km": 0.609,
    "dist_police_km": 0.801,
    "dist_fire_km": 1.374,
    "emergency_safety_index": 81.44
  },
  {
    "school_index": 25,
    "school_name": "Jadavpur Vidyapith",
    "lat": 22.4993295,
    "lon": 88.3699876,
    "has_hospital": true,
    "has_police_station": true,
    "has_fire_station": true,
    "dist_hospital_km": 0.548,
    "dist_police_km": 0.447,
    "dist_fire_km": 0.875,
    "emergency_safety_index": 87.53
  },
  {
    "school_index": 26,
    "school_name": "Shishu Siksha Niketan",
    "lat": 22.4997741,
    "lon": 88.3747787,
    "has_hospital": true,
    "has_police_station": true,
    "has_fire_station": true,
    "dist_hospital_km": 0.638,
    "dist_police_km": 0.797,
    "dist_fire_km": 1.349,
    "emergency_safety_index": 81.44
  },
  {
    "school_index": 27,
    "school_name": "Jadavpur University",
    "lat": 22.4999343,
    "lon": 88.3694627,
    "has_hospital": true,
    "has_police_station": true,
    "has_fire_station": true,
    "dist_hospital_km": 0.494,
    "dist_police_km": 0.362,
    "dist_fire_km": 0.807,
    "emergency_safety_index": 88.91
  },
  {
    "school_index": 28,
    "school_name": "Jadavpur University Gate 3",
    "lat": 22.4981116,
    "lon": 88.3701959,
    "has_hospital": true,
    "has_police_station": true,
    "has_fire_station": true,
    "dist_hospital_km": 0.56,
    "dist_police_km": 0.576,
    "dist_fire_km": 0.939,
    "emergency_safety_index": 86.17
  },
  {
    "school_index": 29,
    "school_name": "Indian Association For The Cultivation Of Science Main Gate Raman Gate",
    "lat": 22.4987002,
    "lon": 88.3698317,
    "has_hospital": true,
    "has_police_station": true,
    "has_fire_station": true,
    "dist_hospital_km": 0.619,
    "dist_police_km": 0.501,
    "dist_fire_km": 0.88,
    "emergency_safety_index": 86.67
  },
  {
    "school_index": 30,
    "school_name": "Rd Memorial School",
    "lat": 22.5032499,
    "lon": 88.3791735,
    "has_hospital": true,
    "has_police_station": true,
    "has_fire_station": true,
    "dist_hospital_km": 0.864,
    "dist_police_km": 1.177,
    "dist_fire_km": 1.8,
    "emergency_safety_index": 74.39
  },
  {
    "school_index": 31,
    "school_name": "Punjab National Bank Staff Training College",
    "lat": 22.5184735,
    "lon": 88.3295309,
    "has_hospital": true,
    "has_police_station": true,
    "has_fire_station": true,
    "dist_hospital_km": 0.704,
    "dist_police_km": 1.475,
    "dist_fire_km": 1.546,
    "emergency_safety_index": 75.17
  },
  {
    "school_index": 32,
    "school_name": "Birla Academy Of Fine Arts",
    "lat": 22.5135726,
    "lon": 88.3554184,
    "has_hospital": true,
    "has_police_station": true,
    "has_fire_station": true,
    "dist_hospital_km": 0.284,
    "dist_police_km": 1.265,
    "dist_fire_km": 1.505,
    "emergency_safety_index": 79.64
  },
  {
    "school_index": 33,
    "school_name": "Basanti Devi College",
    "lat": 22.5192066,
    "lon": 88.3621536,
    "has_hospital": true,
    "has_police_station": true,
    "has_fire_station": true,
    "dist_hospital_km": 0.314,
    "dist_police_km": 0.332,
    "dist_fire_km": 1.954,
    "emergency_safety_index": 82.67
  },
  {
    "school_index": 34,
    "school_name": "Nava Nalanda High School",
    "lat": 22.5165758,
    "lon": 88.3647526,
    "has_hospital": true,
    "has_police_station": true,
    "has_fire_station": true,
    "dist_hospital_km": 0.428,
    "dist_police_km": 0.498,
    "dist_fire_km": 1.718,
    "emergency_safety_index": 82.37
  },
  {
    "school_index": 35,
    "school_name": "The New Horizon High School",
    "lat": 22.525445,
    "lon": 88.3476941,
    "has_hospital": true,
    "has_police_station": true,
    "has_fire_station": true,
    "dist_hospital_km": 0.089,
    "dist_police_km": 0.22,
    "dist_fire_km": 0.479,
    "emergency_safety_index": 94.75
  },
  {
    "school_index": 36,
    "school_name": "Asutosh College",
    "lat": 22.5254231,
    "lon": 88.3461958,
    "has_hospital": true,
    "has_police_station": true,
    "has_fire_station": true,
    "dist_hospital_km": 0.049,
    "dist_police_km": 0.137,
    "dist_fire_km": 0.353,
    "emergency_safety_index": 96.41
  },
  {
    "school_index": 37,
    "school_name": "College Ground",
    "lat": 22.5249434,
    "lon": 88.3686451,
    "has_hospital": true,
    "has_police_station": true,
    "has_fire_station": false,
    "dist_hospital_km": 0.318,
    "dist_police_km": 0.593,
    "dist_fire_km": 0.0,
    "emergency_safety_index": 49.47
  },
  {
    "school_index": 38,
    "school_name": "University Of Calcutta Ballygunge Science College Campus",
    "lat": 22.5266958,
    "lon": 88.362622,
    "has_hospital": true,
    "has_police_station": true,
    "has_fire_station": true,
    "dist_hospital_km": 0.207,
    "dist_police_km": 0.662,
    "dist_fire_km": 1.985,
    "emergency_safety_index": 80.97
  },
  {
    "school_index": 39,
    "school_name": "Gariahat Iti College",
    "lat": 22.5252008,
    "lon": 88.3660431,
    "has_hospital": true,
    "has_police_station": true,
    "has_fire_station": false,
    "dist_hospital_km": 0.216,
    "dist_police_km": 0.482,
    "dist_fire_km": 0.0,
    "emergency_safety_index": 50.63
  },
  {
    "school_index": 40,
    "school_name": "M G Rungta Academy",
    "lat": 22.5270866,
    "lon": 88.3658586,
    "has_hospital": true,
    "has_police_station": true,
    "has_fire_station": false,
    "dist_hospital_km": 0.278,
    "dist_police_km": 0.681,
    "dist_fire_km": 0.0,
    "emergency_safety_index": 49.21
  },
  {
    "school_index": 41,
    "school_name": "Patha Bhavan High School",
    "lat": 22.5287655,
    "lon": 88.3683953,
    "has_hospital": true,
    "has_police_station": true,
    "has_fire_station": false,
    "dist_hospital_km": 0.108,
    "dist_police_km": 0.938,
    "dist_fire_km": 0.0,
    "emergency_safety_index": 48.74
  },
  {
    "school_index": 42,
    "school_name": "Silver Point School",
    "lat": 22.5144727,
    "lon": 88.3802091,
    "has_hospital": true,
    "has_police_station": true,
    "has_fire_station": false,
    "dist_hospital_km": 0.801,
    "dist_police_km": 1.754,
    "dist_fire_km": 0.0,
    "emergency_safety_index": 40.53
  },
  {
    "school_index": 43,
    "school_name": "Patha Bhavan Higher Secondary School",
    "lat": 22.5251285,
    "lon": 88.3690927,
    "has_hospital": true,
    "has_police_station": true,
    "has_fire_station": false,
    "dist_hospital_km": 0.304,
    "dist_police_km": 0.64,
    "dist_fire_km": 0.0,
    "emergency_safety_index": 49.29
  },
  {
    "school_index": 44,
    "school_name": "Ballygunge Vidyalaya & Silpa Sikshayatana",
    "lat": 22.5276908,
    "lon": 88.3696565,
    "has_hospital": true,
    "has_police_station": true,
    "has_fire_station": false,
    "dist_hospital_km": 0.124,
    "dist_police_km": 0.897,
    "dist_fire_km": 0.0,
    "emergency_safety_index": 48.88
  },
  {
    "school_index": 45,
    "school_name": "Academy Of Finr Arts",
    "lat": 22.5445584,
    "lon": 88.3457358,
    "has_hospital": true,
    "has_police_station": true,
    "has_fire_station": true,
    "dist_hospital_km": 0.618,
    "dist_police_km": 0.308,
    "dist_fire_km": 1.755,
    "emergency_safety_index": 82.13
  },
  {
    "school_index": 46,
    "school_name": "Jewish Girls' School",
    "lat": 22.5528356,
    "lon": 88.3545701,
    "has_hospital": true,
    "has_police_station": true,
    "has_fire_station": true,
    "dist_hospital_km": 0.053,
    "dist_police_km": 0.232,
    "dist_fire_km": 0.563,
    "emergency_safety_index": 94.35
  },
  {
    "school_index": 47,
    "school_name": "Loreto School",
    "lat": 22.5496347,
    "lon": 88.3526693,
    "has_hospital": true,
    "has_police_station": true,
    "has_fire_station": true,
    "dist_hospital_km": 0.262,
    "dist_police_km": 0.443,
    "dist_fire_km": 0.946,
    "emergency_safety_index": 88.99
  },
  {
    "school_index": 48,
    "school_name": "St Augustine'S Day School",
    "lat": 22.5525146,
    "lon": 88.3621813,
    "has_hospital": true,
    "has_police_station": true,
    "has_fire_station": true,
    "dist_hospital_km": 0.124,
    "dist_police_km": 0.601,
    "dist_fire_km": 0.96,
    "emergency_safety_index": 88.77
  },
  {
    "school_index": 49,
    "school_name": "The Assembly Of God Church School Senior Section Park Street",
    "lat": 22.5477035,
    "lon": 88.3608192,
    "has_hospital": true,
    "has_police_station": true,
    "has_fire_station": true,
    "dist_hospital_km": 0.061,
    "dist_police_km": 0.629,
    "dist_fire_km": 1.287,
    "emergency_safety_index": 86.82
  },
  {
    "school_index": 50,
    "school_name": "Loreto Convent",
    "lat": 22.5595068,
    "lon": 88.3728451,
    "has_hospital": true,
    "has_police_station": true,
    "has_fire_station": true,
    "dist_hospital_km": 0.251,
    "dist_police_km": 1.108,
    "dist_fire_km": 1.855,
    "emergency_safety_index": 78.57
  },
  {
    "school_index": 51,
    "school_name": "Biswabani School",
    "lat": 22.4590976,
    "lon": 88.4176778,
    "has_hospital": true,
    "has_police_station": false,
    "has_fire_station": false,
    "dist_hospital_km": 1.485,
    "dist_police_km": 0.0,
    "dist_fire_km": 0.0,
    "emergency_safety_index": 13.53
  },
  {
    "school_index": 52,
    "school_name": "Bengal Institute Of Technology Main Building",
    "lat": 22.5214219,
    "lon": 88.4607592,
    "has_hospital": false,
    "has_police_station": false,
    "has_fire_station": false,
    "dist_hospital_km": 0.0,
    "dist_police_km": 0.0,
    "dist_fire_km": 0.0,
    "emergency_safety_index": 0.0
  },
  {
    "school_index": 53,
    "school_name": "Bengal Institute Of Technology",
    "lat": 22.5239376,
    "lon": 88.4522772,
    "has_hospital": false,
    "has_police_station": false,
    "has_fire_station": false,
    "dist_hospital_km": 0.0,
    "dist_police_km": 0.0,
    "dist_fire_km": 0.0,
    "emergency_safety_index": 0.0
  },
  {
    "school_index": 54,
    "school_name": "Loreto Girls School Sealdah",
    "lat": 22.5645214,
    "lon": 88.3681468,
    "has_hospital": true,
    "has_police_station": true,
    "has_fire_station": true,
    "dist_hospital_km": 0.056,
    "dist_police_km": 0.374,
    "dist_fire_km": 1.55,
    "emergency_safety_index": 86.8
  },
  {
    "school_index": 55,
    "school_name": "Md Jan Higher Secondary School",
    "lat": 22.5767656,
    "lon": 88.3572206,
    "has_hospital": true,
    "has_police_station": true,
    "has_fire_station": true,
    "dist_hospital_km": 0.532,
    "dist_police_km": 0.471,
    "dist_fire_km": 0.37,
    "emergency_safety_index": 90.85
  },
  {
    "school_index": 56,
    "school_name": "Shree Vishudhanand Saraswati Vidyalay School",
    "lat": 22.5800786,
    "lon": 88.3616203,
    "has_hospital": true,
    "has_police_station": true,
    "has_fire_station": true,
    "dist_hospital_km": 0.415,
    "dist_police_km": 0.727,
    "dist_fire_km": 0.269,
    "emergency_safety_index": 90.59
  },
  {
    "school_index": 57,
    "school_name": "Pw Govt Exam Wallah Kolkata",
    "lat": 22.5660376,
    "lon": 88.369557,
    "has_hospital": true,
    "has_police_station": true,
    "has_fire_station": true,
    "dist_hospital_km": 0.092,
    "dist_police_km": 0.438,
    "dist_fire_km": 1.601,
    "emergency_safety_index": 85.79
  },
  {
    "school_index": 58,
    "school_name": "Beleghata Deshabandhu High School Main",
    "lat": 22.5654556,
    "lon": 88.390612,
    "has_hospital": true,
    "has_police_station": true,
    "has_fire_station": false,
    "dist_hospital_km": 0.239,
    "dist_police_km": 0.576,
    "dist_fire_km": 0.0,
    "emergency_safety_index": 50.0
  },
  {
    "school_index": 59,
    "school_name": "Govt College Of Engineering And Ceramic Technology",
    "lat": 22.5651086,
    "lon": 88.3915078,
    "has_hospital": true,
    "has_police_station": true,
    "has_fire_station": false,
    "dist_hospital_km": 0.183,
    "dist_police_km": 0.479,
    "dist_fire_km": 0.0,
    "emergency_safety_index": 50.83
  },
  {
    "school_index": 60,
    "school_name": "Gurudas College",
    "lat": 22.571096,
    "lon": 88.39035,
    "has_hospital": true,
    "has_police_station": true,
    "has_fire_station": false,
    "dist_hospital_km": 0.351,
    "dist_police_km": 0.509,
    "dist_fire_km": 0.0,
    "emergency_safety_index": 49.75
  },
  {
    "school_index": 61,
    "school_name": "Bose Institute",
    "lat": 22.5796076,
    "lon": 88.3738294,
    "has_hospital": true,
    "has_police_station": true,
    "has_fire_station": true,
    "dist_hospital_km": 0.165,
    "dist_police_km": 0.725,
    "dist_fire_km": 1.37,
    "emergency_safety_index": 84.93
  },
  {
    "school_index": 62,
    "school_name": "Deshabandhu Vidyapith",
    "lat": 22.5790125,
    "lon": 88.3825458,
    "has_hospital": true,
    "has_police_station": true,
    "has_fire_station": false,
    "dist_hospital_km": 0.603,
    "dist_police_km": 0.683,
    "dist_fire_km": 0.0,
    "emergency_safety_index": 47.43
  },
  {
    "school_index": 63,
    "school_name": "Purwanchal Vidyamandir",
    "lat": 22.5821847,
    "lon": 88.3883287,
    "has_hospital": true,
    "has_police_station": true,
    "has_fire_station": false,
    "dist_hospital_km": 0.157,
    "dist_police_km": 0.789,
    "dist_fire_km": 0.0,
    "emergency_safety_index": 49.28
  },
  {
    "school_index": 64,
    "school_name": "Bose Institute Research",
    "lat": 22.5865323,
    "lon": 88.3935458,
    "has_hospital": true,
    "has_police_station": true,
    "has_fire_station": false,
    "dist_hospital_km": 0.148,
    "dist_police_km": 0.356,
    "dist_fire_km": 0.0,
    "emergency_safety_index": 51.69
  },
  {
    "school_index": 65,
    "school_name": "Arth Early Learning Spaces",
    "lat": 22.5868787,
    "lon": 88.3942299,
    "has_hospital": true,
    "has_police_station": true,
    "has_fire_station": false,
    "dist_hospital_km": 0.211,
    "dist_police_km": 0.293,
    "dist_fire_km": 0.0,
    "emergency_safety_index": 51.69
  },
  {
    "school_index": 66,
    "school_name": "Scc - Main Building",
    "lat": 22.5882035,
    "lon": 88.369913,
    "has_hospital": true,
    "has_police_station": true,
    "has_fire_station": true,
    "dist_hospital_km": 0.64,
    "dist_police_km": 0.496,
    "dist_fire_km": 1.496,
    "emergency_safety_index": 82.45
  },
  {
    "school_index": 67,
    "school_name": "Holy Child School",
    "lat": 22.5882004,
    "lon": 88.3707472,
    "has_hospital": true,
    "has_police_station": true,
    "has_fire_station": true,
    "dist_hospital_km": 0.68,
    "dist_police_km": 0.481,
    "dist_fire_km": 1.552,
    "emergency_safety_index": 81.91
  },
  {
    "school_index": 68,
    "school_name": "Duff Building",
    "lat": 22.5877685,
    "lon": 88.370191,
    "has_hospital": true,
    "has_police_station": true,
    "has_fire_station": true,
    "dist_hospital_km": 0.682,
    "dist_police_km": 0.536,
    "dist_fire_km": 1.478,
    "emergency_safety_index": 82.03
  },
  {
    "school_index": 69,
    "school_name": "Sarada Prasad Institution For Boys",
    "lat": 22.5932305,
    "lon": 88.3873714,
    "has_hospital": true,
    "has_police_station": true,
    "has_fire_station": false,
    "dist_hospital_km": 0.676,
    "dist_police_km": 0.615,
    "dist_fire_km": 0.0,
    "emergency_safety_index": 47.41
  },
  {
    "school_index": 70,
    "school_name": "Belgachia Muslim High School",
    "lat": 22.6023121,
    "lon": 88.3845292,
    "has_hospital": true,
    "has_police_station": true,
    "has_fire_station": false,
    "dist_hospital_km": 0.673,
    "dist_police_km": 0.633,
    "dist_fire_km": 0.0,
    "emergency_safety_index": 47.32
  },
  {
    "school_index": 71,
    "school_name": "Belgachia Urdu High School Co-Ed",
    "lat": 22.6032143,
    "lon": 88.3839619,
    "has_hospital": true,
    "has_police_station": true,
    "has_fire_station": false,
    "dist_hospital_km": 0.588,
    "dist_police_km": 0.517,
    "dist_fire_km": 0.0,
    "emergency_safety_index": 48.42
  },
  {
    "school_index": 72,
    "school_name": "Iqra Assembly School",
    "lat": 22.6051625,
    "lon": 88.384768,
    "has_hospital": true,
    "has_police_station": true,
    "has_fire_station": false,
    "dist_hospital_km": 0.661,
    "dist_police_km": 0.394,
    "dist_fire_km": 0.0,
    "emergency_safety_index": 48.69
  },
  {
    "school_index": 73,
    "school_name": "Blue Bell Day School",
    "lat": 22.6049719,
    "lon": 88.3864773,
    "has_hospital": true,
    "has_police_station": true,
    "has_fire_station": false,
    "dist_hospital_km": 0.833,
    "dist_police_km": 0.552,
    "dist_fire_km": 0.0,
    "emergency_safety_index": 46.89
  },
  {
    "school_index": 74,
    "school_name": "Kona High School",
    "lat": 22.6166525,
    "lon": 88.3046618,
    "has_hospital": true,
    "has_police_station": false,
    "has_fire_station": false,
    "dist_hospital_km": 0.531,
    "dist_police_km": 0.0,
    "dist_fire_km": 0.0,
    "emergency_safety_index": 17.2
  },
  {
    "school_index": 75,
    "school_name": "Taradevi Harak Chand Kankaria Jain College",
    "lat": 22.6177315,
    "lon": 88.3693513,
    "has_hospital": true,
    "has_police_station": true,
    "has_fire_station": false,
    "dist_hospital_km": 0.105,
    "dist_police_km": 1.606,
    "dist_fire_km": 0.0,
    "emergency_safety_index": 45.12
  },
  {
    "school_index": 76,
    "school_name": "Prachya Bani Mondir For Boys",
    "lat": 22.6158823,
    "lon": 88.3940806,
    "has_hospital": true,
    "has_police_station": true,
    "has_fire_station": false,
    "dist_hospital_km": 1.43,
    "dist_police_km": 0.844,
    "dist_fire_km": 0.0,
    "emergency_safety_index": 42.06
  },
  {
    "school_index": 77,
    "school_name": "St Francis Xavier School",
    "lat": 22.5729189,
    "lon": 88.4062786,
    "has_hospital": true,
    "has_police_station": true,
    "has_fire_station": false,
    "dist_hospital_km": 0.289,
    "dist_police_km": 0.819,
    "dist_fire_km": 0.0,
    "emergency_safety_index": 48.4
  },
  {
    "school_index": 78,
    "school_name": "National Institute Of Fashion Technology",
    "lat": 22.5621178,
    "lon": 88.4100264,
    "has_hospital": true,
    "has_police_station": true,
    "has_fire_station": false,
    "dist_hospital_km": 0.996,
    "dist_police_km": 0.969,
    "dist_fire_km": 0.0,
    "emergency_safety_index": 43.74
  },
  {
    "school_index": 79,
    "school_name": "Maulana Abul Kalam Azad Institute Of Asian Studies",
    "lat": 22.5708108,
    "lon": 88.4136384,
    "has_hospital": true,
    "has_police_station": true,
    "has_fire_station": true,
    "dist_hospital_km": 0.19,
    "dist_police_km": 0.072,
    "dist_fire_km": 1.984,
    "emergency_safety_index": 85.03
  },
  {
    "school_index": 80,
    "school_name": "Bidhannagar College",
    "lat": 22.5844913,
    "lon": 88.4053353,
    "has_hospital": true,
    "has_police_station": true,
    "has_fire_station": false,
    "dist_hospital_km": 0.681,
    "dist_police_km": 1.184,
    "dist_fire_km": 0.0,
    "emergency_safety_index": 44.28
  },
  {
    "school_index": 81,
    "school_name": "St Joan'S School",
    "lat": 22.5764032,
    "lon": 88.4166053,
    "has_hospital": true,
    "has_police_station": true,
    "has_fire_station": true,
    "dist_hospital_km": 0.139,
    "dist_police_km": 0.757,
    "dist_fire_km": 1.897,
    "emergency_safety_index": 81.38
  },
  {
    "school_index": 82,
    "school_name": "Institute Of Engeneering & Management Business School Ashram Campus",
    "lat": 22.5697093,
    "lon": 88.4294563,
    "has_hospital": true,
    "has_police_station": true,
    "has_fire_station": true,
    "dist_hospital_km": 0.977,
    "dist_police_km": 0.787,
    "dist_fire_km": 0.383,
    "emergency_safety_index": 85.69
  },
  {
    "school_index": 83,
    "school_name": "Globsyn Business School",
    "lat": 22.5715496,
    "lon": 88.4335976,
    "has_hospital": true,
    "has_police_station": true,
    "has_fire_station": true,
    "dist_hospital_km": 0.677,
    "dist_police_km": 0.696,
    "dist_fire_km": 0.398,
    "emergency_safety_index": 88.19
  },
  {
    "school_index": 84,
    "school_name": "B P Poddar Institute Of Management & Technology",
    "lat": 22.5737004,
    "lon": 88.4315782,
    "has_hospital": true,
    "has_police_station": true,
    "has_fire_station": true,
    "dist_hospital_km": 0.483,
    "dist_police_km": 0.385,
    "dist_fire_km": 0.638,
    "emergency_safety_index": 89.96
  },
  {
    "school_index": 85,
    "school_name": "Chandigarh University",
    "lat": 22.5710621,
    "lon": 88.4325951,
    "has_hospital": true,
    "has_police_station": true,
    "has_fire_station": true,
    "dist_hospital_km": 0.738,
    "dist_police_km": 0.694,
    "dist_fire_km": 0.334,
    "emergency_safety_index": 88.23
  },
  {
    "school_index": 86,
    "school_name": "Iemlabs - Cyber Security & Ethical Hacking Course In Kolkata",
    "lat": 22.5727319,
    "lon": 88.4339162,
    "has_hospital": true,
    "has_police_station": true,
    "has_fire_station": true,
    "dist_hospital_km": 0.547,
    "dist_police_km": 0.612,
    "dist_fire_km": 0.534,
    "emergency_safety_index": 88.71
  },
  {
    "school_index": 87,
    "school_name": "International Institute Of Photography",
    "lat": 22.5727572,
    "lon": 88.4371412,
    "has_hospital": true,
    "has_police_station": true,
    "has_fire_station": true,
    "dist_hospital_km": 0.655,
    "dist_police_km": 0.87,
    "dist_fire_km": 0.692,
    "emergency_safety_index": 85.22
  },
  {
    "school_index": 88,
    "school_name": "International Institute Of Hotel Management",
    "lat": 22.5713652,
    "lon": 88.4344348,
    "has_hospital": true,
    "has_police_station": true,
    "has_fire_station": true,
    "dist_hospital_km": 0.703,
    "dist_police_km": 0.763,
    "dist_fire_km": 0.407,
    "emergency_safety_index": 87.51
  },
  {
    "school_index": 89,
    "school_name": "Webel- Acharya Academy Of Advanced Animation",
    "lat": 22.5696029,
    "lon": 88.4363951,
    "has_hospital": true,
    "has_police_station": true,
    "has_fire_station": true,
    "dist_hospital_km": 0.939,
    "dist_police_km": 1.042,
    "dist_fire_km": 0.414,
    "emergency_safety_index": 84.03
  },
  {
    "school_index": 90,
    "school_name": "Techno Main Salt Lake",
    "lat": 22.5761897,
    "lon": 88.4271249,
    "has_hospital": true,
    "has_police_station": true,
    "has_fire_station": true,
    "dist_hospital_km": 0.68,
    "dist_police_km": 0.29,
    "dist_fire_km": 1.071,
    "emergency_safety_index": 86.39
  },
  {
    "school_index": 91,
    "school_name": "Nitttr Residential Campus",
    "lat": 22.5768784,
    "lon": 88.4302855,
    "has_hospital": true,
    "has_police_station": true,
    "has_fire_station": true,
    "dist_hospital_km": 0.347,
    "dist_police_km": 0.044,
    "dist_fire_km": 1.012,
    "emergency_safety_index": 90.65
  },
  {
    "school_index": 92,
    "school_name": "Aliah University",
    "lat": 22.576544,
    "lon": 88.432737,
    "has_hospital": true,
    "has_police_station": true,
    "has_fire_station": true,
    "dist_hospital_km": 0.148,
    "dist_police_km": 0.295,
    "dist_fire_km": 0.943,
    "emergency_safety_index": 90.76
  },
  {
    "school_index": 93,
    "school_name": "Techno India University",
    "lat": 22.5760302,
    "lon": 88.4284409,
    "has_hospital": true,
    "has_police_station": true,
    "has_fire_station": true,
    "dist_hospital_km": 0.555,
    "dist_police_km": 0.169,
    "dist_fire_km": 0.99,
    "emergency_safety_index": 88.57
  },
  {
    "school_index": 94,
    "school_name": "Bng Hotel Management Institute",
    "lat": 22.5852933,
    "lon": 88.4399992,
    "has_hospital": true,
    "has_police_station": true,
    "has_fire_station": false,
    "dist_hospital_km": 0.372,
    "dist_police_km": 1.346,
    "dist_fire_km": 0.0,
    "emergency_safety_index": 45.08
  },
  {
    "school_index": 95,
    "school_name": "Satyapriya Roy College Of Education",
    "lat": 22.5908254,
    "lon": 88.3970721,
    "has_hospital": true,
    "has_police_station": true,
    "has_fire_station": false,
    "dist_hospital_km": 0.32,
    "dist_police_km": 0.258,
    "dist_fire_km": 0.0,
    "emergency_safety_index": 51.29
  },
  {
    "school_index": 96,
    "school_name": "Salt Lake Indira Gandhi Girls Sr Secondary School",
    "lat": 22.5933449,
    "lon": 88.3980933,
    "has_hospital": true,
    "has_police_station": true,
    "has_fire_station": false,
    "dist_hospital_km": 0.514,
    "dist_police_km": 0.536,
    "dist_fire_km": 0.0,
    "emergency_safety_index": 48.72
  },
  {
    "school_index": 97,
    "school_name": "Kidzee School",
    "lat": 22.598141,
    "lon": 88.4059939,
    "has_hospital": true,
    "has_police_station": true,
    "has_fire_station": false,
    "dist_hospital_km": 0.388,
    "dist_police_km": 1.417,
    "dist_fire_km": 0.0,
    "emergency_safety_index": 44.61
  },
  {
    "school_index": 98,
    "school_name": "Aliah University",
    "lat": 22.5918761,
    "lon": 88.4127596,
    "has_hospital": true,
    "has_police_station": true,
    "has_fire_station": false,
    "dist_hospital_km": 0.112,
    "dist_police_km": 0.531,
    "dist_fire_km": 0.0,
    "emergency_safety_index": 50.93
  },
  {
    "school_index": 99,
    "school_name": "Salt Lake Collegiate School",
    "lat": 22.5916061,
    "lon": 88.4095866,
    "has_hospital": true,
    "has_police_station": true,
    "has_fire_station": false,
    "dist_hospital_km": 0.128,
    "dist_police_km": 0.857,
    "dist_fire_km": 0.0,
    "emergency_safety_index": 49.07
  },
  {
    "school_index": 100,
    "school_name": "Maulana Abul Kalam Azad University Of Technology",
    "lat": 22.5964916,
    "lon": 88.4174395,
    "has_hospital": true,
    "has_police_station": true,
    "has_fire_station": false,
    "dist_hospital_km": 0.811,
    "dist_police_km": 0.529,
    "dist_fire_km": 0.0,
    "emergency_safety_index": 47.14
  },
  {
    "school_index": 101,
    "school_name": "Prafulla Kanan Deshapriya Balika Vidyamandir",
    "lat": 22.6033465,
    "lon": 88.4243044,
    "has_hospital": true,
    "has_police_station": true,
    "has_fire_station": false,
    "dist_hospital_km": 1.168,
    "dist_police_km": 1.446,
    "dist_fire_km": 0.0,
    "emergency_safety_index": 40.2
  },
  {
    "school_index": 102,
    "school_name": "Calcutta Public School",
    "lat": 22.6121777,
    "lon": 88.4293256,
    "has_hospital": true,
    "has_police_station": true,
    "has_fire_station": false,
    "dist_hospital_km": 0.06,
    "dist_police_km": 0.996,
    "dist_fire_km": 0.0,
    "emergency_safety_index": 48.68
  },
  {
    "school_index": 103,
    "school_name": "Sarada Vidyapith",
    "lat": 22.6132622,
    "lon": 88.4064108,
    "has_hospital": true,
    "has_police_station": true,
    "has_fire_station": false,
    "dist_hospital_km": 0.619,
    "dist_police_km": 1.074,
    "dist_fire_km": 0.0,
    "emergency_safety_index": 45.22
  },
  {
    "school_index": 104,
    "school_name": "Mohiary Kundu Chaudhury Institution",
    "lat": 22.5864133,
    "lon": 88.2370684,
    "has_hospital": true,
    "has_police_station": false,
    "has_fire_station": false,
    "dist_hospital_km": 0.487,
    "dist_police_km": 0.0,
    "dist_fire_km": 0.0,
    "emergency_safety_index": 17.37
  },
  {
    "school_index": 105,
    "school_name": "Podra G S F P School",
    "lat": 22.5678748,
    "lon": 88.2704455,
    "has_hospital": true,
    "has_police_station": true,
    "has_fire_station": false,
    "dist_hospital_km": 0.063,
    "dist_police_km": 1.743,
    "dist_fire_km": 0.0,
    "emergency_safety_index": 44.6
  },
  {
    "school_index": 106,
    "school_name": "Kendra Vidalaya School",
    "lat": 22.5927764,
    "lon": 88.2847964,
    "has_hospital": true,
    "has_police_station": false,
    "has_fire_station": false,
    "dist_hospital_km": 1.259,
    "dist_police_km": 0.0,
    "dist_fire_km": 0.0,
    "emergency_safety_index": 14.4
  },
  {
    "school_index": 107,
    "school_name": "Barisha Sashibhusan Janakalyan Vidyapith",
    "lat": 22.4851878,
    "lon": 88.3126908,
    "has_hospital": true,
    "has_police_station": false,
    "has_fire_station": false,
    "dist_hospital_km": 1.108,
    "dist_police_km": 0.0,
    "dist_fire_km": 0.0,
    "emergency_safety_index": 14.98
  },
  {
    "school_index": 108,
    "school_name": "Behala Blind School",
    "lat": 22.4907019,
    "lon": 88.3157229,
    "has_hospital": true,
    "has_police_station": true,
    "has_fire_station": false,
    "dist_hospital_km": 0.614,
    "dist_police_km": 1.466,
    "dist_fire_km": 0.0,
    "emergency_safety_index": 43.11
  },
  {
    "school_index": 109,
    "school_name": "Mp Birla Foundation Higher Secondary School",
    "lat": 22.4931257,
    "lon": 88.3196376,
    "has_hospital": true,
    "has_police_station": true,
    "has_fire_station": false,
    "dist_hospital_km": 0.708,
    "dist_police_km": 1.159,
    "dist_fire_km": 0.0,
    "emergency_safety_index": 44.27
  },
  {
    "school_index": 110,
    "school_name": "National Gems Higher Secondary School",
    "lat": 22.4915223,
    "lon": 88.3180474,
    "has_hospital": true,
    "has_police_station": true,
    "has_fire_station": false,
    "dist_hospital_km": 0.726,
    "dist_police_km": 1.339,
    "dist_fire_km": 0.0,
    "emergency_safety_index": 43.19
  },
  {
    "school_index": 111,
    "school_name": "Shri Ritam Vidyapith Building",
    "lat": 22.4874263,
    "lon": 88.3353554,
    "has_hospital": true,
    "has_police_station": false,
    "has_fire_station": false,
    "dist_hospital_km": 0.684,
    "dist_police_km": 0.0,
    "dist_fire_km": 0.0,
    "emergency_safety_index": 16.61
  },
  {
    "school_index": 112,
    "school_name": "Calcutta Institute Of Engineering And Management",
    "lat": 22.4847114,
    "lon": 88.3444252,
    "has_hospital": true,
    "has_police_station": false,
    "has_fire_station": false,
    "dist_hospital_km": 0.271,
    "dist_police_km": 0.0,
    "dist_fire_km": 0.0,
    "emergency_safety_index": 18.2
  },
  {
    "school_index": 113,
    "school_name": "Niva Ananda Vidyalaya",
    "lat": 22.4617536,
    "lon": 88.3651876,
    "has_hospital": true,
    "has_police_station": false,
    "has_fire_station": false,
    "dist_hospital_km": 1.099,
    "dist_police_km": 0.0,
    "dist_fire_km": 0.0,
    "emergency_safety_index": 15.01
  },
  {
    "school_index": 114,
    "school_name": "National Instute Of Research On Jute And Allied Fibre Technology",
    "lat": 22.4807172,
    "lon": 88.3529627,
    "has_hospital": true,
    "has_police_station": false,
    "has_fire_station": false,
    "dist_hospital_km": 0.18,
    "dist_police_km": 0.0,
    "dist_fire_km": 0.0,
    "emergency_safety_index": 18.55
  },
  {
    "school_index": 115,
    "school_name": "Montclair School",
    "lat": 22.4925435,
    "lon": 88.3461187,
    "has_hospital": true,
    "has_police_station": false,
    "has_fire_station": true,
    "dist_hospital_km": 0.658,
    "dist_police_km": 0.0,
    "dist_fire_km": 1.884,
    "emergency_safety_index": 40.6
  },
  {
    "school_index": 116,
    "school_name": "Itc Sangeet Research Academy",
    "lat": 22.4917206,
    "lon": 88.3454058,
    "has_hospital": true,
    "has_police_station": false,
    "has_fire_station": true,
    "dist_hospital_km": 0.57,
    "dist_police_km": 0.0,
    "dist_fire_km": 1.994,
    "emergency_safety_index": 40.48
  },
  {
    "school_index": 117,
    "school_name": "Bijoygarh Girls School",
    "lat": 22.4878621,
    "lon": 88.3618408,
    "has_hospital": true,
    "has_police_station": true,
    "has_fire_station": true,
    "dist_hospital_km": 0.266,
    "dist_police_km": 1.764,
    "dist_fire_km": 1.503,
    "emergency_safety_index": 76.45
  },
  {
    "school_index": 118,
    "school_name": "Gandhi Colony High School",
    "lat": 22.4850526,
    "lon": 88.3583629,
    "has_hospital": true,
    "has_police_station": false,
    "has_fire_station": true,
    "dist_hospital_km": 0.539,
    "dist_police_km": 0.0,
    "dist_fire_km": 1.848,
    "emergency_safety_index": 41.44
  },
  {
    "school_index": 119,
    "school_name": "Bijoygarh College",
    "lat": 22.4883712,
    "lon": 88.36205,
    "has_hospital": true,
    "has_police_station": true,
    "has_fire_station": true,
    "dist_hospital_km": 0.259,
    "dist_police_km": 1.704,
    "dist_fire_km": 1.446,
    "emergency_safety_index": 77.27
  },
  {
    "school_index": 120,
    "school_name": "Jadavpur Girls High School",
    "lat": 22.4976422,
    "lon": 88.3647615,
    "has_hospital": true,
    "has_police_station": true,
    "has_fire_station": true,
    "dist_hospital_km": 0.613,
    "dist_police_km": 0.646,
    "dist_fire_km": 0.517,
    "emergency_safety_index": 88.16
  },
  {
    "school_index": 121,
    "school_name": "Womens Polytechnic",
    "lat": 22.5075542,
    "lon": 88.3660817,
    "has_hospital": true,
    "has_police_station": true,
    "has_fire_station": true,
    "dist_hospital_km": 0.133,
    "dist_police_km": 0.558,
    "dist_fire_km": 0.818,
    "emergency_safety_index": 89.94
  },
  {
    "school_index": 122,
    "school_name": "Jodhpur Park Girls High School",
    "lat": 22.5072095,
    "lon": 88.3666061,
    "has_hospital": true,
    "has_police_station": true,
    "has_fire_station": true,
    "dist_hospital_km": 0.176,
    "dist_police_km": 0.507,
    "dist_fire_km": 0.817,
    "emergency_safety_index": 90.0
  },
  {
    "school_index": 123,
    "school_name": "Jodhpur Park Boys School",
    "lat": 22.5049143,
    "lon": 88.3649173,
    "has_hospital": true,
    "has_police_station": true,
    "has_fire_station": true,
    "dist_hospital_km": 0.192,
    "dist_police_km": 0.375,
    "dist_fire_km": 0.51,
    "emergency_safety_index": 92.82
  },
  {
    "school_index": 124,
    "school_name": "Alipore Multipurpose Government Girls School",
    "lat": 22.5227052,
    "lon": 88.3342674,
    "has_hospital": true,
    "has_police_station": true,
    "has_fire_station": true,
    "dist_hospital_km": 0.218,
    "dist_police_km": 0.984,
    "dist_fire_km": 0.966,
    "emergency_safety_index": 85.55
  },
  {
    "school_index": 125,
    "school_name": "Sri Sri Academy",
    "lat": 22.517404,
    "lon": 88.3335058,
    "has_hospital": true,
    "has_police_station": true,
    "has_fire_station": true,
    "dist_hospital_km": 0.483,
    "dist_police_km": 1.112,
    "dist_fire_km": 1.231,
    "emergency_safety_index": 81.16
  },
  {
    "school_index": 126,
    "school_name": "Chetla Girls' School",
    "lat": 22.5164144,
    "lon": 88.3365771,
    "has_hospital": true,
    "has_police_station": true,
    "has_fire_station": true,
    "dist_hospital_km": 0.545,
    "dist_police_km": 0.882,
    "dist_fire_km": 1.055,
    "emergency_safety_index": 83.45
  },
  {
    "school_index": 127,
    "school_name": "International Management Institute",
    "lat": 22.5259815,
    "lon": 88.3267323,
    "has_hospital": true,
    "has_police_station": true,
    "has_fire_station": true,
    "dist_hospital_km": 0.412,
    "dist_police_km": 1.824,
    "dist_fire_km": 1.763,
    "emergency_safety_index": 73.34
  },
  {
    "school_index": 128,
    "school_name": "St Paul'S Boarding And Day School",
    "lat": 22.5346103,
    "lon": 88.3262494,
    "has_hospital": true,
    "has_police_station": true,
    "has_fire_station": false,
    "dist_hospital_km": 0.184,
    "dist_police_km": 1.561,
    "dist_fire_km": 0.0,
    "emergency_safety_index": 44.93
  },
  {
    "school_index": 129,
    "school_name": "Jnan Chandra Ghosh Polytechnic",
    "lat": 22.5281217,
    "lon": 88.3209976,
    "has_hospital": true,
    "has_police_station": false,
    "has_fire_station": false,
    "dist_hospital_km": 0.562,
    "dist_police_km": 0.0,
    "dist_fire_km": 0.0,
    "emergency_safety_index": 17.08
  },
  {
    "school_index": 130,
    "school_name": "Army Institute Of Management",
    "lat": 22.5277549,
    "lon": 88.3275519,
    "has_hospital": true,
    "has_police_station": true,
    "has_fire_station": true,
    "dist_hospital_km": 0.252,
    "dist_police_km": 1.81,
    "dist_fire_km": 1.727,
    "emergency_safety_index": 74.74
  },
  {
    "school_index": 131,
    "school_name": "Kendriya Vidyalaya",
    "lat": 22.5294719,
    "lon": 88.3270993,
    "has_hospital": true,
    "has_police_station": true,
    "has_fire_station": true,
    "dist_hospital_km": 0.093,
    "dist_police_km": 1.934,
    "dist_fire_km": 1.834,
    "emergency_safety_index": 74.26
  },
  {
    "school_index": 132,
    "school_name": "Loyola High School",
    "lat": 22.530267,
    "lon": 88.3263553,
    "has_hospital": true,
    "has_police_station": false,
    "has_fire_station": true,
    "dist_hospital_km": 0.069,
    "dist_police_km": 0.0,
    "dist_fire_km": 1.939,
    "emergency_safety_index": 43.5
  },
  {
    "school_index": 133,
    "school_name": "Lakshmipat Singhania Academy",
    "lat": 22.5256988,
    "lon": 88.3305314,
    "has_hospital": true,
    "has_police_station": true,
    "has_fire_station": true,
    "dist_hospital_km": 0.414,
    "dist_police_km": 1.442,
    "dist_fire_km": 1.374,
    "emergency_safety_index": 78.47
  },
  {
    "school_index": 134,
    "school_name": "Calcutta University Alipore Campus",
    "lat": 22.5350092,
    "lon": 88.3343371,
    "has_hospital": true,
    "has_police_station": true,
    "has_fire_station": true,
    "dist_hospital_km": 0.47,
    "dist_police_km": 1.141,
    "dist_fire_km": 1.616,
    "emergency_safety_index": 78.49
  },
  {
    "school_index": 135,
    "school_name": "Sanghamitra Vidyalaya",
    "lat": 22.5427177,
    "lon": 88.3100379,
    "has_hospital": true,
    "has_police_station": true,
    "has_fire_station": false,
    "dist_hospital_km": 0.378,
    "dist_police_km": 2.007,
    "dist_fire_km": 0.0,
    "emergency_safety_index": 41.45
  },
  {
    "school_index": 136,
    "school_name": "School For The Handicapped",
    "lat": 22.546663,
    "lon": 88.3107456,
    "has_hospital": true,
    "has_police_station": true,
    "has_fire_station": false,
    "dist_hospital_km": 0.08,
    "dist_police_km": 1.84,
    "dist_fire_km": 0.0,
    "emergency_safety_index": 43.98
  },
  {
    "school_index": 137,
    "school_name": "Indian Institute Of Engineering Science And Technology Shibpur",
    "lat": 22.5552038,
    "lon": 88.3059081,
    "has_hospital": true,
    "has_police_station": true,
    "has_fire_station": false,
    "dist_hospital_km": 0.601,
    "dist_police_km": 1.027,
    "dist_fire_km": 0.0,
    "emergency_safety_index": 45.57
  },
  {
    "school_index": 138,
    "school_name": "Be College Model School",
    "lat": 22.5537847,
    "lon": 88.305461,
    "has_hospital": false,
    "has_police_station": true,
    "has_fire_station": false,
    "dist_hospital_km": 0.0,
    "dist_police_km": 1.153,
    "dist_fire_km": 0.0,
    "emergency_safety_index": 14.81
  },
  {
    "school_index": 139,
    "school_name": "Be College Model School",
    "lat": 22.5538652,
    "lon": 88.3045121,
    "has_hospital": true,
    "has_police_station": true,
    "has_fire_station": false,
    "dist_hospital_km": 0.717,
    "dist_police_km": 1.114,
    "dist_fire_km": 0.0,
    "emergency_safety_index": 44.47
  },
  {
    "school_index": 140,
    "school_name": "Pajnanananda Vidyalaya Ground",
    "lat": 22.5596528,
    "lon": 88.3103867,
    "has_hospital": true,
    "has_police_station": true,
    "has_fire_station": false,
    "dist_hospital_km": 0.413,
    "dist_police_km": 1.01,
    "dist_fire_km": 0.0,
    "emergency_safety_index": 46.69
  },
  {
    "school_index": 141,
    "school_name": "St Thomas College Of Engineering And Technology",
    "lat": 22.5387797,
    "lon": 88.3286083,
    "has_hospital": true,
    "has_police_station": true,
    "has_fire_station": false,
    "dist_hospital_km": 0.657,
    "dist_police_km": 1.079,
    "dist_fire_km": 0.0,
    "emergency_safety_index": 44.98
  },
  {
    "school_index": 142,
    "school_name": "St Paul'S High School",
    "lat": 22.5398644,
    "lon": 88.3279709,
    "has_hospital": true,
    "has_police_station": true,
    "has_fire_station": false,
    "dist_hospital_km": 0.719,
    "dist_police_km": 0.96,
    "dist_fire_km": 0.0,
    "emergency_safety_index": 45.29
  },
  {
    "school_index": 143,
    "school_name": "St Teresa'S Secondary School",
    "lat": 22.5373873,
    "lon": 88.3269001,
    "has_hospital": true,
    "has_police_station": true,
    "has_fire_station": false,
    "dist_hospital_km": 0.427,
    "dist_police_km": 1.245,
    "dist_fire_km": 0.0,
    "emergency_safety_index": 45.33
  },
  {
    "school_index": 144,
    "school_name": "St Thomas Girls School",
    "lat": 22.5397773,
    "lon": 88.3293204,
    "has_hospital": true,
    "has_police_station": true,
    "has_fire_station": false,
    "dist_hospital_km": 0.788,
    "dist_police_km": 0.971,
    "dist_fire_km": 0.0,
    "emergency_safety_index": 44.86
  },
  {
    "school_index": 145,
    "school_name": "Kolkata Police Training School",
    "lat": 22.5383474,
    "lon": 88.3364618,
    "has_hospital": true,
    "has_police_station": true,
    "has_fire_station": true,
    "dist_hospital_km": 0.172,
    "dist_police_km": 0.824,
    "dist_fire_km": 1.83,
    "emergency_safety_index": 81.16
  },
  {
    "school_index": 146,
    "school_name": "Tirthapati Institution",
    "lat": 22.517288,
    "lon": 88.353668,
    "has_hospital": true,
    "has_police_station": true,
    "has_fire_station": true,
    "dist_hospital_km": 0.098,
    "dist_police_km": 1.105,
    "dist_fire_km": 1.226,
    "emergency_safety_index": 83.81
  },
  {
    "school_index": 147,
    "school_name": "Jagadbandhu Institution",
    "lat": 22.5200757,
    "lon": 88.3684356,
    "has_hospital": true,
    "has_police_station": true,
    "has_fire_station": false,
    "dist_hospital_km": 0.252,
    "dist_police_km": 0.4,
    "dist_fire_km": 0.0,
    "emergency_safety_index": 50.88
  },
  {
    "school_index": 148,
    "school_name": "Kamala Chatterjee Girls School",
    "lat": 22.5191472,
    "lon": 88.3675573,
    "has_hospital": true,
    "has_police_station": true,
    "has_fire_station": false,
    "dist_hospital_km": 0.204,
    "dist_police_km": 0.363,
    "dist_fire_km": 0.0,
    "emergency_safety_index": 51.35
  },
  {
    "school_index": 149,
    "school_name": "St Lawrence High School",
    "lat": 22.5280188,
    "lon": 88.3563503,
    "has_hospital": true,
    "has_police_station": true,
    "has_fire_station": true,
    "dist_hospital_km": 0.467,
    "dist_police_km": 1.075,
    "dist_fire_km": 1.406,
    "emergency_safety_index": 80.35
  },
  {
    "school_index": 150,
    "school_name": "David Hare Training College",
    "lat": 22.529703,
    "lon": 88.355468,
    "has_hospital": true,
    "has_police_station": true,
    "has_fire_station": true,
    "dist_hospital_km": 0.275,
    "dist_police_km": 1.031,
    "dist_fire_km": 1.407,
    "emergency_safety_index": 81.91
  },
  {
    "school_index": 151,
    "school_name": "Mitra Institution Bhowanipore Branch",
    "lat": 22.5291927,
    "lon": 88.3436509,
    "has_hospital": true,
    "has_police_station": true,
    "has_fire_station": true,
    "dist_hospital_km": 0.318,
    "dist_police_km": 0.372,
    "dist_fire_km": 0.656,
    "emergency_safety_index": 91.03
  },
  {
    "school_index": 152,
    "school_name": "South Subarban School",
    "lat": 22.5308918,
    "lon": 88.3444309,
    "has_hospital": true,
    "has_police_station": true,
    "has_fire_station": true,
    "dist_hospital_km": 0.155,
    "dist_police_km": 0.499,
    "dist_fire_km": 0.849,
    "emergency_safety_index": 89.98
  },
  {
    "school_index": 153,
    "school_name": "Ballygunge Government High School",
    "lat": 22.5298819,
    "lon": 88.3544322,
    "has_hospital": true,
    "has_police_station": true,
    "has_fire_station": true,
    "dist_hospital_km": 0.181,
    "dist_police_km": 0.938,
    "dist_fire_km": 1.328,
    "emergency_safety_index": 83.69
  },
  {
    "school_index": 154,
    "school_name": "Ballygunge Siksha Sadan",
    "lat": 22.5239951,
    "lon": 88.3648732,
    "has_hospital": true,
    "has_police_station": true,
    "has_fire_station": false,
    "dist_hospital_km": 0.173,
    "dist_police_km": 0.328,
    "dist_fire_km": 0.0,
    "emergency_safety_index": 51.71
  },
  {
    "school_index": 155,
    "school_name": "Surendra Chakravorty Institution",
    "lat": 22.5253585,
    "lon": 88.3627075,
    "has_hospital": true,
    "has_police_station": true,
    "has_fire_station": true,
    "dist_hospital_km": 0.127,
    "dist_police_km": 0.52,
    "dist_fire_km": 1.971,
    "emergency_safety_index": 82.55
  },
  {
    "school_index": 156,
    "school_name": "University Of Calcutta Law College Campus",
    "lat": 22.5261726,
    "lon": 88.3632215,
    "has_hospital": true,
    "has_police_station": true,
    "has_fire_station": false,
    "dist_hospital_km": 0.123,
    "dist_police_km": 0.589,
    "dist_fire_km": 0.0,
    "emergency_safety_index": 50.56
  },
  {
    "school_index": 157,
    "school_name": "Modern High School For Girls",
    "lat": 22.5351303,
    "lon": 88.3642483,
    "has_hospital": true,
    "has_police_station": true,
    "has_fire_station": false,
    "dist_hospital_km": 0.245,
    "dist_police_km": 1.379,
    "dist_fire_km": 0.0,
    "emergency_safety_index": 45.59
  },
  {
    "school_index": 158,
    "school_name": "Kendriya Vidyalaya",
    "lat": 22.5308931,
    "lon": 88.3583122,
    "has_hospital": true,
    "has_police_station": true,
    "has_fire_station": true,
    "dist_hospital_km": 0.266,
    "dist_police_km": 1.275,
    "dist_fire_km": 1.727,
    "emergency_safety_index": 78.21
  },
  {
    "school_index": 159,
    "school_name": "Army Public School",
    "lat": 22.5322436,
    "lon": 88.3609661,
    "has_hospital": true,
    "has_police_station": true,
    "has_fire_station": false,
    "dist_hospital_km": 0.224,
    "dist_police_km": 1.302,
    "dist_fire_km": 0.0,
    "emergency_safety_index": 46.13
  },
  {
    "school_index": 160,
    "school_name": "Calcutta School Of Music",
    "lat": 22.5318256,
    "lon": 88.3635804,
    "has_hospital": true,
    "has_police_station": true,
    "has_fire_station": false,
    "dist_hospital_km": 0.491,
    "dist_police_km": 1.203,
    "dist_fire_km": 0.0,
    "emergency_safety_index": 45.21
  },
  {
    "school_index": 161,
    "school_name": "Delhi Public School - Dps",
    "lat": 22.5128913,
    "lon": 88.381663,
    "has_hospital": true,
    "has_police_station": true,
    "has_fire_station": false,
    "dist_hospital_km": 0.882,
    "dist_police_km": 1.821,
    "dist_fire_km": 0.0,
    "emergency_safety_index": 39.72
  },
  {
    "school_index": 162,
    "school_name": "Chittaranjan Girls High School",
    "lat": 22.5161669,
    "lon": 88.3766609,
    "has_hospital": true,
    "has_police_station": true,
    "has_fire_station": false,
    "dist_hospital_km": 0.585,
    "dist_police_km": 1.344,
    "dist_fire_km": 0.0,
    "emergency_safety_index": 43.93
  },
  {
    "school_index": 163,
    "school_name": "Chittaranjan Boys High School",
    "lat": 22.5176875,
    "lon": 88.3767734,
    "has_hospital": true,
    "has_police_station": true,
    "has_fire_station": false,
    "dist_hospital_km": 0.53,
    "dist_police_km": 1.296,
    "dist_fire_km": 0.0,
    "emergency_safety_index": 44.49
  },
  {
    "school_index": 164,
    "school_name": "Garden High School",
    "lat": 22.5196119,
    "lon": 88.3921355,
    "has_hospital": true,
    "has_police_station": false,
    "has_fire_station": false,
    "dist_hospital_km": 0.522,
    "dist_police_km": 0.0,
    "dist_fire_km": 0.0,
    "emergency_safety_index": 17.24
  },
  {
    "school_index": 165,
    "school_name": "Iiswbm",
    "lat": 22.5190052,
    "lon": 88.3927628,
    "has_hospital": true,
    "has_police_station": false,
    "has_fire_station": false,
    "dist_hospital_km": 0.472,
    "dist_police_km": 0.0,
    "dist_fire_km": 0.0,
    "emergency_safety_index": 17.43
  },
  {
    "school_index": 166,
    "school_name": "South Point High School",
    "lat": 22.5258704,
    "lon": 88.3700934,
    "has_hospital": true,
    "has_police_station": true,
    "has_fire_station": false,
    "dist_hospital_km": 0.272,
    "dist_police_km": 0.771,
    "dist_fire_km": 0.0,
    "emergency_safety_index": 48.76
  },
  {
    "school_index": 167,
    "school_name": "United Missionary Girls High School",
    "lat": 22.5368296,
    "lon": 88.3472369,
    "has_hospital": true,
    "has_police_station": true,
    "has_fire_station": true,
    "dist_hospital_km": 0.209,
    "dist_police_km": 0.403,
    "dist_fire_km": 1.55,
    "emergency_safety_index": 85.59
  },
  {
    "school_index": 168,
    "school_name": "St Johns Diocesan Girls Higher Secondary",
    "lat": 22.5368906,
    "lon": 88.353789,
    "has_hospital": true,
    "has_police_station": true,
    "has_fire_station": true,
    "dist_hospital_km": 0.257,
    "dist_police_km": 0.892,
    "dist_fire_km": 1.836,
    "emergency_safety_index": 80.1
  },
  {
    "school_index": 169,
    "school_name": "Cathedral Mission High School",
    "lat": 22.5370143,
    "lon": 88.3530955,
    "has_hospital": true,
    "has_police_station": true,
    "has_fire_station": true,
    "dist_hospital_km": 0.22,
    "dist_police_km": 0.83,
    "dist_fire_km": 1.808,
    "emergency_safety_index": 80.95
  },
  {
    "school_index": 170,
    "school_name": "Saint Xavier'S College Autonomous",
    "lat": 22.5486048,
    "lon": 88.356237,
    "has_hospital": true,
    "has_police_station": true,
    "has_fire_station": true,
    "dist_hospital_km": 0.227,
    "dist_police_km": 0.336,
    "dist_fire_km": 1.042,
    "emergency_safety_index": 89.3
  },
  {
    "school_index": 171,
    "school_name": "St Xavier'S Collegiate School Primary Section",
    "lat": 22.5476669,
    "lon": 88.3548303,
    "has_hospital": true,
    "has_police_station": true,
    "has_fire_station": true,
    "dist_hospital_km": 0.063,
    "dist_police_km": 0.469,
    "dist_fire_km": 1.137,
    "emergency_safety_index": 88.87
  },
  {
    "school_index": 172,
    "school_name": "Sakhawat Memorial Govt Girls' High School",
    "lat": 22.5446088,
    "lon": 88.3494987,
    "has_hospital": true,
    "has_police_station": true,
    "has_fire_station": true,
    "dist_hospital_km": 0.262,
    "dist_police_km": 0.377,
    "dist_fire_km": 1.577,
    "emergency_safety_index": 85.23
  },
  {
    "school_index": 173,
    "school_name": "Birla High School",
    "lat": 22.5432387,
    "lon": 88.3545612,
    "has_hospital": true,
    "has_police_station": true,
    "has_fire_station": true,
    "dist_hospital_km": 0.097,
    "dist_police_km": 0.777,
    "dist_fire_km": 1.63,
    "emergency_safety_index": 83.31
  },
  {
    "school_index": 174,
    "school_name": "Bishops College",
    "lat": 22.5400312,
    "lon": 88.3593459,
    "has_hospital": true,
    "has_police_station": true,
    "has_fire_station": false,
    "dist_hospital_km": 0.123,
    "dist_police_km": 1.184,
    "dist_fire_km": 0.0,
    "emergency_safety_index": 47.32
  },
  {
    "school_index": 175,
    "school_name": "Lady Brabourne College",
    "lat": 22.54509,
    "lon": 88.3693997,
    "has_hospital": true,
    "has_police_station": true,
    "has_fire_station": false,
    "dist_hospital_km": 0.149,
    "dist_police_km": 0.256,
    "dist_fire_km": 0.0,
    "emergency_safety_index": 52.23
  },
  {
    "school_index": 176,
    "school_name": "La Martinere For Girls",
    "lat": 22.541722,
    "lon": 88.3582962,
    "has_hospital": true,
    "has_police_station": true,
    "has_fire_station": true,
    "dist_hospital_km": 0.104,
    "dist_police_km": 1.118,
    "dist_fire_km": 1.832,
    "emergency_safety_index": 79.64
  },
  {
    "school_index": 177,
    "school_name": "Harrow Hall",
    "lat": 22.553928,
    "lon": 88.352712,
    "has_hospital": true,
    "has_police_station": true,
    "has_fire_station": true,
    "dist_hospital_km": 0.184,
    "dist_police_km": 0.458,
    "dist_fire_km": 0.493,
    "emergency_safety_index": 92.43
  },
  {
    "school_index": 178,
    "school_name": "Armenian College",
    "lat": 22.5549291,
    "lon": 88.3535532,
    "has_hospital": true,
    "has_police_station": true,
    "has_fire_station": true,
    "dist_hospital_km": 0.202,
    "dist_police_km": 0.47,
    "dist_fire_km": 0.356,
    "emergency_safety_index": 93.15
  },
  {
    "school_index": 179,
    "school_name": "Saint Anthony'S High School",
    "lat": 22.5599311,
    "lon": 88.3552274,
    "has_hospital": true,
    "has_police_station": true,
    "has_fire_station": true,
    "dist_hospital_km": 0.71,
    "dist_police_km": 0.33,
    "dist_fire_km": 0.23,
    "emergency_safety_index": 91.53
  },
  {
    "school_index": 180,
    "school_name": "Saint Xavier'S Collegiate School",
    "lat": 22.5481011,
    "lon": 88.3562329,
    "has_hospital": true,
    "has_police_station": true,
    "has_fire_station": true,
    "dist_hospital_km": 0.21,
    "dist_police_km": 0.392,
    "dist_fire_km": 1.098,
    "emergency_safety_index": 88.67
  },
  {
    "school_index": 181,
    "school_name": "Albany Hall School",
    "lat": 22.5479674,
    "lon": 88.3674178,
    "has_hospital": true,
    "has_police_station": true,
    "has_fire_station": true,
    "dist_hospital_km": 0.467,
    "dist_police_km": 0.123,
    "dist_fire_km": 1.697,
    "emergency_safety_index": 84.75
  },
  {
    "school_index": 182,
    "school_name": "St James' School",
    "lat": 22.5547319,
    "lon": 88.3653464,
    "has_hospital": true,
    "has_police_station": true,
    "has_fire_station": true,
    "dist_hospital_km": 0.363,
    "dist_police_km": 0.901,
    "dist_fire_km": 1.132,
    "emergency_safety_index": 84.03
  },
  {
    "school_index": 183,
    "school_name": "West Bengal Urdu Academy",
    "lat": 22.5571826,
    "lon": 88.3581796,
    "has_hospital": true,
    "has_police_station": true,
    "has_fire_station": true,
    "dist_hospital_km": 0.327,
    "dist_police_km": 0.644,
    "dist_fire_km": 0.349,
    "emergency_safety_index": 91.2
  },
  {
    "school_index": 184,
    "school_name": "Calcutta Boys School",
    "lat": 22.5599024,
    "lon": 88.3658644,
    "has_hospital": true,
    "has_police_station": true,
    "has_fire_station": true,
    "dist_hospital_km": 0.378,
    "dist_police_km": 0.754,
    "dist_fire_km": 1.151,
    "emergency_safety_index": 84.78
  },
  {
    "school_index": 185,
    "school_name": "Calcutta National Medical College",
    "lat": 22.5466729,
    "lon": 88.3697583,
    "has_hospital": true,
    "has_police_station": true,
    "has_fire_station": true,
    "dist_hospital_km": 0.19,
    "dist_police_km": 0.18,
    "dist_fire_km": 1.973,
    "emergency_safety_index": 84.38
  },
  {
    "school_index": 186,
    "school_name": "Kazi Nazrul Islam School",
    "lat": 22.5452395,
    "lon": 88.3816764,
    "has_hospital": true,
    "has_police_station": true,
    "has_fire_station": false,
    "dist_hospital_km": 0.274,
    "dist_police_km": 1.414,
    "dist_fire_km": 0.0,
    "emergency_safety_index": 45.24
  },
  {
    "school_index": 187,
    "school_name": "Don Bosco",
    "lat": 22.5440197,
    "lon": 88.371846,
    "has_hospital": true,
    "has_police_station": true,
    "has_fire_station": false,
    "dist_hospital_km": 0.135,
    "dist_police_km": 0.513,
    "dist_fire_km": 0.0,
    "emergency_safety_index": 50.91
  },
  {
    "school_index": 188,
    "school_name": "Don Bosco Technical Institute",
    "lat": 22.5442221,
    "lon": 88.3726214,
    "has_hospital": true,
    "has_police_station": true,
    "has_fire_station": false,
    "dist_hospital_km": 0.196,
    "dist_police_km": 0.564,
    "dist_fire_km": 0.0,
    "emergency_safety_index": 50.3
  },
  {
    "school_index": 189,
    "school_name": "Holy Cross School",
    "lat": 22.5473415,
    "lon": 88.3765333,
    "has_hospital": true,
    "has_police_station": true,
    "has_fire_station": false,
    "dist_hospital_km": 0.086,
    "dist_police_km": 0.872,
    "dist_fire_km": 0.0,
    "emergency_safety_index": 49.22
  },
  {
    "school_index": 190,
    "school_name": "Holy Child Sch",
    "lat": 22.5537866,
    "lon": 88.3732777,
    "has_hospital": true,
    "has_police_station": true,
    "has_fire_station": true,
    "dist_hospital_km": 0.402,
    "dist_police_km": 0.924,
    "dist_fire_km": 1.945,
    "emergency_safety_index": 78.19
  },
  {
    "school_index": 191,
    "school_name": "Loreto Convent School",
    "lat": 22.5599768,
    "lon": 88.3774648,
    "has_hospital": true,
    "has_police_station": true,
    "has_fire_station": false,
    "dist_hospital_km": 0.603,
    "dist_police_km": 1.45,
    "dist_fire_km": 0.0,
    "emergency_safety_index": 43.26
  },
  {
    "school_index": 192,
    "school_name": "Nikita Don Bosco School",
    "lat": 22.5592751,
    "lon": 88.3787638,
    "has_hospital": true,
    "has_police_station": true,
    "has_fire_station": false,
    "dist_hospital_km": 0.694,
    "dist_police_km": 1.605,
    "dist_fire_km": 0.0,
    "emergency_safety_index": 41.92
  },
  {
    "school_index": 193,
    "school_name": "Bhutnath Mahamaya School",
    "lat": 22.5604422,
    "lon": 88.3793698,
    "has_hospital": true,
    "has_police_station": true,
    "has_fire_station": false,
    "dist_hospital_km": 0.801,
    "dist_police_km": 1.598,
    "dist_fire_km": 0.0,
    "emergency_safety_index": 41.37
  },
  {
    "school_index": 194,
    "school_name": "Panchsayar Siksha Niketan",
    "lat": 22.4732405,
    "lon": 88.399118,
    "has_hospital": true,
    "has_police_station": true,
    "has_fire_station": false,
    "dist_hospital_km": 0.558,
    "dist_police_km": 0.61,
    "dist_fire_km": 0.0,
    "emergency_safety_index": 48.08
  },
  {
    "school_index": 195,
    "school_name": "Dps",
    "lat": 22.5162377,
    "lon": 88.3959962,
    "has_hospital": true,
    "has_police_station": false,
    "has_fire_station": false,
    "dist_hospital_km": 0.398,
    "dist_police_km": 0.0,
    "dist_fire_km": 0.0,
    "emergency_safety_index": 17.71
  },
  {
    "school_index": 196,
    "school_name": "Jadavpur University",
    "lat": 22.5611261,
    "lon": 88.4132965,
    "has_hospital": true,
    "has_police_station": true,
    "has_fire_station": false,
    "dist_hospital_km": 0.972,
    "dist_police_km": 1.005,
    "dist_fire_km": 0.0,
    "emergency_safety_index": 43.67
  },
  {
    "school_index": 197,
    "school_name": "Government College Of Engineering And Technology",
    "lat": 22.5602364,
    "lon": 88.4110113,
    "has_hospital": true,
    "has_police_station": true,
    "has_fire_station": false,
    "dist_hospital_km": 1.136,
    "dist_police_km": 1.137,
    "dist_fire_km": 0.0,
    "emergency_safety_index": 42.06
  },
  {
    "school_index": 198,
    "school_name": "West Bengal National University Of Juridical Sciences",
    "lat": 22.5610531,
    "lon": 88.4104579,
    "has_hospital": true,
    "has_police_station": true,
    "has_fire_station": false,
    "dist_hospital_km": 1.077,
    "dist_police_km": 1.065,
    "dist_fire_km": 0.0,
    "emergency_safety_index": 42.77
  },
  {
    "school_index": 199,
    "school_name": "Sukantanagar Vidyaniketan School",
    "lat": 22.5606514,
    "lon": 88.415166,
    "has_hospital": true,
    "has_police_station": true,
    "has_fire_station": true,
    "dist_hospital_km": 1.005,
    "dist_police_km": 1.069,
    "dist_fire_km": 1.982,
    "emergency_safety_index": 72.96
  },
  {
    "school_index": 200,
    "school_name": "Vivekananda School",
    "lat": 22.5645381,
    "lon": 88.3142161,
    "has_hospital": true,
    "has_police_station": true,
    "has_fire_station": true,
    "dist_hospital_km": 0.512,
    "dist_police_km": 0.853,
    "dist_fire_km": 1.401,
    "emergency_safety_index": 81.56
  },
  {
    "school_index": 201,
    "school_name": "Hvi Play Ground",
    "lat": 22.5776774,
    "lon": 88.3164835,
    "has_hospital": true,
    "has_police_station": true,
    "has_fire_station": true,
    "dist_hospital_km": 0.554,
    "dist_police_km": 1.267,
    "dist_fire_km": 1.287,
    "emergency_safety_index": 79.28
  },
  {
    "school_index": 202,
    "school_name": "Dinabandhu Institution Main",
    "lat": 22.5622221,
    "lon": 88.3190524,
    "has_hospital": true,
    "has_police_station": true,
    "has_fire_station": true,
    "dist_hospital_km": 0.054,
    "dist_police_km": 0.402,
    "dist_fire_km": 1.177,
    "emergency_safety_index": 89.11
  },
  {
    "school_index": 203,
    "school_name": "Hindu Girl'S School",
    "lat": 22.5683704,
    "lon": 88.3198503,
    "has_hospital": true,
    "has_police_station": true,
    "has_fire_station": true,
    "dist_hospital_km": 0.485,
    "dist_police_km": 0.562,
    "dist_fire_km": 0.699,
    "emergency_safety_index": 88.36
  },
  {
    "school_index": 204,
    "school_name": "Tiny Tots Kindergarten School",
    "lat": 22.5721656,
    "lon": 88.3194611,
    "has_hospital": true,
    "has_police_station": true,
    "has_fire_station": true,
    "dist_hospital_km": 0.699,
    "dist_police_km": 0.72,
    "dist_fire_km": 0.725,
    "emergency_safety_index": 85.71
  },
  {
    "school_index": 205,
    "school_name": "Prasanna Kumari Balika Sikshalaya",
    "lat": 22.5722392,
    "lon": 88.3256109,
    "has_hospital": true,
    "has_police_station": true,
    "has_fire_station": true,
    "dist_hospital_km": 0.279,
    "dist_police_km": 0.177,
    "dist_fire_km": 0.21,
    "emergency_safety_index": 95.56
  },
  {
    "school_index": 206,
    "school_name": "Honey Bee Kindergarten School",
    "lat": 22.5737056,
    "lon": 88.3237753,
    "has_hospital": true,
    "has_police_station": true,
    "has_fire_station": true,
    "dist_hospital_km": 0.456,
    "dist_police_km": 0.416,
    "dist_fire_km": 0.444,
    "emergency_safety_index": 91.23
  },
  {
    "school_index": 207,
    "school_name": "B K Paul'S Institution",
    "lat": 22.5715892,
    "lon": 88.3245772,
    "has_hospital": true,
    "has_police_station": true,
    "has_fire_station": true,
    "dist_hospital_km": 0.238,
    "dist_police_km": 0.199,
    "dist_fire_km": 0.215,
    "emergency_safety_index": 95.65
  },
  {
    "school_index": 208,
    "school_name": "Hvi Boro Bari",
    "lat": 22.5775491,
    "lon": 88.3169787,
    "has_hospital": true,
    "has_police_station": true,
    "has_fire_station": true,
    "dist_hospital_km": 0.538,
    "dist_police_km": 1.218,
    "dist_fire_km": 1.239,
    "emergency_safety_index": 80.03
  },
  {
    "school_index": 209,
    "school_name": "Hvi Choto Bari",
    "lat": 22.5783357,
    "lon": 88.3165951,
    "has_hospital": true,
    "has_police_station": true,
    "has_fire_station": true,
    "dist_hospital_km": 0.49,
    "dist_police_km": 1.304,
    "dist_fire_km": 1.325,
    "emergency_safety_index": 79.21
  },
  {
    "school_index": 210,
    "school_name": "Heritage Academy",
    "lat": 22.5765431,
    "lon": 88.325501,
    "has_hospital": true,
    "has_police_station": true,
    "has_fire_station": true,
    "dist_hospital_km": 0.409,
    "dist_police_km": 0.645,
    "dist_fire_km": 0.682,
    "emergency_safety_index": 88.43
  },
  {
    "school_index": 211,
    "school_name": "Bijay Krishna Girls College",
    "lat": 22.5835143,
    "lon": 88.3354413,
    "has_hospital": true,
    "has_police_station": true,
    "has_fire_station": true,
    "dist_hospital_km": 0.308,
    "dist_police_km": 1.697,
    "dist_fire_km": 1.731,
    "emergency_safety_index": 75.09
  },
  {
    "school_index": 212,
    "school_name": "Surendranath Law College",
    "lat": 22.5704949,
    "lon": 88.3685567,
    "has_hospital": true,
    "has_police_station": true,
    "has_fire_station": true,
    "dist_hospital_km": 0.321,
    "dist_police_km": 0.539,
    "dist_fire_km": 1.153,
    "emergency_safety_index": 86.58
  },
  {
    "school_index": 213,
    "school_name": "Bangabhashi College",
    "lat": 22.5693901,
    "lon": 88.3673582,
    "has_hospital": true,
    "has_police_station": true,
    "has_fire_station": true,
    "dist_hospital_km": 0.163,
    "dist_police_km": 0.367,
    "dist_fire_km": 1.166,
    "emergency_safety_index": 88.69
  },
  {
    "school_index": 214,
    "school_name": "Tantia High School",
    "lat": 22.5774845,
    "lon": 88.3596528,
    "has_hospital": true,
    "has_police_station": true,
    "has_fire_station": true,
    "dist_hospital_km": 0.529,
    "dist_police_km": 0.606,
    "dist_fire_km": 0.108,
    "emergency_safety_index": 91.71
  },
  {
    "school_index": 215,
    "school_name": "Hare School",
    "lat": 22.575608,
    "lon": 88.3629946,
    "has_hospital": true,
    "has_police_station": true,
    "has_fire_station": true,
    "dist_hospital_km": 0.409,
    "dist_police_km": 0.973,
    "dist_fire_km": 0.347,
    "emergency_safety_index": 88.47
  },
  {
    "school_index": 216,
    "school_name": "University Of Calcutta College Street Campus",
    "lat": 22.5749445,
    "lon": 88.3626285,
    "has_hospital": true,
    "has_police_station": true,
    "has_fire_station": true,
    "dist_hospital_km": 0.326,
    "dist_police_km": 0.894,
    "dist_fire_km": 0.382,
    "emergency_safety_index": 89.32
  },
  {
    "school_index": 217,
    "school_name": "Taki House Govt Sponsored Multipurpose School For Boys",
    "lat": 22.573246,
    "lon": 88.3728843,
    "has_hospital": true,
    "has_police_station": true,
    "has_fire_station": true,
    "dist_hospital_km": 0.045,
    "dist_police_km": 1.066,
    "dist_fire_km": 1.358,
    "emergency_safety_index": 83.54
  },
  {
    "school_index": 218,
    "school_name": "Calcutta Boys' School",
    "lat": 22.5653026,
    "lon": 88.386352,
    "has_hospital": true,
    "has_police_station": true,
    "has_fire_station": false,
    "dist_hospital_km": 0.653,
    "dist_police_km": 1.008,
    "dist_fire_km": 0.0,
    "emergency_safety_index": 45.39
  },
  {
    "school_index": 219,
    "school_name": "Gurudas College Ground",
    "lat": 22.5708561,
    "lon": 88.390935,
    "has_hospital": true,
    "has_police_station": true,
    "has_fire_station": false,
    "dist_hospital_km": 0.304,
    "dist_police_km": 0.517,
    "dist_fire_km": 0.0,
    "emergency_safety_index": 49.96
  },
  {
    "school_index": 220,
    "school_name": "University Of Calcutta Rajabazar Science College Campus",
    "lat": 22.5790822,
    "lon": 88.3728541,
    "has_hospital": true,
    "has_police_station": true,
    "has_fire_station": true,
    "dist_hospital_km": 0.167,
    "dist_police_km": 0.838,
    "dist_fire_km": 1.263,
    "emergency_safety_index": 84.88
  },
  {
    "school_index": 221,
    "school_name": "Mukul Bithi School",
    "lat": 22.578278,
    "lon": 88.390792,
    "has_hospital": true,
    "has_police_station": true,
    "has_fire_station": false,
    "dist_hospital_km": 0.393,
    "dist_police_km": 0.347,
    "dist_fire_km": 0.0,
    "emergency_safety_index": 50.41
  },
  {
    "school_index": 222,
    "school_name": "Bagmari Manicktala Higher Secondary School",
    "lat": 22.5814658,
    "lon": 88.392787,
    "has_hospital": true,
    "has_police_station": true,
    "has_fire_station": false,
    "dist_hospital_km": 0.238,
    "dist_police_km": 0.68,
    "dist_fire_km": 0.0,
    "emergency_safety_index": 49.44
  },
  {
    "school_index": 223,
    "school_name": "Bethune Collegiate School",
    "lat": 22.5886006,
    "lon": 88.3679686,
    "has_hospital": true,
    "has_police_station": true,
    "has_fire_station": true,
    "dist_hospital_km": 0.455,
    "dist_police_km": 0.544,
    "dist_fire_km": 1.414,
    "emergency_safety_index": 83.91
  },
  {
    "school_index": 224,
    "school_name": "Shyambazar Av English School",
    "lat": 22.5987019,
    "lon": 88.3663231,
    "has_hospital": true,
    "has_police_station": true,
    "has_fire_station": false,
    "dist_hospital_km": 0.205,
    "dist_police_km": 0.848,
    "dist_fire_km": 0.0,
    "emergency_safety_index": 48.7
  },
  {
    "school_index": 225,
    "school_name": "Ultadanga Government Sponsored Higher Secondary School For Girls",
    "lat": 22.5904539,
    "lon": 88.394423,
    "has_hospital": true,
    "has_police_station": true,
    "has_fire_station": false,
    "dist_hospital_km": 0.147,
    "dist_police_km": 0.137,
    "dist_fire_km": 0.0,
    "emergency_safety_index": 52.89
  },
  {
    "school_index": 226,
    "school_name": "Don Bosco School Liluah",
    "lat": 22.6193315,
    "lon": 88.3520855,
    "has_hospital": true,
    "has_police_station": false,
    "has_fire_station": false,
    "dist_hospital_km": 0.404,
    "dist_police_km": 0.0,
    "dist_fire_km": 0.0,
    "emergency_safety_index": 17.69
  },
  {
    "school_index": 227,
    "school_name": "Janata Hindi School",
    "lat": 22.6168304,
    "lon": 88.3887506,
    "has_hospital": true,
    "has_police_station": true,
    "has_fire_station": false,
    "dist_hospital_km": 1.348,
    "dist_police_km": 1.118,
    "dist_fire_km": 0.0,
    "emergency_safety_index": 41.01
  },
  {
    "school_index": 228,
    "school_name": "Iit Kharagpur Kolkata Campus",
    "lat": 22.5737236,
    "lon": 88.4176481,
    "has_hospital": true,
    "has_police_station": true,
    "has_fire_station": true,
    "dist_hospital_km": 0.171,
    "dist_police_km": 0.569,
    "dist_fire_km": 1.671,
    "emergency_safety_index": 83.93
  },
  {
    "school_index": 229,
    "school_name": "Calcutta University Technology Campus",
    "lat": 22.5675983,
    "lon": 88.4155546,
    "has_hospital": true,
    "has_police_station": true,
    "has_fire_station": true,
    "dist_hospital_km": 0.235,
    "dist_police_km": 0.344,
    "dist_fire_km": 1.764,
    "emergency_safety_index": 84.38
  },
  {
    "school_index": 230,
    "school_name": "Sn Bose National Centre For Basic Schiences",
    "lat": 22.568265,
    "lon": 88.4167992,
    "has_hospital": true,
    "has_police_station": true,
    "has_fire_station": true,
    "dist_hospital_km": 0.227,
    "dist_police_km": 0.384,
    "dist_fire_km": 1.635,
    "emergency_safety_index": 85.03
  },
  {
    "school_index": 231,
    "school_name": "Iisd",
    "lat": 22.572419,
    "lon": 88.4130512,
    "has_hospital": true,
    "has_police_station": true,
    "has_fire_station": false,
    "dist_hospital_km": 0.031,
    "dist_police_km": 0.259,
    "dist_fire_km": 0.0,
    "emergency_safety_index": 52.85
  },
  {
    "school_index": 232,
    "school_name": "Kendriya Vidyalaya",
    "lat": 22.5709004,
    "lon": 88.4183831,
    "has_hospital": true,
    "has_police_station": true,
    "has_fire_station": true,
    "dist_hospital_km": 0.352,
    "dist_police_km": 0.491,
    "dist_fire_km": 1.506,
    "emergency_safety_index": 84.34
  },
  {
    "school_index": 233,
    "school_name": "Bhavan'S Gangabux Kanoria Vidyamandir",
    "lat": 22.577443,
    "lon": 88.4046929,
    "has_hospital": true,
    "has_police_station": true,
    "has_fire_station": false,
    "dist_hospital_km": 0.445,
    "dist_police_km": 1.227,
    "dist_fire_km": 0.0,
    "emergency_safety_index": 45.33
  },
  {
    "school_index": 234,
    "school_name": "Salt Lake School",
    "lat": 22.5867954,
    "lon": 88.3993546,
    "has_hospital": true,
    "has_police_station": true,
    "has_fire_station": false,
    "dist_hospital_km": 0.232,
    "dist_police_km": 0.524,
    "dist_fire_km": 0.0,
    "emergency_safety_index": 50.32
  },
  {
    "school_index": 235,
    "school_name": "Indian Institute Of Science Education And Research",
    "lat": 22.5812658,
    "lon": 88.4072655,
    "has_hospital": true,
    "has_police_station": true,
    "has_fire_station": false,
    "dist_hospital_km": 0.938,
    "dist_police_km": 1.399,
    "dist_fire_km": 0.0,
    "emergency_safety_index": 41.71
  },
  {
    "school_index": 236,
    "school_name": "Kendriya Vidyalaya Saltlake No 1",
    "lat": 22.5850042,
    "lon": 88.4064492,
    "has_hospital": true,
    "has_police_station": true,
    "has_fire_station": false,
    "dist_hospital_km": 0.575,
    "dist_police_km": 1.263,
    "dist_fire_km": 0.0,
    "emergency_safety_index": 44.43
  },
  {
    "school_index": 237,
    "school_name": "Administrative Training Institute",
    "lat": 22.5809327,
    "lon": 88.4098764,
    "has_hospital": true,
    "has_police_station": true,
    "has_fire_station": false,
    "dist_hospital_km": 0.928,
    "dist_police_km": 1.26,
    "dist_fire_km": 0.0,
    "emergency_safety_index": 42.52
  },
  {
    "school_index": 238,
    "school_name": "Bubble Blue",
    "lat": 22.5854778,
    "lon": 88.408619,
    "has_hospital": true,
    "has_police_station": true,
    "has_fire_station": false,
    "dist_hospital_km": 0.464,
    "dist_police_km": 1.184,
    "dist_fire_km": 0.0,
    "emergency_safety_index": 45.46
  },
  {
    "school_index": 239,
    "school_name": "Laban Hrad Vidyapeeth",
    "lat": 22.585084,
    "lon": 88.4088551,
    "has_hospital": true,
    "has_police_station": true,
    "has_fire_station": false,
    "dist_hospital_km": 0.507,
    "dist_police_km": 1.191,
    "dist_fire_km": 0.0,
    "emergency_safety_index": 45.19
  },
  {
    "school_index": 240,
    "school_name": "Central Staff Training And Research Institute Hostel",
    "lat": 22.5750087,
    "lon": 88.430036,
    "has_hospital": true,
    "has_police_station": true,
    "has_fire_station": true,
    "dist_hospital_km": 0.465,
    "dist_police_km": 0.198,
    "dist_fire_km": 0.821,
    "emergency_safety_index": 90.11
  },
  {
    "school_index": 241,
    "school_name": "Roopkala Kendro",
    "lat": 22.5723009,
    "lon": 88.4257689,
    "has_hospital": true,
    "has_police_station": true,
    "has_fire_station": true,
    "dist_hospital_km": 0.729,
    "dist_police_km": 0.652,
    "dist_fire_km": 0.856,
    "emergency_safety_index": 85.09
  },
  {
    "school_index": 242,
    "school_name": "Brainware Business School",
    "lat": 22.5740006,
    "lon": 88.4348386,
    "has_hospital": true,
    "has_police_station": true,
    "has_fire_station": true,
    "dist_hospital_km": 0.425,
    "dist_police_km": 0.596,
    "dist_fire_km": 0.695,
    "emergency_safety_index": 88.56
  },
  {
    "school_index": 243,
    "school_name": "Institute Of Engineering And Management",
    "lat": 22.5742147,
    "lon": 88.4336852,
    "has_hospital": true,
    "has_police_station": true,
    "has_fire_station": true,
    "dist_hospital_km": 0.381,
    "dist_police_km": 0.484,
    "dist_fire_km": 0.692,
    "emergency_safety_index": 89.62
  },
  {
    "school_index": 244,
    "school_name": "Rabindra Bharati University",
    "lat": 22.5803797,
    "lon": 88.4251928,
    "has_hospital": true,
    "has_police_station": true,
    "has_fire_station": true,
    "dist_hospital_km": 0.291,
    "dist_police_km": 0.625,
    "dist_fire_km": 1.573,
    "emergency_safety_index": 83.41
  },
  {
    "school_index": 245,
    "school_name": "Hariyana Vidya Mandir",
    "lat": 22.588025,
    "lon": 88.398725,
    "has_hospital": true,
    "has_police_station": true,
    "has_fire_station": false,
    "dist_hospital_km": 0.116,
    "dist_police_km": 0.402,
    "dist_fire_km": 0.0,
    "emergency_safety_index": 51.61
  },
  {
    "school_index": 246,
    "school_name": "Laban Hrad Bidya Pith",
    "lat": 22.5973761,
    "lon": 88.406065,
    "has_hospital": true,
    "has_police_station": true,
    "has_fire_station": false,
    "dist_hospital_km": 0.464,
    "dist_police_km": 1.369,
    "dist_fire_km": 0.0,
    "emergency_safety_index": 44.46
  },
  {
    "school_index": 247,
    "school_name": "Bd Ground",
    "lat": 22.5944093,
    "lon": 88.4071791,
    "has_hospital": true,
    "has_police_station": true,
    "has_fire_station": false,
    "dist_hospital_km": 0.523,
    "dist_police_km": 1.143,
    "dist_fire_km": 0.0,
    "emergency_safety_index": 45.36
  },
  {
    "school_index": 248,
    "school_name": "Inter National Institute Of Fashion Design",
    "lat": 22.5968437,
    "lon": 88.4091379,
    "has_hospital": true,
    "has_police_station": true,
    "has_fire_station": false,
    "dist_hospital_km": 0.522,
    "dist_police_km": 1.066,
    "dist_fire_km": 0.0,
    "emergency_safety_index": 45.79
  },
  {
    "school_index": 249,
    "school_name": "Nightingale Institute Of Management Studies",
    "lat": 22.5965119,
    "lon": 88.4096645,
    "has_hospital": true,
    "has_police_station": true,
    "has_fire_station": false,
    "dist_hospital_km": 0.575,
    "dist_police_km": 1.0,
    "dist_fire_km": 0.0,
    "emergency_safety_index": 45.86
  },
  {
    "school_index": 250,
    "school_name": "Laketown High School",
    "lat": 22.6021146,
    "lon": 88.4050797,
    "has_hospital": true,
    "has_police_station": true,
    "has_fire_station": false,
    "dist_hospital_km": 0.272,
    "dist_police_km": 1.747,
    "dist_fire_km": 0.0,
    "emergency_safety_index": 43.44
  },
  {
    "school_index": 251,
    "school_name": "Narain Dass Bangur Memorial Multipurpose School",
    "lat": 22.6043902,
    "lon": 88.4120622,
    "has_hospital": true,
    "has_police_station": true,
    "has_fire_station": false,
    "dist_hospital_km": 0.574,
    "dist_police_km": 1.529,
    "dist_fire_km": 0.0,
    "emergency_safety_index": 42.99
  },
  {
    "school_index": 252,
    "school_name": "Phase I Building",
    "lat": 22.6007653,
    "lon": 88.4204033,
    "has_hospital": true,
    "has_police_station": true,
    "has_fire_station": false,
    "dist_hospital_km": 1.318,
    "dist_police_km": 1.034,
    "dist_fire_km": 0.0,
    "emergency_safety_index": 41.63
  },
  {
    "school_index": 253,
    "school_name": "Begum Ruqaya School",
    "lat": 22.5887757,
    "lon": 88.4238175,
    "has_hospital": true,
    "has_police_station": true,
    "has_fire_station": false,
    "dist_hospital_km": 0.448,
    "dist_police_km": 0.689,
    "dist_fire_km": 0.0,
    "emergency_safety_index": 48.24
  },
  {
    "school_index": 254,
    "school_name": "Apeejay School",
    "lat": 22.5953372,
    "lon": 88.4231602,
    "has_hospital": true,
    "has_police_station": true,
    "has_fire_station": false,
    "dist_hospital_km": 1.173,
    "dist_police_km": 0.669,
    "dist_fire_km": 0.0,
    "emergency_safety_index": 44.41
  },
  {
    "school_index": 255,
    "school_name": "Arobit Academy",
    "lat": 22.5986031,
    "lon": 88.4225329,
    "has_hospital": true,
    "has_police_station": true,
    "has_fire_station": false,
    "dist_hospital_km": 1.353,
    "dist_police_km": 0.896,
    "dist_fire_km": 0.0,
    "emergency_safety_index": 42.19
  },
  {
    "school_index": 256,
    "school_name": "Prafulla Kanan Deshapriya Vidyamandir",
    "lat": 22.6029514,
    "lon": 88.423989,
    "has_hospital": true,
    "has_police_station": true,
    "has_fire_station": false,
    "dist_hospital_km": 1.222,
    "dist_police_km": 1.392,
    "dist_fire_km": 0.0,
    "emergency_safety_index": 40.2
  },
  {
    "school_index": 257,
    "school_name": "Chattaranjan Colony Hindu Vidyapith",
    "lat": 22.6159953,
    "lon": 88.4258216,
    "has_hospital": true,
    "has_police_station": true,
    "has_fire_station": false,
    "dist_hospital_km": 0.55,
    "dist_police_km": 0.488,
    "dist_fire_km": 0.0,
    "emergency_safety_index": 48.78
  },
  {
    "school_index": 258,
    "school_name": "Salvation Army",
    "lat": 22.4891153,
    "lon": 88.3160139,
    "has_hospital": true,
    "has_police_station": true,
    "has_fire_station": false,
    "dist_hospital_km": 0.778,
    "dist_police_km": 1.632,
    "dist_fire_km": 0.0,
    "emergency_safety_index": 41.31
  },
  {
    "school_index": 259,
    "school_name": "Nafar Chandra Balika Vidyalaya",
    "lat": 22.4659914,
    "lon": 88.4004165,
    "has_hospital": true,
    "has_police_station": true,
    "has_fire_station": false,
    "dist_hospital_km": 0.459,
    "dist_police_km": 0.987,
    "dist_fire_km": 0.0,
    "emergency_safety_index": 46.56
  },
  {
    "school_index": 260,
    "school_name": "Rcc Institute Of Information Technology",
    "lat": 22.5583647,
    "lon": 88.3966368,
    "has_hospital": true,
    "has_police_station": true,
    "has_fire_station": false,
    "dist_hospital_km": 0.531,
    "dist_police_km": 0.695,
    "dist_fire_km": 0.0,
    "emergency_safety_index": 47.76
  },
  {
    "school_index": 261,
    "school_name": "Bidhan Nagar Municipal School Hs",
    "lat": 22.5826431,
    "lon": 88.4190378,
    "has_hospital": true,
    "has_police_station": true,
    "has_fire_station": false,
    "dist_hospital_km": 0.39,
    "dist_police_km": 1.019,
    "dist_fire_km": 0.0,
    "emergency_safety_index": 46.76
  },
  {
    "school_index": 262,
    "school_name": "Dr Sudhir Chandra Sur Institute Of Technology And Sports Complex",
    "lat": 22.6184493,
    "lon": 88.4051178,
    "has_hospital": true,
    "has_police_station": true,
    "has_fire_station": false,
    "dist_hospital_km": 0.603,
    "dist_police_km": 0.584,
    "dist_fire_km": 0.0,
    "emergency_safety_index": 47.97
  }
]