[
  {
    "school_index": 0,
    "school_name": "Naval Maritime Academy",
    "lat": 18.8952175,
    "lon": 72.8105378,
    "has_hospital": true,
    "has_police_station": false,
    "has_fire_station": false,
    "dist_hospital_km": 0.587,
    "dist_police_km": 0.0,
    "dist_fire_km": 0.0,
    "emergency_safety_index": 16.99
  },
  {
    "school_index": 1,
    "school_name": "B D Somani International School",
    "lat": 18.9160698,
    "lon": 72.8199209,
    "has_hospital": true,
    "has_police_station": true,
    "has_fire_station": true,
    "dist_hospital_km": 1.118,
    "dist_police_km": 0.477,
    "dist_fire_km": 0.649,
    "emergency_safety_index": 85.04
  },
  {
    "school_index": 2,
    "school_name": "Treehouse",
    "lat": 18.9174556,
    "lon": 72.8265135,
    "has_hospital": true,
    "has_police_station": true,
    "has_fire_station": true,
    "dist_hospital_km": 0.633,
    "dist_police_km": 0.727,
    "dist_fire_km": 0.228,
    "emergency_safety_index": 89.41
  },
  {
    "school_index": 3,
    "school_name": "Institute Of Science Colaba",
    "lat": 18.9263126,
    "lon": 72.8300134,
    "has_hospital": true,
    "has_police_station": true,
    "has_fire_station": true,
    "dist_hospital_km": 0.368,
    "dist_police_km": 0.443,
    "dist_fire_km": 0.553,
    "emergency_safety_index": 90.91
  },
  {
    "school_index": 4,
    "school_name": "Sir Jj College Of Commerce",
    "lat": 18.9328461,
    "lon": 72.8322155,
    "has_hospital": true,
    "has_police_station": true,
    "has_fire_station": true,
    "dist_hospital_km": 0.236,
    "dist_police_km": 0.876,
    "dist_fire_km": 0.356,
    "emergency_safety_index": 90.21
  },
  {
    "school_index": 5,
    "school_name": "Leelabai Thackersey College Of Nursing",
    "lat": 18.9383143,
    "lon": 72.8282592,
    "has_hospital": true,
    "has_police_station": true,
    "has_fire_station": true,
    "dist_hospital_km": 0.312,
    "dist_police_km": 0.615,
    "dist_fire_km": 0.365,
    "emergency_safety_index": 91.39
  },
  {
    "school_index": 6,
    "school_name": "Hinduja College",
    "lat": 18.9528083,
    "lon": 72.8184681,
    "has_hospital": true,
    "has_police_station": true,
    "has_fire_station": true,
    "dist_hospital_km": 0.042,
    "dist_police_km": 0.903,
    "dist_fire_km": 1.16,
    "emergency_safety_index": 85.97
  },
  {
    "school_index": 7,
    "school_name": "Edubridge International School",
    "lat": 18.9600399,
    "lon": 72.815365,
    "has_hospital": true,
    "has_police_station": true,
    "has_fire_station": true,
    "dist_hospital_km": 0.404,
    "dist_police_km": 0.181,
    "dist_fire_km": 0.334,
    "emergency_safety_index": 93.87
  },
  {
    "school_index": 8,
    "school_name": "Sant Gadge Maharaj School",
    "lat": 18.9598574,
    "lon": 72.8212203,
    "has_hospital": true,
    "has_police_station": true,
    "has_fire_station": true,
    "dist_hospital_km": 0.173,
    "dist_police_km": 0.45,
    "dist_fire_km": 0.916,
    "emergency_safety_index": 89.74
  },
  {
    "school_index": 9,
    "school_name": "The Universal School Tardeo",
    "lat": 18.9651298,
    "lon": 72.8140038,
    "has_hospital": true,
    "has_police_station": true,
    "has_fire_station": true,
    "dist_hospital_km": 0.08,
    "dist_police_km": 0.416,
    "dist_fire_km": 0.402,
    "emergency_safety_index": 94.01
  },
  {
    "school_index": 10,
    "school_name": "Grant Road Central High School",
    "lat": 18.9634363,
    "lon": 72.8159226,
    "has_hospital": true,
    "has_police_station": true,
    "has_fire_station": true,
    "dist_hospital_km": 0.356,
    "dist_police_km": 0.29,
    "dist_fire_km": 0.386,
    "emergency_safety_index": 93.12
  },
  {
    "school_index": 11,
    "school_name": "Education Inspector South",
    "lat": 18.9675962,
    "lon": 72.8185191,
    "has_hospital": true,
    "has_police_station": true,
    "has_fire_station": true,
    "dist_hospital_km": 0.192,
    "dist_police_km": 0.503,
    "dist_fire_km": 0.893,
    "emergency_safety_index": 89.41
  },
  {
    "school_index": 12,
    "school_name": "Navneet Education Society Night Degree College",
    "lat": 18.9687473,
    "lon": 72.8190128,
    "has_hospital": true,
    "has_police_station": true,
    "has_fire_station": true,
    "dist_hospital_km": 0.291,
    "dist_police_km": 0.515,
    "dist_fire_km": 1.023,
    "emergency_safety_index": 87.81
  },
  {
    "school_index": 13,
    "school_name": "The Golden Spiral School",
    "lat": 18.9737612,
    "lon": 72.813493,
    "has_hospital": true,
    "has_police_station": true,
    "has_fire_station": true,
    "dist_hospital_km": 0.117,
    "dist_police_km": 0.481,
    "dist_fire_km": 1.341,
    "emergency_safety_index": 87.07
  },
  {
    "school_index": 14,
    "school_name": "Nagrik Shikshan Sanstha'S College Of Commerce & Economics",
    "lat": 18.9734614,
    "lon": 72.8127402,
    "has_hospital": true,
    "has_police_station": true,
    "has_fire_station": true,
    "dist_hospital_km": 0.149,
    "dist_police_km": 0.467,
    "dist_fire_km": 1.306,
    "emergency_safety_index": 87.19
  },
  {
    "school_index": 15,
    "school_name": "My Happy Place",
    "lat": 18.9697009,
    "lon": 72.8161877,
    "has_hospital": true,
    "has_police_station": true,
    "has_fire_station": true,
    "dist_hospital_km": 0.18,
    "dist_police_km": 0.213,
    "dist_fire_km": 0.959,
    "emergency_safety_index": 90.99
  },
  {
    "school_index": 16,
    "school_name": "Tardeo Municipal Secondary School",
    "lat": 18.9709943,
    "lon": 72.8173698,
    "has_hospital": true,
    "has_police_station": true,
    "has_fire_station": true,
    "dist_hospital_km": 0.298,
    "dist_police_km": 0.375,
    "dist_fire_km": 1.141,
    "emergency_safety_index": 87.91
  },
  {
    "school_index": 17,
    "school_name": "Maratha Mandir'S Babasaheb Gawde Institute Of Technology",
    "lat": 18.9708186,
    "lon": 72.8220205,
    "has_hospital": true,
    "has_police_station": true,
    "has_fire_station": true,
    "dist_hospital_km": 0.118,
    "dist_police_km": 0.838,
    "dist_fire_km": 1.061,
    "emergency_safety_index": 86.55
  },
  {
    "school_index": 18,
    "school_name": "Kasturba Gandhi Municipal School",
    "lat": 18.9956112,
    "lon": 72.8214434,
    "has_hospital": true,
    "has_police_station": true,
    "has_fire_station": true,
    "dist_hospital_km": 0.457,
    "dist_police_km": 1.106,
    "dist_fire_km": 1.97,
    "emergency_safety_index": 76.45
  },
  {
    "school_index": 19,
    "school_name": "College Building",
    "lat": 18.9677617,
    "lon": 72.8266365,
    "has_hospital": true,
    "has_police_station": true,
    "has_fire_station": true,
    "dist_hospital_km": 0.223,
    "dist_police_km": 0.305,
    "dist_fire_km": 0.766,
    "emergency_safety_index": 91.37
  },
  {
    "school_index": 20,
    "school_name": "Sadhvi Savitribai Phule Upper Primary School",
    "lat": 18.9764347,
    "lon": 72.8319417,
    "has_hospital": true,
    "has_police_station": true,
    "has_fire_station": true,
    "dist_hospital_km": 0.37,
    "dist_police_km": 0.412,
    "dist_fire_km": 0.442,
    "emergency_safety_index": 91.84
  },
  {
    "school_index": 21,
    "school_name": "Worli Naka Upper Primary School-Tamil",
    "lat": 18.9869676,
    "lon": 72.8285467,
    "has_hospital": true,
    "has_police_station": true,
    "has_fire_station": true,
    "dist_hospital_km": 0.225,
    "dist_police_km": 0.556,
    "dist_fire_km": 1.653,
    "emergency_safety_index": 83.77
  },
  {
    "school_index": 22,
    "school_name": "Napoo High School",
    "lat": 18.9871,
    "lon": 72.8347715,
    "has_hospital": true,
    "has_police_station": true,
    "has_fire_station": true,
    "dist_hospital_km": 0.329,
    "dist_police_km": 0.624,
    "dist_fire_km": 1.655,
    "emergency_safety_index": 82.61
  },
  {
    "school_index": 23,
    "school_name": "Sneha Lata Rane Girls High School And Junior College",
    "lat": 18.9861213,
    "lon": 72.8316628,
    "has_hospital": true,
    "has_police_station": true,
    "has_fire_station": true,
    "dist_hospital_km": 0.134,
    "dist_police_km": 0.593,
    "dist_fire_km": 1.52,
    "emergency_safety_index": 85.02
  },
  {
    "school_index": 24,
    "school_name": "Worli Seaface Municipal School",
    "lat": 19.0086699,
    "lon": 72.8157382,
    "has_hospital": true,
    "has_police_station": true,
    "has_fire_station": true,
    "dist_hospital_km": 0.322,
    "dist_police_km": 0.427,
    "dist_fire_km": 0.963,
    "emergency_safety_index": 88.59
  },
  {
    "school_index": 25,
    "school_name": "The Learning Curve Worli",
    "lat": 19.008711,
    "lon": 72.8227848,
    "has_hospital": true,
    "has_police_station": true,
    "has_fire_station": true,
    "dist_hospital_km": 0.41,
    "dist_police_km": 0.691,
    "dist_fire_km": 0.507,
    "emergency_safety_index": 89.28
  },
  {
    "school_index": 26,
    "school_name": "Sasmira'S Institute Of Management Studies And Research",
    "lat": 19.0101483,
    "lon": 72.8198867,
    "has_hospital": true,
    "has_police_station": true,
    "has_fire_station": true,
    "dist_hospital_km": 0.41,
    "dist_police_km": 0.614,
    "dist_fire_km": 0.513,
    "emergency_safety_index": 89.75
  },
  {
    "school_index": 27,
    "school_name": "Sasmira'S Institute Of Man-Made Textiles",
    "lat": 19.0108465,
    "lon": 72.8200915,
    "has_hospital": true,
    "has_police_station": true,
    "has_fire_station": true,
    "dist_hospital_km": 0.341,
    "dist_police_km": 0.693,
    "dist_fire_km": 0.448,
    "emergency_safety_index": 90.12
  },
  {
    "school_index": 28,
    "school_name": "Kamaladevi Gobindram Tahiliani High School",
    "lat": 19.0058854,
    "lon": 72.8304056,
    "has_hospital": true,
    "has_police_station": true,
    "has_fire_station": true,
    "dist_hospital_km": 0.591,
    "dist_police_km": 0.372,
    "dist_fire_km": 1.089,
    "emergency_safety_index": 86.32
  },
  {
    "school_index": 29,
    "school_name": "Sunrise Play School",
    "lat": 19.0107186,
    "lon": 72.8244454,
    "has_hospital": true,
    "has_police_station": true,
    "has_fire_station": true,
    "dist_hospital_km": 0.304,
    "dist_police_km": 0.887,
    "dist_fire_km": 0.294,
    "emergency_safety_index": 90.1
  },
  {
    "school_index": 30,
    "school_name": "Prabhadevi Municipal School",
    "lat": 19.0108648,
    "lon": 72.828683,
    "has_hospital": true,
    "has_police_station": true,
    "has_fire_station": true,
    "dist_hospital_km": 0.299,
    "dist_police_km": 0.482,
    "dist_fire_km": 0.601,
    "emergency_safety_index": 90.79
  },
  {
    "school_index": 31,
    "school_name": "Aba College Of Law",
    "lat": 19.016964,
    "lon": 72.8345634,
    "has_hospital": true,
    "has_police_station": true,
    "has_fire_station": true,
    "dist_hospital_km": 0.197,
    "dist_police_km": 0.242,
    "dist_fire_km": 1.212,
    "emergency_safety_index": 88.99
  },
  {
    "school_index": 32,
    "school_name": "Government Technical High School & Jr College Dadar",
    "lat": 19.019274,
    "lon": 72.8320298,
    "has_hospital": true,
    "has_police_station": true,
    "has_fire_station": true,
    "dist_hospital_km": 0.183,
    "dist_police_km": 0.599,
    "dist_fire_km": 1.118,
    "emergency_safety_index": 87.33
  },
  {
    "school_index": 33,
    "school_name": "Simmba Nursery",
    "lat": 19.0208376,
    "lon": 72.8335822,
    "has_hospital": true,
    "has_police_station": true,
    "has_fire_station": true,
    "dist_hospital_km": 0.075,
    "dist_police_km": 0.585,
    "dist_fire_km": 1.354,
    "emergency_safety_index": 86.57
  },
  {
    "school_index": 34,
    "school_name": "Pragati School",
    "lat": 19.0209617,
    "lon": 72.8356824,
    "has_hospital": true,
    "has_police_station": true,
    "has_fire_station": true,
    "dist_hospital_km": 0.196,
    "dist_police_km": 0.576,
    "dist_fire_km": 1.295,
    "emergency_safety_index": 86.22
  },
  {
    "school_index": 35,
    "school_name": "Padmashali Yuvak Sangh Pre-Primary School",
    "lat": 19.0112423,
    "lon": 72.8442757,
    "has_hospital": true,
    "has_police_station": true,
    "has_fire_station": true,
    "dist_hospital_km": 0.187,
    "dist_police_km": 1.019,
    "dist_fire_km": 0.362,
    "emergency_safety_index": 89.55
  },
  {
    "school_index": 36,
    "school_name": "Kranti Singh Nana Patil Vidyalaya",
    "lat": 19.0108269,
    "lon": 72.8480814,
    "has_hospital": true,
    "has_police_station": true,
    "has_fire_station": true,
    "dist_hospital_km": 0.233,
    "dist_police_km": 1.409,
    "dist_fire_km": 0.45,
    "emergency_safety_index": 86.05
  },
  {
    "school_index": 37,
    "school_name": "Serra International Pre-School",
    "lat": 19.0131929,
    "lon": 72.8484194,
    "has_hospital": true,
    "has_police_station": true,
    "has_fire_station": true,
    "dist_hospital_km": 0.182,
    "dist_police_km": 1.37,
    "dist_fire_km": 0.306,
    "emergency_safety_index": 87.61
  },
  {
    "school_index": 38,
    "school_name": "Guru Nank English High School",
    "lat": 19.0124003,
    "lon": 72.8446515,
    "has_hospital": true,
    "has_police_station": true,
    "has_fire_station": true,
    "dist_hospital_km": 0.146,
    "dist_police_km": 1.012,
    "dist_fire_km": 0.229,
    "emergency_safety_index": 90.75
  },
  {
    "school_index": 39,
    "school_name": "Saraswati College",
    "lat": 19.0190223,
    "lon": 72.841612,
    "has_hospital": true,
    "has_police_station": true,
    "has_fire_station": true,
    "dist_hospital_km": 0.199,
    "dist_police_km": 0.477,
    "dist_fire_km": 0.688,
    "emergency_safety_index": 90.91
  },
  {
    "school_index": 40,
    "school_name": "Saraswati Mandir School",
    "lat": 19.0200022,
    "lon": 72.8481813,
    "has_hospital": true,
    "has_police_station": true,
    "has_fire_station": true,
    "dist_hospital_km": 0.065,
    "dist_police_km": 0.845,
    "dist_fire_km": 0.696,
    "emergency_safety_index": 89.29
  },
  {
    "school_index": 41,
    "school_name": "Patkar Guruji Vidyalaya",
    "lat": 19.0206415,
    "lon": 72.8487774,
    "has_hospital": true,
    "has_police_station": true,
    "has_fire_station": true,
    "dist_hospital_km": 0.11,
    "dist_police_km": 0.876,
    "dist_fire_km": 0.786,
    "emergency_safety_index": 88.19
  },
  {
    "school_index": 42,
    "school_name": "Dnayneshwar Vidyalaya",
    "lat": 19.008134,
    "lon": 72.8543408,
    "has_hospital": true,
    "has_police_station": false,
    "has_fire_station": true,
    "dist_hospital_km": 0.255,
    "dist_police_km": 0.0,
    "dist_fire_km": 1.13,
    "emergency_safety_index": 46.89
  },
  {
    "school_index": 43,
    "school_name": "The Dadar Parsee Youths Assembly High School",
    "lat": 19.0179439,
    "lon": 72.8535649,
    "has_hospital": true,
    "has_police_station": true,
    "has_fire_station": true,
    "dist_hospital_km": 0.548,
    "dist_police_km": 1.455,
    "dist_fire_km": 0.925,
    "emergency_safety_index": 80.48
  },
  {
    "school_index": 44,
    "school_name": "Simmba Daycare And Kindergarten",
    "lat": 19.022073,
    "lon": 72.8343067,
    "has_hospital": true,
    "has_police_station": true,
    "has_fire_station": true,
    "dist_hospital_km": 0.204,
    "dist_police_km": 0.44,
    "dist_fire_km": 1.426,
    "emergency_safety_index": 86.2
  },
  {
    "school_index": 45,
    "school_name": "Kohinoor College Of Hospitality Management & Tourism Studies",
    "lat": 19.0229262,
    "lon": 72.8358686,
    "has_hospital": true,
    "has_police_station": true,
    "has_fire_station": true,
    "dist_hospital_km": 0.164,
    "dist_police_km": 0.372,
    "dist_fire_km": 1.265,
    "emergency_safety_index": 87.99
  },
  {
    "school_index": 46,
    "school_name": "Dadar Vidya Mandir Junior College",
    "lat": 19.028379,
    "lon": 72.8415661,
    "has_hospital": true,
    "has_police_station": true,
    "has_fire_station": true,
    "dist_hospital_km": 0.261,
    "dist_police_km": 0.573,
    "dist_fire_km": 0.528,
    "emergency_safety_index": 90.92
  },
  {
    "school_index": 47,
    "school_name": "Tarabai Modak Pre Primary English Medium School",
    "lat": 19.0224765,
    "lon": 72.8475988,
    "has_hospital": true,
    "has_police_station": true,
    "has_fire_station": true,
    "dist_hospital_km": 0.243,
    "dist_police_km": 0.708,
    "dist_fire_km": 0.942,
    "emergency_safety_index": 87.38
  },
  {
    "school_index": 48,
    "school_name": "Daffodils Play School",
    "lat": 19.0287008,
    "lon": 72.8368204,
    "has_hospital": true,
    "has_police_station": true,
    "has_fire_station": true,
    "dist_hospital_km": 0.465,
    "dist_police_km": 0.383,
    "dist_fire_km": 0.674,
    "emergency_safety_index": 89.85
  },
  {
    "school_index": 49,
    "school_name": "Edustart Multi-Activity Centre",
    "lat": 19.0302467,
    "lon": 72.8381972,
    "has_hospital": true,
    "has_police_station": true,
    "has_fire_station": true,
    "dist_hospital_km": 0.24,
    "dist_police_km": 0.608,
    "dist_fire_km": 0.45,
    "emergency_safety_index": 91.35
  },
  {
    "school_index": 50,
    "school_name": "Tree House Play Group",
    "lat": 19.0314857,
    "lon": 72.8392574,
    "has_hospital": true,
    "has_police_station": true,
    "has_fire_station": true,
    "dist_hospital_km": 0.063,
    "dist_police_km": 0.785,
    "dist_fire_km": 0.274,
    "emergency_safety_index": 92.52
  },
  {
    "school_index": 51,
    "school_name": "St Michaels English Primary School",
    "lat": 19.0313861,
    "lon": 72.8399288,
    "has_hospital": true,
    "has_police_station": true,
    "has_fire_station": true,
    "dist_hospital_km": 0.069,
    "dist_police_km": 0.824,
    "dist_fire_km": 0.235,
    "emergency_safety_index": 92.48
  },
  {
    "school_index": 52,
    "school_name": "R C Mahim Municipal Urdu Primary",
    "lat": 19.0295396,
    "lon": 72.8400202,
    "has_hospital": true,
    "has_police_station": true,
    "has_fire_station": true,
    "dist_hospital_km": 0.216,
    "dist_police_km": 0.698,
    "dist_fire_km": 0.417,
    "emergency_safety_index": 91.13
  },
  {
    "school_index": 53,
    "school_name": "Podar Jumbo Kids",
    "lat": 19.0316654,
    "lon": 72.8428383,
    "has_hospital": true,
    "has_police_station": true,
    "has_fire_station": true,
    "dist_hospital_km": 0.163,
    "dist_police_km": 0.956,
    "dist_fire_km": 0.235,
    "emergency_safety_index": 90.97
  },
  {
    "school_index": 54,
    "school_name": "Bubblez World Preschool",
    "lat": 19.0326492,
    "lon": 72.8440265,
    "has_hospital": true,
    "has_police_station": true,
    "has_fire_station": true,
    "dist_hospital_km": 0.329,
    "dist_police_km": 1.094,
    "dist_fire_km": 0.301,
    "emergency_safety_index": 88.51
  },
  {
    "school_index": 55,
    "school_name": "Little Angels Nursery Jr & Sr K G",
    "lat": 19.0381969,
    "lon": 72.8390078,
    "has_hospital": true,
    "has_police_station": true,
    "has_fire_station": true,
    "dist_hospital_km": 0.118,
    "dist_police_km": 0.456,
    "dist_fire_km": 0.61,
    "emergency_safety_index": 92.11
  },
  {
    "school_index": 56,
    "school_name": "St Michaels Pre-Primary School",
    "lat": 19.0413702,
    "lon": 72.8410917,
    "has_hospital": true,
    "has_police_station": true,
    "has_fire_station": true,
    "dist_hospital_km": 0.209,
    "dist_police_km": 0.13,
    "dist_fire_km": 0.918,
    "emergency_safety_index": 91.62
  },
  {
    "school_index": 57,
    "school_name": "Mcgm L K Waghji Mumbai Public School",
    "lat": 19.0271372,
    "lon": 72.8516675,
    "has_hospital": true,
    "has_police_station": true,
    "has_fire_station": true,
    "dist_hospital_km": 0.206,
    "dist_police_km": 0.777,
    "dist_fire_km": 1.285,
    "emergency_safety_index": 84.88
  },
  {
    "school_index": 58,
    "school_name": "Little More Pre School",
    "lat": 19.022245,
    "lon": 72.8498777,
    "has_hospital": true,
    "has_police_station": true,
    "has_fire_station": true,
    "dist_hospital_km": 0.088,
    "dist_police_km": 0.949,
    "dist_fire_km": 0.996,
    "emergency_safety_index": 86.45
  },
  {
    "school_index": 59,
    "school_name": "Shree Amulakh Amichand Bhimji Vividhlakshi Vidyalaya",
    "lat": 19.0270588,
    "lon": 72.8602496,
    "has_hospital": true,
    "has_police_station": true,
    "has_fire_station": true,
    "dist_hospital_km": 0.427,
    "dist_police_km": 0.515,
    "dist_fire_km": 1.549,
    "emergency_safety_index": 83.39
  },
  {
    "school_index": 60,
    "school_name": "I H Bhatia English Primary School",
    "lat": 19.0263438,
    "lon": 72.8604438,
    "has_hospital": true,
    "has_police_station": true,
    "has_fire_station": true,
    "dist_hospital_km": 0.508,
    "dist_police_km": 0.595,
    "dist_fire_km": 1.63,
    "emergency_safety_index": 81.78
  },
  {
    "school_index": 61,
    "school_name": "Little Angels' High School",
    "lat": 19.0372258,
    "lon": 72.8550806,
    "has_hospital": true,
    "has_police_station": true,
    "has_fire_station": true,
    "dist_hospital_km": 0.308,
    "dist_police_km": 0.707,
    "dist_fire_km": 0.295,
    "emergency_safety_index": 91.27
  },
  {
    "school_index": 62,
    "school_name": "Matunga Labour Camp Upper Primary Marathi School",
    "lat": 19.0358812,
    "lon": 72.8527661,
    "has_hospital": true,
    "has_police_station": true,
    "has_fire_station": true,
    "dist_hospital_km": 0.468,
    "dist_police_km": 0.717,
    "dist_fire_km": 0.433,
    "emergency_safety_index": 89.21
  },
  {
    "school_index": 63,
    "school_name": "St Peter'S Kindergarten",
    "lat": 19.054381,
    "lon": 72.8310483,
    "has_hospital": true,
    "has_police_station": true,
    "has_fire_station": true,
    "dist_hospital_km": 0.325,
    "dist_police_km": 0.419,
    "dist_fire_km": 0.813,
    "emergency_safety_index": 89.62
  },
  {
    "school_index": 64,
    "school_name": "Apostolic Carmel Convent Girl'S School",
    "lat": 19.0550042,
    "lon": 72.8262102,
    "has_hospital": true,
    "has_police_station": true,
    "has_fire_station": true,
    "dist_hospital_km": 0.11,
    "dist_police_km": 0.46,
    "dist_fire_km": 1.297,
    "emergency_safety_index": 87.55
  },
  {
    "school_index": 65,
    "school_name": "St Andrews College Gate",
    "lat": 19.0572924,
    "lon": 72.8287811,
    "has_hospital": true,
    "has_police_station": true,
    "has_fire_station": true,
    "dist_hospital_km": 0.264,
    "dist_police_km": 0.618,
    "dist_fire_km": 1.197,
    "emergency_safety_index": 86.14
  },
  {
    "school_index": 66,
    "school_name": "Learner'S Academy I C S E School",
    "lat": 19.061141,
    "lon": 72.8270872,
    "has_hospital": true,
    "has_police_station": true,
    "has_fire_station": true,
    "dist_hospital_km": 0.627,
    "dist_police_km": 0.293,
    "dist_fire_km": 1.621,
    "emergency_safety_index": 83.06
  },
  {
    "school_index": 67,
    "school_name": "St Andrew'S College Of Arts Science And Commerce",
    "lat": 19.0564763,
    "lon": 72.8290034,
    "has_hospital": true,
    "has_police_station": true,
    "has_fire_station": true,
    "dist_hospital_km": 0.224,
    "dist_police_km": 0.642,
    "dist_fire_km": 1.122,
    "emergency_safety_index": 86.75
  },
  {
    "school_index": 68,
    "school_name": "Duruelo Convent High School",
    "lat": 19.0608358,
    "lon": 72.8327783,
    "has_hospital": true,
    "has_police_station": true,
    "has_fire_station": true,
    "dist_hospital_km": 0.318,
    "dist_police_km": 0.435,
    "dist_fire_km": 1.26,
    "emergency_safety_index": 86.58
  },
  {
    "school_index": 69,
    "school_name": "Circles & Cycles - Preschool In Bandra",
    "lat": 19.0587784,
    "lon": 72.8325109,
    "has_hospital": true,
    "has_police_station": true,
    "has_fire_station": true,
    "dist_hospital_km": 0.184,
    "dist_police_km": 0.466,
    "dist_fire_km": 1.068,
    "emergency_safety_index": 88.55
  },
  {
    "school_index": 70,
    "school_name": "Sheila Raheja Institute Of Hotel Management",
    "lat": 19.0592743,
    "lon": 72.8439117,
    "has_hospital": true,
    "has_police_station": true,
    "has_fire_station": true,
    "dist_hospital_km": 0.234,
    "dist_police_km": 0.211,
    "dist_fire_km": 1.187,
    "emergency_safety_index": 89.12
  },
  {
    "school_index": 71,
    "school_name": "Safari Kid",
    "lat": 19.0614758,
    "lon": 72.8292224,
    "has_hospital": true,
    "has_police_station": true,
    "has_fire_station": true,
    "dist_hospital_km": 0.582,
    "dist_police_km": 0.151,
    "dist_fire_km": 1.508,
    "emergency_safety_index": 85.06
  },
  {
    "school_index": 72,
    "school_name": "Podar Prep",
    "lat": 19.0646961,
    "lon": 72.829813,
    "has_hospital": true,
    "has_police_station": true,
    "has_fire_station": true,
    "dist_hospital_km": 0.272,
    "dist_police_km": 0.216,
    "dist_fire_km": 1.782,
    "emergency_safety_index": 84.87
  },
  {
    "school_index": 73,
    "school_name": "Mmk College",
    "lat": 19.0642652,
    "lon": 72.8358458,
    "has_hospital": true,
    "has_police_station": true,
    "has_fire_station": true,
    "dist_hospital_km": 0.087,
    "dist_police_km": 0.136,
    "dist_fire_km": 1.548,
    "emergency_safety_index": 88.19
  },
  {
    "school_index": 74,
    "school_name": "Rizvi College",
    "lat": 19.0684106,
    "lon": 72.8244647,
    "has_hospital": true,
    "has_police_station": true,
    "has_fire_station": false,
    "dist_hospital_km": 0.66,
    "dist_police_km": 0.65,
    "dist_fire_km": 0.0,
    "emergency_safety_index": 47.3
  },
  {
    "school_index": 75,
    "school_name": "Cildren Welfare Association",
    "lat": 19.0620152,
    "lon": 72.8457943,
    "has_hospital": true,
    "has_police_station": true,
    "has_fire_station": true,
    "dist_hospital_km": 0.082,
    "dist_police_km": 0.275,
    "dist_fire_km": 1.551,
    "emergency_safety_index": 87.28
  },
  {
    "school_index": 76,
    "school_name": "Podar International School",
    "lat": 19.0694479,
    "lon": 72.837565,
    "has_hospital": true,
    "has_police_station": true,
    "has_fire_station": true,
    "dist_hospital_km": 0.113,
    "dist_police_km": 0.383,
    "dist_fire_km": 1.89,
    "emergency_safety_index": 84.09
  },
  {
    "school_index": 77,
    "school_name": "American School Of Bombay",
    "lat": 19.067664,
    "lon": 72.870696,
    "has_hospital": true,
    "has_police_station": true,
    "has_fire_station": false,
    "dist_hospital_km": 0.552,
    "dist_police_km": 1.108,
    "dist_fire_km": 0.0,
    "emergency_safety_index": 45.4
  },
  {
    "school_index": 78,
    "school_name": "Podar International School",
    "lat": 19.0790492,
    "lon": 72.8379688,
    "has_hospital": true,
    "has_police_station": true,
    "has_fire_station": true,
    "dist_hospital_km": 0.063,
    "dist_police_km": 0.63,
    "dist_fire_km": 0.994,
    "emergency_safety_index": 88.75
  },
  {
    "school_index": 79,
    "school_name": "Classic",
    "lat": 19.0835527,
    "lon": 72.8384747,
    "has_hospital": true,
    "has_police_station": true,
    "has_fire_station": true,
    "dist_hospital_km": 0.108,
    "dist_police_km": 0.337,
    "dist_fire_km": 0.783,
    "emergency_safety_index": 91.81
  },
  {
    "school_index": 80,
    "school_name": "Smt Lilavatibai Podar High School",
    "lat": 19.0810735,
    "lon": 72.8371727,
    "has_hospital": true,
    "has_police_station": true,
    "has_fire_station": true,
    "dist_hospital_km": 0.209,
    "dist_police_km": 0.392,
    "dist_fire_km": 0.783,
    "emergency_safety_index": 90.77
  },
  {
    "school_index": 81,
    "school_name": "Patuck Technical School Ground",
    "lat": 19.0815575,
    "lon": 72.8494373,
    "has_hospital": true,
    "has_police_station": true,
    "has_fire_station": true,
    "dist_hospital_km": 0.554,
    "dist_police_km": 1.511,
    "dist_fire_km": 1.955,
    "emergency_safety_index": 73.2
  },
  {
    "school_index": 82,
    "school_name": "Juhu Tara Municipal School",
    "lat": 19.0919763,
    "lon": 72.8282127,
    "has_hospital": true,
    "has_police_station": true,
    "has_fire_station": true,
    "dist_hospital_km": 0.956,
    "dist_police_km": 0.519,
    "dist_fire_km": 0.802,
    "emergency_safety_index": 84.82
  },
  {
    "school_index": 83,
    "school_name": "St Anthony S School",
    "lat": 19.0798623,
    "lon": 72.8532055,
    "has_hospital": true,
    "has_police_station": true,
    "has_fire_station": false,
    "dist_hospital_km": 0.139,
    "dist_police_km": 1.58,
    "dist_fire_km": 0.0,
    "emergency_safety_index": 45.08
  },
  {
    "school_index": 84,
    "school_name": "St Charles Girls' High Chool Ground",
    "lat": 19.0803065,
    "lon": 72.855288,
    "has_hospital": true,
    "has_police_station": true,
    "has_fire_station": false,
    "dist_hospital_km": 0.09,
    "dist_police_km": 1.685,
    "dist_fire_km": 0.0,
    "emergency_safety_index": 44.77
  },
  {
    "school_index": 85,
    "school_name": "Muncipality School",
    "lat": 19.0287852,
    "lon": 72.8978084,
    "has_hospital": true,
    "has_police_station": false,
    "has_fire_station": false,
    "dist_hospital_km": 0.752,
    "dist_police_km": 0.0,
    "dist_fire_km": 0.0,
    "emergency_safety_index": 16.35
  },
  {
    "school_index": 86,
    "school_name": "Tata Power Skill Development Institute",
    "lat": 19.0219525,
    "lon": 72.9257834,
    "has_hospital": false,
    "has_police_station": false,
    "has_fire_station": false,
    "dist_hospital_km": 0.0,
    "dist_police_km": 0.0,
    "dist_fire_km": 0.0,
    "emergency_safety_index": 0.0
  },
  {
    "school_index": 87,
    "school_name": "Atomic Energy Central School -1",
    "lat": 19.0408105,
    "lon": 72.9200122,
    "has_hospital": true,
    "has_police_station": true,
    "has_fire_station": false,
    "dist_hospital_km": 1.041,
    "dist_police_km": 0.913,
    "dist_fire_km": 0.0,
    "emergency_safety_index": 43.8
  },
  {
    "school_index": 88,
    "school_name": "Home For Mental Deficient Childern",
    "lat": 19.0436727,
    "lon": 72.9256871,
    "has_hospital": true,
    "has_police_station": true,
    "has_fire_station": false,
    "dist_hospital_km": 0.982,
    "dist_police_km": 1.021,
    "dist_fire_km": 0.0,
    "emergency_safety_index": 43.53
  },
  {
    "school_index": 89,
    "school_name": "Vivekanand English High School",
    "lat": 19.0344233,
    "lon": 72.9441845,
    "has_hospital": true,
    "has_police_station": true,
    "has_fire_station": false,
    "dist_hospital_km": 0.717,
    "dist_police_km": 0.415,
    "dist_fire_km": 0.0,
    "emergency_safety_index": 48.27
  },
  {
    "school_index": 90,
    "school_name": "Trombay Municipal Marathi School",
    "lat": 19.0338443,
    "lon": 72.9493518,
    "has_hospital": true,
    "has_police_station": true,
    "has_fire_station": false,
    "dist_hospital_km": 0.594,
    "dist_police_km": 0.263,
    "dist_fire_km": 0.0,
    "emergency_safety_index": 49.77
  },
  {
    "school_index": 91,
    "school_name": "Kendriya Vidyalaya Mankhurd",
    "lat": 19.0392488,
    "lon": 72.9393322,
    "has_hospital": true,
    "has_police_station": true,
    "has_fire_station": false,
    "dist_hospital_km": 0.996,
    "dist_police_km": 0.638,
    "dist_fire_km": 0.0,
    "emergency_safety_index": 45.54
  },
  {
    "school_index": 92,
    "school_name": "Naval Kg School Mankhurd",
    "lat": 19.0391251,
    "lon": 72.938827,
    "has_hospital": true,
    "has_police_station": true,
    "has_fire_station": false,
    "dist_hospital_km": 1.049,
    "dist_police_km": 0.687,
    "dist_fire_km": 0.0,
    "emergency_safety_index": 44.98
  },
  {
    "school_index": 93,
    "school_name": "Nofra Mankhurd",
    "lat": 19.039155,
    "lon": 72.9400359,
    "has_hospital": true,
    "has_police_station": true,
    "has_fire_station": false,
    "dist_hospital_km": 0.922,
    "dist_police_km": 0.563,
    "dist_fire_km": 0.0,
    "emergency_safety_index": 46.35
  },
  {
    "school_index": 94,
    "school_name": "Padua High School",
    "lat": 19.0464086,
    "lon": 72.9290015,
    "has_hospital": true,
    "has_police_station": true,
    "has_fire_station": false,
    "dist_hospital_km": 1.007,
    "dist_police_km": 0.743,
    "dist_fire_km": 0.0,
    "emergency_safety_index": 44.91
  },
  {
    "school_index": 95,
    "school_name": "Sana Classes",
    "lat": 19.0405291,
    "lon": 72.9470838,
    "has_hospital": true,
    "has_police_station": true,
    "has_fire_station": false,
    "dist_hospital_km": 0.237,
    "dist_police_km": 0.339,
    "dist_fire_km": 0.0,
    "emergency_safety_index": 51.3
  },
  {
    "school_index": 96,
    "school_name": "Sir Sayyad English High School",
    "lat": 19.0366365,
    "lon": 72.9456677,
    "has_hospital": true,
    "has_police_station": true,
    "has_fire_station": false,
    "dist_hospital_km": 0.434,
    "dist_police_km": 0.159,
    "dist_fire_km": 0.0,
    "emergency_safety_index": 51.21
  },
  {
    "school_index": 97,
    "school_name": "Crescent High School",
    "lat": 19.0355691,
    "lon": 72.9456677,
    "has_hospital": true,
    "has_police_station": true,
    "has_fire_station": false,
    "dist_hospital_km": 0.518,
    "dist_police_km": 0.275,
    "dist_fire_km": 0.0,
    "emergency_safety_index": 50.12
  },
  {
    "school_index": 98,
    "school_name": "Azad School",
    "lat": 19.0408975,
    "lon": 72.9487218,
    "has_hospital": true,
    "has_police_station": true,
    "has_fire_station": false,
    "dist_hospital_km": 0.193,
    "dist_police_km": 0.485,
    "dist_fire_km": 0.0,
    "emergency_safety_index": 50.74
  },
  {
    "school_index": 99,
    "school_name": "Ideal High School And Jr College",
    "lat": 19.0373462,
    "lon": 72.9498848,
    "has_hospital": true,
    "has_police_station": true,
    "has_fire_station": false,
    "dist_hospital_km": 0.231,
    "dist_police_km": 0.134,
    "dist_fire_km": 0.0,
    "emergency_safety_index": 52.45
  },
  {
    "school_index": 100,
    "school_name": "Sahaji Nagar Municipal School No 1",
    "lat": 19.036379,
    "lon": 72.9500212,
    "has_hospital": true,
    "has_police_station": true,
    "has_fire_station": false,
    "dist_hospital_km": 0.335,
    "dist_police_km": 0.027,
    "dist_fire_km": 0.0,
    "emergency_safety_index": 52.46
  },
  {
    "school_index": 101,
    "school_name": "Fazlani Star English High School And Junior College",
    "lat": 19.0378275,
    "lon": 72.951103,
    "has_hospital": true,
    "has_police_station": true,
    "has_fire_station": false,
    "dist_hospital_km": 0.283,
    "dist_police_km": 0.223,
    "dist_fire_km": 0.0,
    "emergency_safety_index": 51.68
  },
  {
    "school_index": 102,
    "school_name": "Swami Viveka Nand Marathi School",
    "lat": 19.0605963,
    "lon": 72.8882603,
    "has_hospital": true,
    "has_police_station": true,
    "has_fire_station": true,
    "dist_hospital_km": 0.324,
    "dist_police_km": 0.305,
    "dist_fire_km": 0.873,
    "emergency_safety_index": 89.99
  },
  {
    "school_index": 103,
    "school_name": "Sevadaan Special School",
    "lat": 19.0560049,
    "lon": 72.9021934,
    "has_hospital": true,
    "has_police_station": true,
    "has_fire_station": true,
    "dist_hospital_km": 0.368,
    "dist_police_km": 0.698,
    "dist_fire_km": 0.926,
    "emergency_safety_index": 86.72
  },
  {
    "school_index": 104,
    "school_name": "Ylps High School",
    "lat": 19.0596377,
    "lon": 72.8973468,
    "has_hospital": true,
    "has_police_station": true,
    "has_fire_station": true,
    "dist_hospital_km": 0.068,
    "dist_police_km": 0.603,
    "dist_fire_km": 0.696,
    "emergency_safety_index": 90.89
  },
  {
    "school_index": 105,
    "school_name": "Anjuman Islam Allana Girls High School",
    "lat": 19.0729222,
    "lon": 72.879712,
    "has_hospital": true,
    "has_police_station": true,
    "has_fire_station": true,
    "dist_hospital_km": 0.283,
    "dist_police_km": 0.493,
    "dist_fire_km": 1.437,
    "emergency_safety_index": 85.25
  },
  {
    "school_index": 106,
    "school_name": "Orchids The International School Kurla",
    "lat": 19.0678395,
    "lon": 72.8791177,
    "has_hospital": true,
    "has_police_station": true,
    "has_fire_station": true,
    "dist_hospital_km": 0.202,
    "dist_police_km": 0.359,
    "dist_fire_km": 1.979,
    "emergency_safety_index": 83.07
  },
  {
    "school_index": 107,
    "school_name": "National Job Development Center",
    "lat": 19.0524328,
    "lon": 72.904674,
    "has_hospital": true,
    "has_police_station": true,
    "has_fire_station": true,
    "dist_hospital_km": 0.271,
    "dist_police_km": 0.571,
    "dist_fire_km": 1.195,
    "emergency_safety_index": 86.42
  },
  {
    "school_index": 108,
    "school_name": "Saraswati High School",
    "lat": 19.0600221,
    "lon": 72.9112619,
    "has_hospital": true,
    "has_police_station": true,
    "has_fire_station": true,
    "dist_hospital_km": 0.028,
    "dist_police_km": 0.07,
    "dist_fire_km": 1.962,
    "emergency_safety_index": 86.27
  },
  {
    "school_index": 109,
    "school_name": "Marthoma School Maharastra",
    "lat": 19.0577118,
    "lon": 72.9106856,
    "has_hospital": true,
    "has_police_station": true,
    "has_fire_station": true,
    "dist_hospital_km": 0.201,
    "dist_police_km": 0.226,
    "dist_fire_km": 1.839,
    "emergency_safety_index": 84.89
  },
  {
    "school_index": 110,
    "school_name": "Amarnath High School & Jr College",
    "lat": 19.0565706,
    "lon": 72.9110965,
    "has_hospital": true,
    "has_police_station": true,
    "has_fire_station": true,
    "dist_hospital_km": 0.289,
    "dist_police_km": 0.255,
    "dist_fire_km": 1.861,
    "emergency_safety_index": 83.97
  },
  {
    "school_index": 111,
    "school_name": "Agarwadi Hindi & Marathi School",
    "lat": 19.0480876,
    "lon": 72.9269581,
    "has_hospital": true,
    "has_police_station": true,
    "has_fire_station": false,
    "dist_hospital_km": 0.731,
    "dist_police_km": 0.53,
    "dist_fire_km": 0.0,
    "emergency_safety_index": 47.57
  },
  {
    "school_index": 112,
    "school_name": "Sun Grace Convent School &College",
    "lat": 19.0497112,
    "lon": 72.9271129,
    "has_hospital": true,
    "has_police_station": true,
    "has_fire_station": false,
    "dist_hospital_km": 0.598,
    "dist_police_km": 0.349,
    "dist_fire_km": 0.0,
    "emergency_safety_index": 49.28
  },
  {
    "school_index": 113,
    "school_name": "Modern English School",
    "lat": 19.065657,
    "lon": 72.9063356,
    "has_hospital": true,
    "has_police_station": true,
    "has_fire_station": true,
    "dist_hospital_km": 0.495,
    "dist_police_km": 0.376,
    "dist_fire_km": 1.829,
    "emergency_safety_index": 82.0
  },
  {
    "school_index": 114,
    "school_name": "Aisha English High School",
    "lat": 19.0662799,
    "lon": 72.9214798,
    "has_hospital": true,
    "has_police_station": true,
    "has_fire_station": false,
    "dist_hospital_km": 0.323,
    "dist_police_km": 1.276,
    "dist_fire_km": 0.0,
    "emergency_safety_index": 45.73
  },
  {
    "school_index": 115,
    "school_name": "Noor-Ul-Islam Urdu High School",
    "lat": 19.0668894,
    "lon": 72.9210544,
    "has_hospital": true,
    "has_police_station": true,
    "has_fire_station": false,
    "dist_hospital_km": 0.274,
    "dist_police_km": 1.283,
    "dist_fire_km": 0.0,
    "emergency_safety_index": 45.96
  },
  {
    "school_index": 116,
    "school_name": "Noor-Ul-Islam Urdu School",
    "lat": 19.0653349,
    "lon": 72.9209885,
    "has_hospital": true,
    "has_police_station": true,
    "has_fire_station": false,
    "dist_hospital_km": 0.213,
    "dist_police_km": 1.174,
    "dist_fire_km": 0.0,
    "emergency_safety_index": 46.88
  },
  {
    "school_index": 117,
    "school_name": "Daffodil School",
    "lat": 19.0623206,
    "lon": 72.924533,
    "has_hospital": true,
    "has_police_station": true,
    "has_fire_station": false,
    "dist_hospital_km": 0.163,
    "dist_police_km": 1.087,
    "dist_fire_km": 0.0,
    "emergency_safety_index": 47.63
  },
  {
    "school_index": 118,
    "school_name": "Uniqe Hindi High School",
    "lat": 19.0635505,
    "lon": 72.9282964,
    "has_hospital": true,
    "has_police_station": true,
    "has_fire_station": false,
    "dist_hospital_km": 0.219,
    "dist_police_km": 1.197,
    "dist_fire_km": 0.0,
    "emergency_safety_index": 46.73
  },
  {
    "school_index": 119,
    "school_name": "Jafafi English High School",
    "lat": 19.0686999,
    "lon": 72.9205399,
    "has_hospital": true,
    "has_police_station": true,
    "has_fire_station": false,
    "dist_hospital_km": 0.181,
    "dist_police_km": 1.383,
    "dist_fire_km": 0.0,
    "emergency_safety_index": 45.92
  },
  {
    "school_index": 120,
    "school_name": "Munciple Urdu High School",
    "lat": 19.068501,
    "lon": 72.9216791,
    "has_hospital": true,
    "has_police_station": true,
    "has_fire_station": false,
    "dist_hospital_km": 0.087,
    "dist_police_km": 1.451,
    "dist_fire_km": 0.0,
    "emergency_safety_index": 46.06
  },
  {
    "school_index": 121,
    "school_name": "Madersa Ayesha Lil-Banat Education Trest",
    "lat": 19.0714514,
    "lon": 72.9207279,
    "has_hospital": true,
    "has_police_station": true,
    "has_fire_station": false,
    "dist_hospital_km": 0.304,
    "dist_police_km": 1.633,
    "dist_fire_km": 0.0,
    "emergency_safety_index": 43.89
  },
  {
    "school_index": 122,
    "school_name": "Al-Kauser Urdu High School",
    "lat": 19.0678035,
    "lon": 72.9226363,
    "has_hospital": true,
    "has_police_station": true,
    "has_fire_station": false,
    "dist_hospital_km": 0.151,
    "dist_police_km": 1.476,
    "dist_fire_km": 0.0,
    "emergency_safety_index": 45.58
  },
  {
    "school_index": 123,
    "school_name": "Yogiraj Shree Krishna Vidyalaya",
    "lat": 19.0953731,
    "lon": 72.8868735,
    "has_hospital": true,
    "has_police_station": true,
    "has_fire_station": true,
    "dist_hospital_km": 0.092,
    "dist_police_km": 0.764,
    "dist_fire_km": 1.221,
    "emergency_safety_index": 86.15
  },
  {
    "school_index": 124,
    "school_name": "Eden Garden School And Jr College",
    "lat": 19.0958109,
    "lon": 72.8861224,
    "has_hospital": true,
    "has_police_station": true,
    "has_fire_station": true,
    "dist_hospital_km": 0.169,
    "dist_police_km": 0.854,
    "dist_fire_km": 1.266,
    "emergency_safety_index": 84.74
  },
  {
    "school_index": 125,
    "school_name": "Kpm High School",
    "lat": 19.0950394,
    "lon": 72.8877852,
    "has_hospital": true,
    "has_police_station": true,
    "has_fire_station": true,
    "dist_hospital_km": 0.093,
    "dist_police_km": 0.673,
    "dist_fire_km": 1.196,
    "emergency_safety_index": 86.92
  },
  {
    "school_index": 126,
    "school_name": "Theresa High School",
    "lat": 19.0982356,
    "lon": 72.8924407,
    "has_hospital": true,
    "has_police_station": true,
    "has_fire_station": true,
    "dist_hospital_km": 0.047,
    "dist_police_km": 0.872,
    "dist_fire_km": 1.68,
    "emergency_safety_index": 82.67
  },
  {
    "school_index": 127,
    "school_name": "Lokmanya Vidya Mandir",
    "lat": 19.0990133,
    "lon": 72.8896208,
    "has_hospital": true,
    "has_police_station": true,
    "has_fire_station": true,
    "dist_hospital_km": 0.218,
    "dist_police_km": 0.986,
    "dist_fire_km": 1.667,
    "emergency_safety_index": 80.86
  },
  {
    "school_index": 128,
    "school_name": "Svdd",
    "lat": 19.0827272,
    "lon": 72.9083633,
    "has_hospital": true,
    "has_police_station": true,
    "has_fire_station": false,
    "dist_hospital_km": 0.096,
    "dist_police_km": 1.81,
    "dist_fire_km": 0.0,
    "emergency_safety_index": 44.06
  },
  {
    "school_index": 129,
    "school_name": "Bmc School",
    "lat": 19.0780237,
    "lon": 72.9171164,
    "has_hospital": true,
    "has_police_station": true,
    "has_fire_station": false,
    "dist_hospital_km": 0.041,
    "dist_police_km": 1.897,
    "dist_fire_km": 0.0,
    "emergency_safety_index": 43.88
  },
  {
    "school_index": 130,
    "school_name": "Ruby English High School",
    "lat": 19.0627799,
    "lon": 72.9293832,
    "has_hospital": true,
    "has_police_station": true,
    "has_fire_station": false,
    "dist_hospital_km": 0.182,
    "dist_police_km": 1.13,
    "dist_fire_km": 0.0,
    "emergency_safety_index": 47.29
  },
  {
    "school_index": 131,
    "school_name": "Citizen English High School",
    "lat": 19.0650742,
    "lon": 72.9289023,
    "has_hospital": true,
    "has_police_station": true,
    "has_fire_station": false,
    "dist_hospital_km": 0.328,
    "dist_police_km": 1.373,
    "dist_fire_km": 0.0,
    "emergency_safety_index": 45.17
  },
  {
    "school_index": 132,
    "school_name": "Holy Cross Convent",
    "lat": 19.1318859,
    "lon": 72.8141999,
    "has_hospital": true,
    "has_police_station": true,
    "has_fire_station": false,
    "dist_hospital_km": 0.328,
    "dist_police_km": 0.658,
    "dist_fire_km": 0.0,
    "emergency_safety_index": 49.07
  },
  {
    "school_index": 133,
    "school_name": "Clover Leaf Learning Academy",
    "lat": 19.1337102,
    "lon": 72.8125665,
    "has_hospital": true,
    "has_police_station": true,
    "has_fire_station": false,
    "dist_hospital_km": 0.229,
    "dist_police_km": 0.395,
    "dist_fire_km": 0.0,
    "emergency_safety_index": 51.04
  },
  {
    "school_index": 134,
    "school_name": "Montessori Pre-School",
    "lat": 19.1396721,
    "lon": 72.820889,
    "has_hospital": true,
    "has_police_station": true,
    "has_fire_station": false,
    "dist_hospital_km": 0.408,
    "dist_police_km": 1.125,
    "dist_fire_km": 0.0,
    "emergency_safety_index": 46.09
  },
  {
    "school_index": 135,
    "school_name": "Kishore Namit Kapoor Acting Institute",
    "lat": 19.1398687,
    "lon": 72.8194616,
    "has_hospital": true,
    "has_police_station": true,
    "has_fire_station": false,
    "dist_hospital_km": 0.507,
    "dist_police_km": 0.99,
    "dist_fire_km": 0.0,
    "emergency_safety_index": 46.28
  },
  {
    "school_index": 136,
    "school_name": "Ptv Marathi Medium",
    "lat": 19.1041413,
    "lon": 72.847653,
    "has_hospital": true,
    "has_police_station": true,
    "has_fire_station": false,
    "dist_hospital_km": 0.123,
    "dist_police_km": 1.574,
    "dist_fire_km": 0.0,
    "emergency_safety_index": 45.2
  },
  {
    "school_index": 137,
    "school_name": "Cosmopolitan Education Society",
    "lat": 19.1246547,
    "lon": 72.8299769,
    "has_hospital": true,
    "has_police_station": true,
    "has_fire_station": false,
    "dist_hospital_km": 0.339,
    "dist_police_km": 0.03,
    "dist_fire_km": 0.0,
    "emergency_safety_index": 52.42
  },
  {
    "school_index": 138,
    "school_name": "Aakash Institute",
    "lat": 19.1194001,
    "lon": 72.8455521,
    "has_hospital": true,
    "has_police_station": true,
    "has_fire_station": false,
    "dist_hospital_km": 0.057,
    "dist_police_km": 1.672,
    "dist_fire_km": 0.0,
    "emergency_safety_index": 45.02
  },
  {
    "school_index": 139,
    "school_name": "Iitian'S Pace - Andheri",
    "lat": 19.1203044,
    "lon": 72.8454164,
    "has_hospital": true,
    "has_police_station": true,
    "has_fire_station": false,
    "dist_hospital_km": 0.116,
    "dist_police_km": 1.637,
    "dist_fire_km": 0.0,
    "emergency_safety_index": 44.89
  },
  {
    "school_index": 140,
    "school_name": "Shivaji School",
    "lat": 19.1044999,
    "lon": 72.8509934,
    "has_hospital": true,
    "has_police_station": true,
    "has_fire_station": false,
    "dist_hospital_km": 0.122,
    "dist_police_km": 1.927,
    "dist_fire_km": 0.0,
    "emergency_safety_index": 43.28
  },
  {
    "school_index": 141,
    "school_name": "Little Feet",
    "lat": 19.1103536,
    "lon": 72.8522706,
    "has_hospital": true,
    "has_police_station": false,
    "has_fire_station": false,
    "dist_hospital_km": 0.362,
    "dist_police_km": 0.0,
    "dist_fire_km": 0.0,
    "emergency_safety_index": 17.85
  },
  {
    "school_index": 142,
    "school_name": "Mumbai Public School",
    "lat": 19.1098119,
    "lon": 72.852419,
    "has_hospital": true,
    "has_police_station": false,
    "has_fire_station": false,
    "dist_hospital_km": 0.369,
    "dist_police_km": 0.0,
    "dist_fire_km": 0.0,
    "emergency_safety_index": 17.82
  },
  {
    "school_index": 143,
    "school_name": "Shri Kalgidar Mission High School",
    "lat": 19.1098804,
    "lon": 72.8656323,
    "has_hospital": true,
    "has_police_station": false,
    "has_fire_station": true,
    "dist_hospital_km": 0.151,
    "dist_police_km": 0.0,
    "dist_fire_km": 1.287,
    "emergency_safety_index": 46.61
  },
  {
    "school_index": 144,
    "school_name": "Shri Ghanshamdas Podhar Vidyalay Rajasthani School",
    "lat": 19.1115552,
    "lon": 72.8679618,
    "has_hospital": true,
    "has_police_station": true,
    "has_fire_station": true,
    "dist_hospital_km": 0.084,
    "dist_police_km": 2.196,
    "dist_fire_km": 1.065,
    "emergency_safety_index": 77.7
  },
  {
    "school_index": 145,
    "school_name": "Rims Internation School",
    "lat": 19.1515079,
    "lon": 72.8297934,
    "has_hospital": true,
    "has_police_station": true,
    "has_fire_station": true,
    "dist_hospital_km": 0.511,
    "dist_police_km": 0.477,
    "dist_fire_km": 1.128,
    "emergency_safety_index": 85.89
  },
  {
    "school_index": 146,
    "school_name": "Hvps College",
    "lat": 19.150747,
    "lon": 72.8306517,
    "has_hospital": true,
    "has_police_station": true,
    "has_fire_station": true,
    "dist_hospital_km": 0.432,
    "dist_police_km": 0.365,
    "dist_fire_km": 1.061,
    "emergency_safety_index": 87.61
  },
  {
    "school_index": 147,
    "school_name": "Billabong International School",
    "lat": 19.2024655,
    "lon": 72.8213105,
    "has_hospital": true,
    "has_police_station": false,
    "has_fire_station": true,
    "dist_hospital_km": 0.215,
    "dist_police_km": 0.0,
    "dist_fire_km": 0.666,
    "emergency_safety_index": 49.64
  },
  {
    "school_index": 148,
    "school_name": "Kids World Preschool And Daycare",
    "lat": 19.1643493,
    "lon": 72.8359073,
    "has_hospital": true,
    "has_police_station": true,
    "has_fire_station": true,
    "dist_hospital_km": 0.154,
    "dist_police_km": 1.273,
    "dist_fire_km": 1.293,
    "emergency_safety_index": 81.87
  },
  {
    "school_index": 149,
    "school_name": "Vibgyor",
    "lat": 19.1595272,
    "lon": 72.836136,
    "has_hospital": true,
    "has_police_station": true,
    "has_fire_station": true,
    "dist_hospital_km": 0.42,
    "dist_police_km": 1.011,
    "dist_fire_km": 0.802,
    "emergency_safety_index": 85.11
  },
  {
    "school_index": 150,
    "school_name": "Ib Patel School",
    "lat": 19.1578421,
    "lon": 72.8476552,
    "has_hospital": true,
    "has_police_station": true,
    "has_fire_station": true,
    "dist_hospital_km": 0.17,
    "dist_police_km": 0.237,
    "dist_fire_km": 0.909,
    "emergency_safety_index": 91.23
  },
  {
    "school_index": 151,
    "school_name": "D G Khetan International School",
    "lat": 19.176347,
    "lon": 72.8417834,
    "has_hospital": true,
    "has_police_station": true,
    "has_fire_station": false,
    "dist_hospital_km": 0.296,
    "dist_police_km": 0.845,
    "dist_fire_km": 0.0,
    "emergency_safety_index": 48.22
  },
  {
    "school_index": 152,
    "school_name": "Nandadeep Vidyalay",
    "lat": 19.1625315,
    "lon": 72.8548539,
    "has_hospital": true,
    "has_police_station": true,
    "has_fire_station": true,
    "dist_hospital_km": 0.275,
    "dist_police_km": 0.442,
    "dist_fire_km": 1.535,
    "emergency_safety_index": 84.99
  },
  {
    "school_index": 153,
    "school_name": "Muncipal Pahadi School",
    "lat": 19.1644938,
    "lon": 72.8553881,
    "has_hospital": true,
    "has_police_station": true,
    "has_fire_station": true,
    "dist_hospital_km": 0.219,
    "dist_police_km": 0.245,
    "dist_fire_km": 1.314,
    "emergency_safety_index": 88.15
  },
  {
    "school_index": 154,
    "school_name": "St Thomas School",
    "lat": 19.1670343,
    "lon": 72.8498342,
    "has_hospital": true,
    "has_police_station": true,
    "has_fire_station": true,
    "dist_hospital_km": 0.15,
    "dist_police_km": 0.482,
    "dist_fire_km": 1.474,
    "emergency_safety_index": 85.96
  },
  {
    "school_index": 155,
    "school_name": "St Thomas School Ground",
    "lat": 19.1693345,
    "lon": 72.8500761,
    "has_hospital": true,
    "has_police_station": true,
    "has_fire_station": true,
    "dist_hospital_km": 0.281,
    "dist_police_km": 0.552,
    "dist_fire_km": 1.312,
    "emergency_safety_index": 85.7
  },
  {
    "school_index": 156,
    "school_name": "Ryan International School Icse",
    "lat": 19.1723236,
    "lon": 72.8726025,
    "has_hospital": true,
    "has_police_station": true,
    "has_fire_station": true,
    "dist_hospital_km": 0.142,
    "dist_police_km": 0.634,
    "dist_fire_km": 1.256,
    "emergency_safety_index": 86.45
  },
  {
    "school_index": 157,
    "school_name": "Yashodham High School & Jr College",
    "lat": 19.1734642,
    "lon": 72.8665731,
    "has_hospital": true,
    "has_police_station": true,
    "has_fire_station": true,
    "dist_hospital_km": 0.293,
    "dist_police_km": 0.262,
    "dist_fire_km": 0.612,
    "emergency_safety_index": 92.22
  },
  {
    "school_index": 158,
    "school_name": "Tree House Play School",
    "lat": 19.176005,
    "lon": 72.8730118,
    "has_hospital": true,
    "has_police_station": true,
    "has_fire_station": true,
    "dist_hospital_km": 0.203,
    "dist_police_km": 0.565,
    "dist_fire_km": 1.266,
    "emergency_safety_index": 86.44
  },
  {
    "school_index": 159,
    "school_name": "Municipal Corporation Liberty Garden School",
    "lat": 19.188526,
    "lon": 72.8412266,
    "has_hospital": true,
    "has_police_station": true,
    "has_fire_station": false,
    "dist_hospital_km": 0.192,
    "dist_police_km": 0.657,
    "dist_fire_km": 0.0,
    "emergency_safety_index": 49.81
  },
  {
    "school_index": 160,
    "school_name": "Atharva College Of Engineering",
    "lat": 19.1977249,
    "lon": 72.8270575,
    "has_hospital": true,
    "has_police_station": false,
    "has_fire_station": true,
    "dist_hospital_km": 0.486,
    "dist_police_km": 0.0,
    "dist_fire_km": 0.487,
    "emergency_safety_index": 49.14
  },
  {
    "school_index": 161,
    "school_name": "Savitridevi Hariram Agarwal International School",
    "lat": 19.1978859,
    "lon": 72.8410849,
    "has_hospital": true,
    "has_police_station": true,
    "has_fire_station": true,
    "dist_hospital_km": 0.237,
    "dist_police_km": 1.611,
    "dist_fire_km": 1.343,
    "emergency_safety_index": 78.73
  },
  {
    "school_index": 162,
    "school_name": "Nagindas Khandwala College",
    "lat": 19.1925199,
    "lon": 72.8479831,
    "has_hospital": true,
    "has_police_station": true,
    "has_fire_station": true,
    "dist_hospital_km": 0.161,
    "dist_police_km": 1.068,
    "dist_fire_km": 1.526,
    "emergency_safety_index": 81.63
  },
  {
    "school_index": 163,
    "school_name": "Nl High School",
    "lat": 19.192628,
    "lon": 72.8474592,
    "has_hospital": true,
    "has_police_station": true,
    "has_fire_station": true,
    "dist_hospital_km": 0.139,
    "dist_police_km": 1.062,
    "dist_fire_km": 1.525,
    "emergency_safety_index": 81.83
  },
  {
    "school_index": 164,
    "school_name": "Aspee Nutan English Medium School",
    "lat": 19.1922983,
    "lon": 72.8457233,
    "has_hospital": true,
    "has_police_station": true,
    "has_fire_station": true,
    "dist_hospital_km": 0.087,
    "dist_police_km": 0.987,
    "dist_fire_km": 1.608,
    "emergency_safety_index": 82.12
  },
  {
    "school_index": 165,
    "school_name": "K E S Shroff College Ground",
    "lat": 19.201754,
    "lon": 72.846543,
    "has_hospital": true,
    "has_police_station": true,
    "has_fire_station": true,
    "dist_hospital_km": 0.124,
    "dist_police_km": 0.949,
    "dist_fire_km": 0.634,
    "emergency_safety_index": 88.62
  },
  {
    "school_index": 166,
    "school_name": "Kes Law College",
    "lat": 19.2028619,
    "lon": 72.8460116,
    "has_hospital": true,
    "has_police_station": true,
    "has_fire_station": true,
    "dist_hospital_km": 0.109,
    "dist_police_km": 0.864,
    "dist_fire_km": 0.591,
    "emergency_safety_index": 89.57
  },
  {
    "school_index": 167,
    "school_name": "St George High School",
    "lat": 19.1893461,
    "lon": 72.8563332,
    "has_hospital": true,
    "has_police_station": true,
    "has_fire_station": true,
    "dist_hospital_km": 0.123,
    "dist_police_km": 1.165,
    "dist_fire_km": 1.662,
    "emergency_safety_index": 80.33
  },
  {
    "school_index": 168,
    "school_name": "Universal High School",
    "lat": 19.1885552,
    "lon": 72.8505882,
    "has_hospital": true,
    "has_police_station": true,
    "has_fire_station": true,
    "dist_hospital_km": 0.052,
    "dist_police_km": 0.851,
    "dist_fire_km": 1.856,
    "emergency_safety_index": 81.61
  },
  {
    "school_index": 169,
    "school_name": "St Joseph High School",
    "lat": 19.1904293,
    "lon": 72.8569264,
    "has_hospital": true,
    "has_police_station": true,
    "has_fire_station": true,
    "dist_hospital_km": 0.12,
    "dist_police_km": 1.148,
    "dist_fire_km": 1.762,
    "emergency_safety_index": 79.8
  },
  {
    "school_index": 170,
    "school_name": "Sharda Gyanpeeth International School",
    "lat": 19.1930649,
    "lon": 72.8548987,
    "has_hospital": true,
    "has_police_station": true,
    "has_fire_station": true,
    "dist_hospital_km": 0.277,
    "dist_police_km": 1.018,
    "dist_fire_km": 1.512,
    "emergency_safety_index": 81.29
  },
  {
    "school_index": 171,
    "school_name": "Lokhandwala Foundation School",
    "lat": 19.1974592,
    "lon": 72.8752543,
    "has_hospital": true,
    "has_police_station": true,
    "has_fire_station": false,
    "dist_hospital_km": 0.178,
    "dist_police_km": 0.976,
    "dist_fire_km": 0.0,
    "emergency_safety_index": 48.15
  },
  {
    "school_index": 172,
    "school_name": "Sinhgad College Of Commerce",
    "lat": 19.1132882,
    "lon": 72.8965304,
    "has_hospital": true,
    "has_police_station": true,
    "has_fire_station": true,
    "dist_hospital_km": 0.755,
    "dist_police_km": 1.894,
    "dist_fire_km": 2.003,
    "emergency_safety_index": 68.99
  },
  {
    "school_index": 173,
    "school_name": "Pawar Public School",
    "lat": 19.1124253,
    "lon": 72.904231,
    "has_hospital": true,
    "has_police_station": false,
    "has_fire_station": true,
    "dist_hospital_km": 0.441,
    "dist_police_km": 0.0,
    "dist_fire_km": 1.935,
    "emergency_safety_index": 41.5
  },
  {
    "school_index": 174,
    "school_name": "Sandesh School",
    "lat": 19.1028771,
    "lon": 72.9165625,
    "has_hospital": true,
    "has_police_station": false,
    "has_fire_station": true,
    "dist_hospital_km": 0.49,
    "dist_police_km": 0.0,
    "dist_fire_km": 0.263,
    "emergency_safety_index": 50.33
  },
  {
    "school_index": 175,
    "school_name": "S M Shetty School Ground",
    "lat": 19.115227,
    "lon": 72.9054975,
    "has_hospital": true,
    "has_police_station": false,
    "has_fire_station": false,
    "dist_hospital_km": 0.2,
    "dist_police_km": 0.0,
    "dist_fire_km": 0.0,
    "emergency_safety_index": 18.48
  },
  {
    "school_index": 176,
    "school_name": "Chanfrabhan Sharma Collehe Of Arts & Science",
    "lat": 19.1165643,
    "lon": 72.9027598,
    "has_hospital": true,
    "has_police_station": true,
    "has_fire_station": false,
    "dist_hospital_km": 0.515,
    "dist_police_km": 2.24,
    "dist_fire_km": 0.0,
    "emergency_safety_index": 39.44
  },
  {
    "school_index": 177,
    "school_name": "Madarsa Tajweedul Islam",
    "lat": 19.1259525,
    "lon": 72.9188893,
    "has_hospital": true,
    "has_police_station": false,
    "has_fire_station": false,
    "dist_hospital_km": 0.068,
    "dist_police_km": 0.0,
    "dist_fire_km": 0.0,
    "emergency_safety_index": 18.98
  },
  {
    "school_index": 178,
    "school_name": "Shailesh J Mehta Institute Of Management",
    "lat": 19.1317025,
    "lon": 72.9157388,
    "has_hospital": true,
    "has_police_station": false,
    "has_fire_station": false,
    "dist_hospital_km": 0.189,
    "dist_police_km": 0.0,
    "dist_fire_km": 0.0,
    "emergency_safety_index": 18.52
  },
  {
    "school_index": 179,
    "school_name": "Idc - Industrial Design Center",
    "lat": 19.1333839,
    "lon": 72.9171775,
    "has_hospital": true,
    "has_police_station": false,
    "has_fire_station": false,
    "dist_hospital_km": 0.425,
    "dist_police_km": 0.0,
    "dist_fire_km": 0.0,
    "emergency_safety_index": 17.61
  },
  {
    "school_index": 180,
    "school_name": "Br Nath Pai Vidyalaya",
    "lat": 19.1505995,
    "lon": 72.9278371,
    "has_hospital": true,
    "has_police_station": true,
    "has_fire_station": false,
    "dist_hospital_km": 0.278,
    "dist_police_km": 0.496,
    "dist_fire_km": 0.0,
    "emergency_safety_index": 50.22
  },
  {
    "school_index": 181,
    "school_name": "Guru Gobind English High School",
    "lat": 19.122151,
    "lon": 72.9345592,
    "has_hospital": true,
    "has_police_station": true,
    "has_fire_station": false,
    "dist_hospital_km": 0.343,
    "dist_police_km": 0.48,
    "dist_fire_km": 0.0,
    "emergency_safety_index": 49.95
  },
  {
    "school_index": 182,
    "school_name": "St Xaviers High School And Junior College",
    "lat": 19.1359206,
    "lon": 72.9288535,
    "has_hospital": true,
    "has_police_station": false,
    "has_fire_station": false,
    "dist_hospital_km": 0.501,
    "dist_police_km": 0.0,
    "dist_fire_km": 0.0,
    "emergency_safety_index": 17.32
  },
  {
    "school_index": 183,
    "school_name": "V K Krishna Menon College",
    "lat": 19.1431219,
    "lon": 72.9394744,
    "has_hospital": true,
    "has_police_station": true,
    "has_fire_station": false,
    "dist_hospital_km": 0.265,
    "dist_police_km": 1.702,
    "dist_fire_km": 0.0,
    "emergency_safety_index": 43.73
  },
  {
    "school_index": 184,
    "school_name": "Smt R S S Vidya Mandir",
    "lat": 19.1482492,
    "lon": 72.9295321,
    "has_hospital": true,
    "has_police_station": true,
    "has_fire_station": false,
    "dist_hospital_km": 0.078,
    "dist_police_km": 0.74,
    "dist_fire_km": 0.0,
    "emergency_safety_index": 49.98
  },
  {
    "school_index": 185,
    "school_name": "Gayathri Vidya Mandir",
    "lat": 19.1618123,
    "lon": 72.9299819,
    "has_hospital": true,
    "has_police_station": true,
    "has_fire_station": true,
    "dist_hospital_km": 0.736,
    "dist_police_km": 0.775,
    "dist_fire_km": 1.983,
    "emergency_safety_index": 76.71
  },
  {
    "school_index": 186,
    "school_name": "Jj Academy",
    "lat": 19.1776419,
    "lon": 72.9416778,
    "has_hospital": true,
    "has_police_station": true,
    "has_fire_station": true,
    "dist_hospital_km": 0.315,
    "dist_police_km": 1.053,
    "dist_fire_km": 0.293,
    "emergency_safety_index": 88.93
  },
  {
    "school_index": 187,
    "school_name": "Lohana Kanya Shala School",
    "lat": 19.1782486,
    "lon": 72.9509505,
    "has_hospital": true,
    "has_police_station": true,
    "has_fire_station": true,
    "dist_hospital_km": 0.203,
    "dist_police_km": 0.131,
    "dist_fire_km": 0.95,
    "emergency_safety_index": 91.44
  },
  {
    "school_index": 188,
    "school_name": "Sau Laxmibai",
    "lat": 19.1670602,
    "lon": 72.9640213,
    "has_hospital": true,
    "has_police_station": true,
    "has_fire_station": false,
    "dist_hospital_km": 0.082,
    "dist_police_km": 0.518,
    "dist_fire_km": 0.0,
    "emergency_safety_index": 51.17
  },
  {
    "school_index": 189,
    "school_name": "Yashwantroa Dode",
    "lat": 19.1697442,
    "lon": 72.9647746,
    "has_hospital": true,
    "has_police_station": true,
    "has_fire_station": true,
    "dist_hospital_km": 0.312,
    "dist_police_km": 0.394,
    "dist_fire_km": 1.885,
    "emergency_safety_index": 82.73
  },
  {
    "school_index": 190,
    "school_name": "Waman Roa",
    "lat": 19.1740948,
    "lon": 72.9673623,
    "has_hospital": true,
    "has_police_station": true,
    "has_fire_station": true,
    "dist_hospital_km": 0.361,
    "dist_police_km": 0.507,
    "dist_fire_km": 1.341,
    "emergency_safety_index": 85.27
  },
  {
    "school_index": 191,
    "school_name": "Anganwadi",
    "lat": 19.1881725,
    "lon": 72.9414005,
    "has_hospital": true,
    "has_police_station": true,
    "has_fire_station": true,
    "dist_hospital_km": 0.47,
    "dist_police_km": 1.622,
    "dist_fire_km": 1.455,
    "emergency_safety_index": 76.35
  },
  {
    "school_index": 192,
    "school_name": "Navratna Society",
    "lat": 19.2265894,
    "lon": 72.8304592,
    "has_hospital": true,
    "has_police_station": false,
    "has_fire_station": true,
    "dist_hospital_km": 0.272,
    "dist_police_km": 0.0,
    "dist_fire_km": 1.064,
    "emergency_safety_index": 47.16
  },
  {
    "school_index": 193,
    "school_name": "Don Bosco Primary School",
    "lat": 19.2312257,
    "lon": 72.841711,
    "has_hospital": true,
    "has_police_station": true,
    "has_fire_station": true,
    "dist_hospital_km": 0.167,
    "dist_police_km": 1.505,
    "dist_fire_km": 0.238,
    "emergency_safety_index": 87.27
  },
  {
    "school_index": 194,
    "school_name": "Don Bosco High School",
    "lat": 19.2303902,
    "lon": 72.8418808,
    "has_hospital": true,
    "has_police_station": true,
    "has_fire_station": false,
    "dist_hospital_km": 0.207,
    "dist_police_km": 1.478,
    "dist_fire_km": 0.0,
    "emergency_safety_index": 45.26
  },
  {
    "school_index": 195,
    "school_name": "Sai Lee International School",
    "lat": 19.2308036,
    "lon": 72.83875,
    "has_hospital": true,
    "has_police_station": true,
    "has_fire_station": true,
    "dist_hospital_km": 0.152,
    "dist_police_km": 1.809,
    "dist_fire_km": 0.171,
    "emergency_safety_index": 85.79
  },
  {
    "school_index": 196,
    "school_name": "Suvidyalay",
    "lat": 19.2314533,
    "lon": 72.8433059,
    "has_hospital": true,
    "has_police_station": true,
    "has_fire_station": true,
    "dist_hospital_km": 0.335,
    "dist_police_km": 1.342,
    "dist_fire_km": 0.391,
    "emergency_safety_index": 86.21
  },
  {
    "school_index": 197,
    "school_name": "Bmc Ground",
    "lat": 19.2094954,
    "lon": 72.8625372,
    "has_hospital": true,
    "has_police_station": true,
    "has_fire_station": true,
    "dist_hospital_km": 0.293,
    "dist_police_km": 1.08,
    "dist_fire_km": 1.318,
    "emergency_safety_index": 82.06
  },
  {
    "school_index": 198,
    "school_name": "Thakur Public School",
    "lat": 19.2091256,
    "lon": 72.8746974,
    "has_hospital": true,
    "has_police_station": true,
    "has_fire_station": false,
    "dist_hospital_km": 0.312,
    "dist_police_km": 0.4,
    "dist_fire_km": 0.0,
    "emergency_safety_index": 50.56
  },
  {
    "school_index": 199,
    "school_name": "Muncipal School",
    "lat": 19.2271718,
    "lon": 72.8597251,
    "has_hospital": true,
    "has_police_station": true,
    "has_fire_station": false,
    "dist_hospital_km": 0.092,
    "dist_police_km": 0.196,
    "dist_fire_km": 0.0,
    "emergency_safety_index": 52.87
  },
  {
    "school_index": 200,
    "school_name": "Gokhale College",
    "lat": 19.2324515,
    "lon": 72.8370011,
    "has_hospital": false,
    "has_police_station": true,
    "has_fire_station": true,
    "dist_hospital_km": 0.0,
    "dist_police_km": 2.014,
    "dist_fire_km": 0.43,
    "emergency_safety_index": 41.13
  },
  {
    "school_index": 201,
    "school_name": "Ajmera Global School",
    "lat": 19.2331345,
    "lon": 72.8467515,
    "has_hospital": true,
    "has_police_station": true,
    "has_fire_station": true,
    "dist_hospital_km": 0.106,
    "dist_police_km": 1.043,
    "dist_fire_km": 0.799,
    "emergency_safety_index": 87.01
  },
  {
    "school_index": 202,
    "school_name": "Rustomjee Cambridge International School",
    "lat": 19.2433962,
    "lon": 72.8572424,
    "has_hospital": true,
    "has_police_station": true,
    "has_fire_station": false,
    "dist_hospital_km": 0.055,
    "dist_police_km": 1.545,
    "dist_fire_km": 0.0,
    "emergency_safety_index": 45.72
  },
  {
    "school_index": 203,
    "school_name": "Vidhyamandir School",
    "lat": 19.2549733,
    "lon": 72.8604849,
    "has_hospital": true,
    "has_police_station": true,
    "has_fire_station": false,
    "dist_hospital_km": 0.378,
    "dist_police_km": 0.553,
    "dist_fire_km": 0.0,
    "emergency_safety_index": 49.37
  },
  {
    "school_index": 204,
    "school_name": "Raja Shivaji Vidya Mandir",
    "lat": 19.2132365,
    "lon": 72.9486036,
    "has_hospital": true,
    "has_police_station": true,
    "has_fire_station": false,
    "dist_hospital_km": 0.714,
    "dist_police_km": 1.309,
    "dist_fire_km": 0.0,
    "emergency_safety_index": 43.42
  },
  {
    "school_index": 205,
    "school_name": "Tmc Municipal School",
    "lat": 19.2287366,
    "lon": 72.9477801,
    "has_hospital": true,
    "has_police_station": false,
    "has_fire_station": false,
    "dist_hospital_km": 1.777,
    "dist_police_km": 0.0,
    "dist_fire_km": 0.0,
    "emergency_safety_index": 12.41
  },
  {
    "school_index": 206,
    "school_name": "Little Flower High School",
    "lat": 19.2172685,
    "lon": 72.9615534,
    "has_hospital": true,
    "has_police_station": true,
    "has_fire_station": false,
    "dist_hospital_km": 0.286,
    "dist_police_km": 0.477,
    "dist_fire_km": 0.0,
    "emergency_safety_index": 50.28
  },
  {
    "school_index": 207,
    "school_name": "Rainbow International School",
    "lat": 19.2315327,
    "lon": 72.9698829,
    "has_hospital": true,
    "has_police_station": true,
    "has_fire_station": false,
    "dist_hospital_km": 0.256,
    "dist_police_km": 0.672,
    "dist_fire_km": 0.0,
    "emergency_safety_index": 49.38
  },
  {
    "school_index": 208,
    "school_name": "Rhyme N Colours Preschool",
    "lat": 19.2328137,
    "lon": 72.9725731,
    "has_hospital": true,
    "has_police_station": true,
    "has_fire_station": true,
    "dist_hospital_km": 0.347,
    "dist_police_km": 0.42,
    "dist_fire_km": 1.992,
    "emergency_safety_index": 81.61
  },
  {
    "school_index": 209,
    "school_name": "Kendriya Vidyalaya No 3 Colaba",
    "lat": 18.8950836,
    "lon": 72.809579,
    "has_hospital": true,
    "has_police_station": false,
    "has_fire_station": false,
    "dist_hospital_km": 0.664,
    "dist_police_km": 0.0,
    "dist_fire_km": 0.0,
    "emergency_safety_index": 16.69
  },
  {
    "school_index": 210,
    "school_name": "Indian Institute Of Geomagnetism",
    "lat": 18.8970669,
    "lon": 72.8123711,
    "has_hospital": true,
    "has_police_station": true,
    "has_fire_station": false,
    "dist_hospital_km": 0.309,
    "dist_police_km": 1.782,
    "dist_fire_km": 0.0,
    "emergency_safety_index": 43.05
  },
  {
    "school_index": 211,
    "school_name": "Army Public School",
    "lat": 18.901355,
    "lon": 72.8134151,
    "has_hospital": true,
    "has_police_station": true,
    "has_fire_station": false,
    "dist_hospital_km": 0.199,
    "dist_police_km": 1.301,
    "dist_fire_km": 0.0,
    "emergency_safety_index": 46.27
  },
  {
    "school_index": 212,
    "school_name": "St Josephs High School",
    "lat": 18.8996856,
    "lon": 72.8129722,
    "has_hospital": true,
    "has_police_station": true,
    "has_fire_station": false,
    "dist_hospital_km": 0.102,
    "dist_police_km": 1.489,
    "dist_fire_km": 0.0,
    "emergency_safety_index": 45.77
  },
  {
    "school_index": 213,
    "school_name": "Navy Children School",
    "lat": 18.9097851,
    "lon": 72.8073708,
    "has_hospital": true,
    "has_police_station": true,
    "has_fire_station": false,
    "dist_hospital_km": 1.322,
    "dist_police_km": 1.22,
    "dist_fire_km": 0.0,
    "emergency_safety_index": 40.6
  },
  {
    "school_index": 214,
    "school_name": "Tata Institute Of Fundamental Research",
    "lat": 18.9068785,
    "lon": 72.8048672,
    "has_hospital": true,
    "has_police_station": true,
    "has_fire_station": false,
    "dist_hospital_km": 1.261,
    "dist_police_km": 1.564,
    "dist_fire_km": 0.0,
    "emergency_safety_index": 39.06
  },
  {
    "school_index": 215,
    "school_name": "Kendriya Vidyalaya No 2 Colaba",
    "lat": 18.9106118,
    "lon": 72.8085564,
    "has_hospital": true,
    "has_police_station": true,
    "has_fire_station": true,
    "dist_hospital_km": 1.33,
    "dist_police_km": 1.082,
    "dist_fire_km": 1.918,
    "emergency_safety_index": 71.13
  },
  {
    "school_index": 216,
    "school_name": "Kendriya Vidyalaya No 2 Colaba",
    "lat": 18.9106465,
    "lon": 72.8083914,
    "has_hospital": true,
    "has_police_station": true,
    "has_fire_station": true,
    "dist_hospital_km": 1.342,
    "dist_police_km": 1.098,
    "dist_fire_km": 1.933,
    "emergency_safety_index": 70.85
  },
  {
    "school_index": 217,
    "school_name": "Kendriya Vidyalaya",
    "lat": 18.9076879,
    "lon": 72.8105685,
    "has_hospital": true,
    "has_police_station": true,
    "has_fire_station": true,
    "dist_hospital_km": 0.942,
    "dist_police_km": 0.98,
    "dist_fire_km": 1.844,
    "emergency_safety_index": 74.89
  },
  {
    "school_index": 218,
    "school_name": "Dunne'S Institute",
    "lat": 18.913161,
    "lon": 72.8223191,
    "has_hospital": true,
    "has_police_station": true,
    "has_fire_station": true,
    "dist_hospital_km": 1.231,
    "dist_police_km": 0.399,
    "dist_fire_km": 0.468,
    "emergency_safety_index": 86.01
  },
  {
    "school_index": 219,
    "school_name": "Colaba Municipality U P English School",
    "lat": 18.9145042,
    "lon": 72.8270031,
    "has_hospital": true,
    "has_police_station": true,
    "has_fire_station": true,
    "dist_hospital_km": 0.954,
    "dist_police_km": 0.913,
    "dist_fire_km": 0.145,
    "emergency_safety_index": 86.59
  },
  {
    "school_index": 220,
    "school_name": "Colaba Municipal Secondary School",
    "lat": 18.9149569,
    "lon": 72.8265806,
    "has_hospital": true,
    "has_police_station": true,
    "has_fire_station": true,
    "dist_hospital_km": 0.908,
    "dist_police_km": 0.889,
    "dist_fire_km": 0.078,
    "emergency_safety_index": 87.5
  },
  {
    "school_index": 221,
    "school_name": "Bmc School",
    "lat": 18.9171999,
    "lon": 72.8289235,
    "has_hospital": true,
    "has_police_station": true,
    "has_fire_station": true,
    "dist_hospital_km": 0.668,
    "dist_police_km": 0.621,
    "dist_fire_km": 0.359,
    "emergency_safety_index": 89.01
  },
  {
    "school_index": 222,
    "school_name": "Scholars High School",
    "lat": 18.920535,
    "lon": 72.8309604,
    "has_hospital": true,
    "has_police_station": true,
    "has_fire_station": true,
    "dist_hospital_km": 0.307,
    "dist_police_km": 0.211,
    "dist_fire_km": 0.582,
    "emergency_safety_index": 92.67
  },
  {
    "school_index": 223,
    "school_name": "Holy Name High School",
    "lat": 18.9229958,
    "lon": 72.8306942,
    "has_hospital": true,
    "has_police_station": true,
    "has_fire_station": true,
    "dist_hospital_km": 0.079,
    "dist_police_km": 0.069,
    "dist_fire_km": 0.485,
    "emergency_safety_index": 95.78
  },
  {
    "school_index": 224,
    "school_name": "Mumbai University - Fort Campus",
    "lat": 18.9293274,
    "lon": 72.8304996,
    "has_hospital": true,
    "has_police_station": true,
    "has_fire_station": true,
    "dist_hospital_km": 0.615,
    "dist_police_km": 0.656,
    "dist_fire_km": 0.773,
    "emergency_safety_index": 86.37
  },
  {
    "school_index": 225,
    "school_name": "Convent Of Jesus And Mary School",
    "lat": 18.9235809,
    "lon": 72.8309019,
    "has_hospital": true,
    "has_police_station": true,
    "has_fire_station": true,
    "dist_hospital_km": 0.062,
    "dist_police_km": 0.128,
    "dist_fire_km": 0.511,
    "emergency_safety_index": 95.33
  },
  {
    "school_index": 226,
    "school_name": "Campion School",
    "lat": 18.9247651,
    "lon": 72.8298473,
    "has_hospital": true,
    "has_police_station": true,
    "has_fire_station": true,
    "dist_hospital_km": 0.232,
    "dist_police_km": 0.285,
    "dist_fire_km": 0.442,
    "emergency_safety_index": 93.61
  },
  {
    "school_index": 227,
    "school_name": "K C College",
    "lat": 18.9295773,
    "lon": 72.8270899,
    "has_hospital": true,
    "has_police_station": true,
    "has_fire_station": true,
    "dist_hospital_km": 0.717,
    "dist_police_km": 0.298,
    "dist_fire_km": 0.73,
    "emergency_safety_index": 88.37
  },
  {
    "school_index": 228,
    "school_name": "St Anne'S High Scool",
    "lat": 18.9252067,
    "lon": 72.8313274,
    "has_hospital": true,
    "has_police_station": true,
    "has_fire_station": true,
    "dist_hospital_km": 0.216,
    "dist_police_km": 0.31,
    "dist_fire_km": 0.604,
    "emergency_safety_index": 92.47
  },
  {
    "school_index": 229,
    "school_name": "St Xavier'S Boys Academy",
    "lat": 18.9358616,
    "lon": 72.8280496,
    "has_hospital": true,
    "has_police_station": true,
    "has_fire_station": true,
    "dist_hospital_km": 0.366,
    "dist_police_km": 0.734,
    "dist_fire_km": 0.636,
    "emergency_safety_index": 88.43
  },
  {
    "school_index": 230,
    "school_name": "Bombay International School Junior",
    "lat": 18.9354061,
    "lon": 72.8284189,
    "has_hospital": true,
    "has_police_station": true,
    "has_fire_station": true,
    "dist_hospital_km": 0.315,
    "dist_police_km": 0.715,
    "dist_fire_km": 0.651,
    "emergency_safety_index": 88.79
  },
  {
    "school_index": 231,
    "school_name": "Jai Hind College",
    "lat": 18.9347249,
    "lon": 72.8251612,
    "has_hospital": true,
    "has_police_station": true,
    "has_fire_station": true,
    "dist_hospital_km": 0.65,
    "dist_police_km": 0.504,
    "dist_fire_km": 0.861,
    "emergency_safety_index": 86.57
  },
  {
    "school_index": 232,
    "school_name": "Siddharth College",
    "lat": 18.9362444,
    "lon": 72.832197,
    "has_hospital": true,
    "has_police_station": true,
    "has_fire_station": true,
    "dist_hospital_km": 0.118,
    "dist_police_km": 0.6,
    "dist_fire_km": 0.282,
    "emergency_safety_index": 93.33
  },
  {
    "school_index": 233,
    "school_name": "J B Petit High School For Girls",
    "lat": 18.9346449,
    "lon": 72.83189,
    "has_hospital": true,
    "has_police_station": true,
    "has_fire_station": true,
    "dist_hospital_km": 0.06,
    "dist_police_km": 0.781,
    "dist_fire_km": 0.29,
    "emergency_safety_index": 92.46
  },
  {
    "school_index": 234,
    "school_name": "Cathedral & John Connon Middle School",
    "lat": 18.9350264,
    "lon": 72.8323092,
    "has_hospital": true,
    "has_police_station": true,
    "has_fire_station": true,
    "dist_hospital_km": 0.105,
    "dist_police_km": 0.733,
    "dist_fire_km": 0.241,
    "emergency_safety_index": 92.81
  },
  {
    "school_index": 235,
    "school_name": "The Alexandra Girls English Institution",
    "lat": 18.9354049,
    "lon": 72.8312882,
    "has_hospital": true,
    "has_police_station": true,
    "has_fire_station": true,
    "dist_hospital_km": 0.067,
    "dist_police_km": 0.71,
    "dist_fire_km": 0.35,
    "emergency_safety_index": 92.49
  },
  {
    "school_index": 236,
    "school_name": "Cathedral & John Connon Junior School",
    "lat": 18.9345051,
    "lon": 72.8314227,
    "has_hospital": true,
    "has_police_station": true,
    "has_fire_station": true,
    "dist_hospital_km": 0.034,
    "dist_police_km": 0.804,
    "dist_fire_km": 0.341,
    "emergency_safety_index": 92.14
  },
  {
    "school_index": 237,
    "school_name": "Siddarth College Of Law",
    "lat": 18.933869,
    "lon": 72.8319436,
    "has_hospital": true,
    "has_police_station": true,
    "has_fire_station": true,
    "dist_hospital_km": 0.122,
    "dist_police_km": 0.865,
    "dist_fire_km": 0.312,
    "emergency_safety_index": 91.34
  },
  {
    "school_index": 238,
    "school_name": "Hvb Global Academy",
    "lat": 18.9417932,
    "lon": 72.8257557,
    "has_hospital": true,
    "has_police_station": true,
    "has_fire_station": true,
    "dist_hospital_km": 0.196,
    "dist_police_km": 0.624,
    "dist_fire_km": 0.359,
    "emergency_safety_index": 92.14
  },
  {
    "school_index": 239,
    "school_name": "Sndt Women'S University",
    "lat": 18.937677,
    "lon": 72.8281467,
    "has_hospital": true,
    "has_police_station": true,
    "has_fire_station": true,
    "dist_hospital_km": 0.378,
    "dist_police_km": 0.668,
    "dist_fire_km": 0.436,
    "emergency_safety_index": 90.12
  },
  {
    "school_index": 240,
    "school_name": "Anjuman-I-Islam'S Allana English High School",
    "lat": 18.9425404,
    "lon": 72.8341681,
    "has_hospital": true,
    "has_police_station": true,
    "has_fire_station": true,
    "dist_hospital_km": 0.219,
    "dist_police_km": 0.111,
    "dist_fire_km": 0.54,
    "emergency_safety_index": 94.2
  },
  {
    "school_index": 241,
    "school_name": "Manav Mandir Primary School",
    "lat": 18.9489678,
    "lon": 72.7968285,
    "has_hospital": true,
    "has_police_station": false,
    "has_fire_station": false,
    "dist_hospital_km": 0.377,
    "dist_police_km": 0.0,
    "dist_fire_km": 0.0,
    "emergency_safety_index": 17.79
  },
  {
    "school_index": 242,
    "school_name": "Walsingham House School",
    "lat": 18.9537631,
    "lon": 72.7961926,
    "has_hospital": true,
    "has_police_station": false,
    "has_fire_station": true,
    "dist_hospital_km": 0.877,
    "dist_police_km": 0.0,
    "dist_fire_km": 1.952,
    "emergency_safety_index": 39.03
  },
  {
    "school_index": 243,
    "school_name": "Wilson College",
    "lat": 18.9565449,
    "lon": 72.8110451,
    "has_hospital": true,
    "has_police_station": true,
    "has_fire_station": true,
    "dist_hospital_km": 0.084,
    "dist_police_km": 0.463,
    "dist_fire_km": 0.602,
    "emergency_safety_index": 92.34
  },
  {
    "school_index": 244,
    "school_name": "Gopi Birla Memorial School",
    "lat": 18.9521161,
    "lon": 72.8033764,
    "has_hospital": true,
    "has_police_station": true,
    "has_fire_station": true,
    "dist_hospital_km": 0.626,
    "dist_police_km": 1.329,
    "dist_fire_km": 1.452,
    "emergency_safety_index": 77.29
  },
  {
    "school_index": 245,
    "school_name": "The Cathedral & John Connon Infant School",
    "lat": 18.9560239,
    "lon": 72.803436,
    "has_hospital": true,
    "has_police_station": true,
    "has_fire_station": true,
    "dist_hospital_km": 0.427,
    "dist_police_km": 1.063,
    "dist_fire_km": 1.165,
    "emergency_safety_index": 82.3
  },
  {
    "school_index": 246,
    "school_name": "B K M High School",
    "lat": 18.9560629,
    "lon": 72.8073544,
    "has_hospital": true,
    "has_police_station": true,
    "has_fire_station": true,
    "dist_hospital_km": 0.035,
    "dist_police_km": 0.723,
    "dist_fire_km": 0.846,
    "emergency_safety_index": 89.31
  },
  {
    "school_index": 247,
    "school_name": "Aryan E S High School",
    "lat": 18.9561135,
    "lon": 72.8173833,
    "has_hospital": true,
    "has_police_station": true,
    "has_fire_station": true,
    "dist_hospital_km": 0.181,
    "dist_police_km": 0.524,
    "dist_fire_km": 0.792,
    "emergency_safety_index": 90.02
  },
  {
    "school_index": 248,
    "school_name": "Chikitsak Samuh High School",
    "lat": 18.9551384,
    "lon": 72.8214114,
    "has_hospital": true,
    "has_police_station": true,
    "has_fire_station": true,
    "dist_hospital_km": 0.055,
    "dist_police_km": 0.78,
    "dist_fire_km": 1.17,
    "emergency_safety_index": 86.63
  },
  {
    "school_index": 249,
    "school_name": "St Teresa High School",
    "lat": 18.9527833,
    "lon": 72.8191173,
    "has_hospital": true,
    "has_police_station": true,
    "has_fire_station": true,
    "dist_hospital_km": 0.102,
    "dist_police_km": 0.919,
    "dist_fire_km": 1.199,
    "emergency_safety_index": 85.2
  },
  {
    "school_index": 250,
    "school_name": "Dsb International School",
    "lat": 18.957157,
    "lon": 72.8081012,
    "has_hospital": true,
    "has_police_station": true,
    "has_fire_station": true,
    "dist_hospital_km": 0.081,
    "dist_police_km": 0.584,
    "dist_fire_km": 0.703,
    "emergency_safety_index": 90.88
  },
  {
    "school_index": 251,
    "school_name": "New Activity School",
    "lat": 18.9621672,
    "lon": 72.8084638,
    "has_hospital": true,
    "has_police_station": true,
    "has_fire_station": true,
    "dist_hospital_km": 0.152,
    "dist_police_km": 0.449,
    "dist_fire_km": 0.452,
    "emergency_safety_index": 92.98
  },
  {
    "school_index": 252,
    "school_name": "The New Era School",
    "lat": 18.9618508,
    "lon": 72.8088871,
    "has_hospital": true,
    "has_police_station": true,
    "has_fire_station": true,
    "dist_hospital_km": 0.183,
    "dist_police_km": 0.394,
    "dist_fire_km": 0.405,
    "emergency_safety_index": 93.45
  },
  {
    "school_index": 253,
    "school_name": "Bm Ruia Girls College",
    "lat": 18.959695,
    "lon": 72.810409,
    "has_hospital": true,
    "has_police_station": true,
    "has_fire_station": true,
    "dist_hospital_km": 0.072,
    "dist_police_km": 0.225,
    "dist_fire_km": 0.332,
    "emergency_safety_index": 95.81
  },
  {
    "school_index": 254,
    "school_name": "Sophia College",
    "lat": 18.9695199,
    "lon": 72.8072655,
    "has_hospital": true,
    "has_police_station": true,
    "has_fire_station": true,
    "dist_hospital_km": 0.189,
    "dist_police_km": 0.727,
    "dist_fire_km": 1.041,
    "emergency_safety_index": 86.95
  },
  {
    "school_index": 255,
    "school_name": "St Columba High School",
    "lat": 18.9606918,
    "lon": 72.8119913,
    "has_hospital": true,
    "has_police_station": true,
    "has_fire_station": true,
    "dist_hospital_km": 0.184,
    "dist_police_km": 0.043,
    "dist_fire_km": 0.138,
    "emergency_safety_index": 97.57
  },
  {
    "school_index": 256,
    "school_name": "Fellowship International School",
    "lat": 18.9616576,
    "lon": 72.8108474,
    "has_hospital": true,
    "has_police_station": true,
    "has_fire_station": true,
    "dist_hospital_km": 0.164,
    "dist_police_km": 0.203,
    "dist_fire_km": 0.199,
    "emergency_safety_index": 96.23
  },
  {
    "school_index": 257,
    "school_name": "St Columba Marathi Primary School",
    "lat": 18.9615456,
    "lon": 72.812355,
    "has_hospital": true,
    "has_police_station": true,
    "has_fire_station": true,
    "dist_hospital_km": 0.264,
    "dist_police_km": 0.051,
    "dist_fire_km": 0.044,
    "emergency_safety_index": 97.61
  },
  {
    "school_index": 258,
    "school_name": "Queen Mary'S Girls School",
    "lat": 18.9591738,
    "lon": 72.8150009,
    "has_hospital": true,
    "has_police_station": true,
    "has_fire_station": true,
    "dist_hospital_km": 0.351,
    "dist_police_km": 0.273,
    "dist_fire_km": 0.37,
    "emergency_safety_index": 93.37
  },
  {
    "school_index": 259,
    "school_name": "M S P T High School",
    "lat": 18.9603378,
    "lon": 72.8136313,
    "has_hospital": true,
    "has_police_station": true,
    "has_fire_station": true,
    "dist_hospital_km": 0.25,
    "dist_police_km": 0.135,
    "dist_fire_km": 0.18,
    "emergency_safety_index": 96.23
  },
  {
    "school_index": 260,
    "school_name": "Our Own High School",
    "lat": 18.9626789,
    "lon": 72.8163524,
    "has_hospital": true,
    "has_police_station": true,
    "has_fire_station": true,
    "dist_hospital_km": 0.448,
    "dist_police_km": 0.196,
    "dist_fire_km": 0.395,
    "emergency_safety_index": 93.07
  },
  {
    "school_index": 261,
    "school_name": "Marwari Vidyalaya High School",
    "lat": 18.9573233,
    "lon": 72.8180194,
    "has_hospital": true,
    "has_police_station": true,
    "has_fire_station": true,
    "dist_hospital_km": 0.122,
    "dist_police_km": 0.402,
    "dist_fire_km": 0.74,
    "emergency_safety_index": 91.57
  },
  {
    "school_index": 262,
    "school_name": "Bai Ratan F Pavri High School",
    "lat": 18.9609622,
    "lon": 72.8215502,
    "has_hospital": true,
    "has_police_station": true,
    "has_fire_station": true,
    "dist_hospital_km": 0.29,
    "dist_police_km": 0.472,
    "dist_fire_km": 0.931,
    "emergency_safety_index": 88.71
  },
  {
    "school_index": 263,
    "school_name": "Girton High School",
    "lat": 18.9664065,
    "lon": 72.8157116,
    "has_hospital": true,
    "has_police_station": true,
    "has_fire_station": true,
    "dist_hospital_km": 0.245,
    "dist_police_km": 0.378,
    "dist_fire_km": 0.608,
    "emergency_safety_index": 91.79
  },
  {
    "school_index": 264,
    "school_name": "Kk Marg Municipal School",
    "lat": 18.9660054,
    "lon": 72.8222742,
    "has_hospital": true,
    "has_police_station": true,
    "has_fire_station": true,
    "dist_hospital_km": 0.285,
    "dist_police_km": 0.741,
    "dist_fire_km": 1.111,
    "emergency_safety_index": 85.75
  },
  {
    "school_index": 265,
    "school_name": "Bai Ruttonbai F D Panday Girls' High School",
    "lat": 18.9672012,
    "lon": 72.8180127,
    "has_hospital": true,
    "has_police_station": true,
    "has_fire_station": true,
    "dist_hospital_km": 0.199,
    "dist_police_km": 0.477,
    "dist_fire_km": 0.824,
    "emergency_safety_index": 90.0
  },
  {
    "school_index": 266,
    "school_name": "Activity High School",
    "lat": 18.9743163,
    "lon": 72.8088626,
    "has_hospital": true,
    "has_police_station": true,
    "has_fire_station": true,
    "dist_hospital_km": 0.328,
    "dist_police_km": 0.775,
    "dist_fire_km": 1.459,
    "emergency_safety_index": 82.92
  },
  {
    "school_index": 267,
    "school_name": "Mahalaxmi Municipal School",
    "lat": 18.9765698,
    "lon": 72.8073644,
    "has_hospital": true,
    "has_police_station": true,
    "has_fire_station": true,
    "dist_hospital_km": 0.546,
    "dist_police_km": 1.065,
    "dist_fire_km": 1.745,
    "emergency_safety_index": 77.63
  },
  {
    "school_index": 268,
    "school_name": "Victoria Memorial School For The Blind",
    "lat": 18.9743336,
    "lon": 72.8140025,
    "has_hospital": true,
    "has_police_station": true,
    "has_fire_station": true,
    "dist_hospital_km": 0.114,
    "dist_police_km": 0.539,
    "dist_fire_km": 1.409,
    "emergency_safety_index": 86.25
  },
  {
    "school_index": 269,
    "school_name": "Sir C J High School Secondary",
    "lat": 18.9719994,
    "lon": 72.8167337,
    "has_hospital": true,
    "has_police_station": true,
    "has_fire_station": true,
    "dist_hospital_km": 0.28,
    "dist_police_km": 0.388,
    "dist_fire_km": 1.218,
    "emergency_safety_index": 87.43
  },
  {
    "school_index": 270,
    "school_name": "Hill Spring International School",
    "lat": 18.9729563,
    "lon": 72.812737,
    "has_hospital": true,
    "has_police_station": true,
    "has_fire_station": true,
    "dist_hospital_km": 0.199,
    "dist_police_km": 0.415,
    "dist_fire_km": 1.249,
    "emergency_safety_index": 87.58
  },
  {
    "school_index": 271,
    "school_name": "Dr Anandrao Nair Hospital And Topiwala Medical College",
    "lat": 18.9743311,
    "lon": 72.8219795,
    "has_hospital": true,
    "has_police_station": true,
    "has_fire_station": true,
    "dist_hospital_km": 0.014,
    "dist_police_km": 0.982,
    "dist_fire_km": 1.07,
    "emergency_safety_index": 86.23
  },
  {
    "school_index": 272,
    "school_name": "Yusuf Meherali Vidyalaya",
    "lat": 18.973345,
    "lon": 72.8178937,
    "has_hospital": true,
    "has_police_station": true,
    "has_fire_station": true,
    "dist_hospital_km": 0.351,
    "dist_police_km": 0.581,
    "dist_fire_km": 1.402,
    "emergency_safety_index": 84.44
  },
  {
    "school_index": 273,
    "school_name": "Lala Lajpatrai College",
    "lat": 18.9812531,
    "lon": 72.8144162,
    "has_hospital": true,
    "has_police_station": true,
    "has_fire_station": false,
    "dist_hospital_km": 0.294,
    "dist_police_km": 1.309,
    "dist_fire_km": 0.0,
    "emergency_safety_index": 45.71
  },
  {
    "school_index": 274,
    "school_name": "National Medical College",
    "lat": 18.9796715,
    "lon": 72.8142124,
    "has_hospital": true,
    "has_police_station": true,
    "has_fire_station": true,
    "dist_hospital_km": 0.162,
    "dist_police_km": 1.133,
    "dist_fire_km": 2.002,
    "emergency_safety_index": 78.02
  },
  {
    "school_index": 275,
    "school_name": "Happy Home And School For The Blind",
    "lat": 18.9901788,
    "lon": 72.8142833,
    "has_hospital": true,
    "has_police_station": true,
    "has_fire_station": false,
    "dist_hospital_km": 0.933,
    "dist_police_km": 1.698,
    "dist_fire_km": 0.0,
    "emergency_safety_index": 40.11
  },
  {
    "school_index": 276,
    "school_name": "Barretto High School",
    "lat": 18.9485929,
    "lon": 72.8270691,
    "has_hospital": true,
    "has_police_station": true,
    "has_fire_station": true,
    "dist_hospital_km": 0.475,
    "dist_police_km": 0.496,
    "dist_fire_km": 0.821,
    "emergency_safety_index": 88.05
  },
  {
    "school_index": 277,
    "school_name": "Lord Harris Municipal Marathi School",
    "lat": 18.9449684,
    "lon": 72.8309416,
    "has_hospital": true,
    "has_police_station": true,
    "has_fire_station": true,
    "dist_hospital_km": 0.085,
    "dist_police_km": 0.078,
    "dist_fire_km": 0.431,
    "emergency_safety_index": 96.04
  },
  {
    "school_index": 278,
    "school_name": "St Xavier'S High School",
    "lat": 18.9443925,
    "lon": 72.8305076,
    "has_hospital": true,
    "has_police_station": true,
    "has_fire_station": true,
    "dist_hospital_km": 0.133,
    "dist_police_km": 0.11,
    "dist_fire_km": 0.353,
    "emergency_safety_index": 96.03
  },
  {
    "school_index": 279,
    "school_name": "Saifi High School",
    "lat": 18.9550901,
    "lon": 72.8324188,
    "has_hospital": true,
    "has_police_station": true,
    "has_fire_station": true,
    "dist_hospital_km": 0.173,
    "dist_police_km": 0.11,
    "dist_fire_km": 0.32,
    "emergency_safety_index": 95.98
  },
  {
    "school_index": 280,
    "school_name": "Akbar Peerbhoy College Of Commerce And Economics",
    "lat": 18.9620324,
    "lon": 72.8258668,
    "has_hospital": true,
    "has_police_station": true,
    "has_fire_station": false,
    "dist_hospital_km": 0.068,
    "dist_police_km": 0.299,
    "dist_fire_km": 0.0,
    "emergency_safety_index": 52.44
  },
  {
    "school_index": 281,
    "school_name": "Ahmed Sailor High School",
    "lat": 18.9651298,
    "lon": 72.8301228,
    "has_hospital": true,
    "has_police_station": true,
    "has_fire_station": true,
    "dist_hospital_km": 0.214,
    "dist_police_km": 0.217,
    "dist_fire_km": 0.837,
    "emergency_safety_index": 91.55
  },
  {
    "school_index": 282,
    "school_name": "St Mary'S School Icse",
    "lat": 18.9692127,
    "lon": 72.8352728,
    "has_hospital": true,
    "has_police_station": true,
    "has_fire_station": true,
    "dist_hospital_km": 0.224,
    "dist_police_km": 0.359,
    "dist_fire_km": 0.501,
    "emergency_safety_index": 92.77
  },
  {
    "school_index": 283,
    "school_name": "St Anthony'S Home And Girl'S High School",
    "lat": 18.9674337,
    "lon": 72.8257761,
    "has_hospital": true,
    "has_police_station": true,
    "has_fire_station": true,
    "dist_hospital_km": 0.292,
    "dist_police_km": 0.367,
    "dist_fire_km": 0.857,
    "emergency_safety_index": 89.89
  },
  {
    "school_index": 284,
    "school_name": "Kamathipura Bmc Municipal School",
    "lat": 18.9650418,
    "lon": 72.8254601,
    "has_hospital": true,
    "has_police_station": true,
    "has_fire_station": true,
    "dist_hospital_km": 0.358,
    "dist_police_km": 0.467,
    "dist_fire_km": 1.071,
    "emergency_safety_index": 87.36
  },
  {
    "school_index": 285,
    "school_name": "Sir Jacob Sasoon High School",
    "lat": 18.96703,
    "lon": 72.8324037,
    "has_hospital": true,
    "has_police_station": true,
    "has_fire_station": true,
    "dist_hospital_km": 0.119,
    "dist_police_km": 0.056,
    "dist_fire_km": 0.605,
    "emergency_safety_index": 94.8
  },
  {
    "school_index": 286,
    "school_name": "E E E Sassoon High School",
    "lat": 18.967056,
    "lon": 72.8307703,
    "has_hospital": true,
    "has_police_station": true,
    "has_fire_station": true,
    "dist_hospital_km": 0.163,
    "dist_police_km": 0.161,
    "dist_fire_km": 0.613,
    "emergency_safety_index": 93.75
  },
  {
    "school_index": 287,
    "school_name": "Anjuman-I-Islam'S M H Saboo Siddik College Of Engineering",
    "lat": 18.968232,
    "lon": 72.8310564,
    "has_hospital": true,
    "has_police_station": true,
    "has_fire_station": true,
    "dist_hospital_km": 0.258,
    "dist_police_km": 0.158,
    "dist_fire_km": 0.479,
    "emergency_safety_index": 94.03
  },
  {
    "school_index": 288,
    "school_name": "Hume High School",
    "lat": 18.967244,
    "lon": 72.8334153,
    "has_hospital": true,
    "has_police_station": true,
    "has_fire_station": true,
    "dist_hospital_km": 0.206,
    "dist_police_km": 0.115,
    "dist_fire_km": 0.599,
    "emergency_safety_index": 93.87
  },
  {
    "school_index": 289,
    "school_name": "St Peter'S School",
    "lat": 18.9674525,
    "lon": 72.8406495,
    "has_hospital": true,
    "has_police_station": true,
    "has_fire_station": true,
    "dist_hospital_km": 0.198,
    "dist_police_km": 0.614,
    "dist_fire_km": 1.07,
    "emergency_safety_index": 87.45
  },
  {
    "school_index": 290,
    "school_name": "St Joseph'S Girls' High School",
    "lat": 18.9733905,
    "lon": 72.8256628,
    "has_hospital": true,
    "has_police_station": true,
    "has_fire_station": true,
    "dist_hospital_km": 0.27,
    "dist_police_km": 0.816,
    "dist_fire_km": 0.67,
    "emergency_safety_index": 88.29
  },
  {
    "school_index": 291,
    "school_name": "St Agnes' High School",
    "lat": 18.9708637,
    "lon": 72.830444,
    "has_hospital": true,
    "has_police_station": true,
    "has_fire_station": true,
    "dist_hospital_km": 0.326,
    "dist_police_km": 0.422,
    "dist_fire_km": 0.238,
    "emergency_safety_index": 93.43
  },
  {
    "school_index": 292,
    "school_name": "Christ Church School",
    "lat": 18.9697524,
    "lon": 72.831768,
    "has_hospital": true,
    "has_police_station": true,
    "has_fire_station": true,
    "dist_hospital_km": 0.36,
    "dist_police_km": 0.255,
    "dist_fire_km": 0.301,
    "emergency_safety_index": 93.89
  },
  {
    "school_index": 293,
    "school_name": "St Mary'S High School S S C",
    "lat": 18.9700631,
    "lon": 72.8360905,
    "has_hospital": true,
    "has_police_station": true,
    "has_fire_station": true,
    "dist_hospital_km": 0.096,
    "dist_police_km": 0.42,
    "dist_fire_km": 0.509,
    "emergency_safety_index": 93.17
  },