[
  {
    "school_index": 0,
    "school_name": "Sri Krishna Engineering College",
    "lat": 12.8641206,
    "lon": 79.973316,
    "has_hospital": false,
    "has_police_station": false,
    "has_fire_station": false,
    "dist_hospital_km": 0.0,
    "dist_police_km": 0.0,
    "dist_fire_km": 0.0,
    "emergency_safety_index": 0.0
  },
  {
    "school_index": 1,
    "school_name": "Hiet Polytechnic College",
    "lat": 12.8645028,
    "lon": 79.991994,
    "has_hospital": false,
    "has_police_station": false,
    "has_fire_station": false,
    "dist_hospital_km": 0.0,
    "dist_police_km": 0.0,
    "dist_fire_km": 0.0,
    "emergency_safety_index": 0.0
  },
  {
    "school_index": 2,
    "school_name": "Srm University Building",
    "lat": 12.8233083,
    "lon": 80.0424496,
    "has_hospital": true,
    "has_police_station": false,
    "has_fire_station": false,
    "dist_hospital_km": 0.648,
    "dist_police_km": 0.0,
    "dist_fire_km": 0.0,
    "emergency_safety_index": 16.75
  },
  {
    "school_index": 3,
    "school_name": "Govt School",
    "lat": 12.8684808,
    "lon": 80.0619303,
    "has_hospital": true,
    "has_police_station": false,
    "has_fire_station": false,
    "dist_hospital_km": 0.326,
    "dist_police_km": 0.0,
    "dist_fire_km": 0.0,
    "emergency_safety_index": 17.99
  },
  {
    "school_index": 4,
    "school_name": "Sri Venkateswara College Of Engineering - Svce",
    "lat": 12.9864437,
    "lon": 79.9717629,
    "has_hospital": true,
    "has_police_station": false,
    "has_fire_station": false,
    "dist_hospital_km": 1.786,
    "dist_police_km": 0.0,
    "dist_fire_km": 0.0,
    "emergency_safety_index": 12.37
  },
  {
    "school_index": 5,
    "school_name": "Research And Deevelopment",
    "lat": 12.9888607,
    "lon": 79.9711278,
    "has_hospital": false,
    "has_police_station": false,
    "has_fire_station": false,
    "dist_hospital_km": 0.0,
    "dist_police_km": 0.0,
    "dist_fire_km": 0.0,
    "emergency_safety_index": 0.0
  },
  {
    "school_index": 6,
    "school_name": "Workshop",
    "lat": 12.9885262,
    "lon": 79.9716513,
    "has_hospital": false,
    "has_police_station": false,
    "has_fire_station": false,
    "dist_hospital_km": 0.0,
    "dist_police_km": 0.0,
    "dist_fire_km": 0.0,
    "emergency_safety_index": 0.0
  },
  {
    "school_index": 7,
    "school_name": "Workshop",
    "lat": 12.9884426,
    "lon": 79.972338,
    "has_hospital": true,
    "has_police_station": false,
    "has_fire_station": false,
    "dist_hospital_km": 1.986,
    "dist_police_km": 0.0,
    "dist_fire_km": 0.0,
    "emergency_safety_index": 11.6
  },
  {
    "school_index": 8,
    "school_name": "Computer Science",
    "lat": 12.9874229,
    "lon": 79.9730427,
    "has_hospital": true,
    "has_police_station": false,
    "has_fire_station": false,
    "dist_hospital_km": 1.859,
    "dist_police_km": 0.0,
    "dist_fire_km": 0.0,
    "emergency_safety_index": 12.09
  },
  {
    "school_index": 9,
    "school_name": "Mechanical",
    "lat": 12.9877986,
    "lon": 79.9727414,
    "has_hospital": true,
    "has_police_station": false,
    "has_fire_station": false,
    "dist_hospital_km": 1.906,
    "dist_police_km": 0.0,
    "dist_fire_km": 0.0,
    "emergency_safety_index": 11.91
  },
  {
    "school_index": 10,
    "school_name": "Applied Science",
    "lat": 12.9871211,
    "lon": 79.9726813,
    "has_hospital": true,
    "has_police_station": false,
    "has_fire_station": false,
    "dist_hospital_km": 1.834,
    "dist_police_km": 0.0,
    "dist_fire_km": 0.0,
    "emergency_safety_index": 12.19
  },
  {
    "school_index": 11,
    "school_name": "Chemical",
    "lat": 12.9878153,
    "lon": 79.9722092,
    "has_hospital": true,
    "has_police_station": false,
    "has_fire_station": false,
    "dist_hospital_km": 1.921,
    "dist_police_km": 0.0,
    "dist_fire_km": 0.0,
    "emergency_safety_index": 11.85
  },
  {
    "school_index": 12,
    "school_name": "Administration",
    "lat": 12.9869873,
    "lon": 79.9720461,
    "has_hospital": true,
    "has_police_station": false,
    "has_fire_station": false,
    "dist_hospital_km": 1.836,
    "dist_police_km": 0.0,
    "dist_fire_km": 0.0,
    "emergency_safety_index": 12.18
  },
  {
    "school_index": 13,
    "school_name": "Marine",
    "lat": 12.9877902,
    "lon": 79.9714711,
    "has_hospital": true,
    "has_police_station": false,
    "has_fire_station": false,
    "dist_hospital_km": 1.939,
    "dist_police_km": 0.0,
    "dist_fire_km": 0.0,
    "emergency_safety_index": 11.78
  },
  {
    "school_index": 14,
    "school_name": "Biotechnology",
    "lat": 12.9873176,
    "lon": 79.9714898,
    "has_hospital": true,
    "has_police_station": false,
    "has_fire_station": false,
    "dist_hospital_km": 1.888,
    "dist_police_km": 0.0,
    "dist_fire_km": 0.0,
    "emergency_safety_index": 11.98
  },
  {
    "school_index": 15,
    "school_name": "Crb1",
    "lat": 12.986636,
    "lon": 79.972398,
    "has_hospital": true,
    "has_police_station": false,
    "has_fire_station": false,
    "dist_hospital_km": 1.789,
    "dist_police_km": 0.0,
    "dist_fire_km": 0.0,
    "emergency_safety_index": 12.36
  },
  {
    "school_index": 16,
    "school_name": "Skb Vidhyashram Play School -",
    "lat": 12.9218101,
    "lon": 80.0925259,
    "has_hospital": true,
    "has_police_station": false,
    "has_fire_station": false,
    "dist_hospital_km": 0.396,
    "dist_police_km": 0.0,
    "dist_fire_km": 0.0,
    "emergency_safety_index": 17.72
  },
  {
    "school_index": 17,
    "school_name": "Vivekananda School",
    "lat": 12.9895379,
    "lon": 80.1000841,
    "has_hospital": true,
    "has_police_station": true,
    "has_fire_station": false,
    "dist_hospital_km": 0.882,
    "dist_police_km": 1.249,
    "dist_fire_km": 0.0,
    "emergency_safety_index": 42.83
  },
  {
    "school_index": 18,
    "school_name": "Sivanthi Public School",
    "lat": 12.9873006,
    "lon": 80.1065161,
    "has_hospital": true,
    "has_police_station": true,
    "has_fire_station": false,
    "dist_hospital_km": 1.443,
    "dist_police_km": 1.946,
    "dist_fire_km": 0.0,
    "emergency_safety_index": 35.99
  },
  {
    "school_index": 19,
    "school_name": "Smk Fomra Institute Of Technology",
    "lat": 12.766665,
    "lon": 80.2046545,
    "has_hospital": false,
    "has_police_station": false,
    "has_fire_station": false,
    "dist_hospital_km": 0.0,
    "dist_police_km": 0.0,
    "dist_fire_km": 0.0,
    "emergency_safety_index": 0.0
  },
  {
    "school_index": 20,
    "school_name": "Psb Polytechnic College",
    "lat": 12.7645723,
    "lon": 80.2094611,
    "has_hospital": false,
    "has_police_station": false,
    "has_fire_station": false,
    "dist_hospital_km": 0.0,
    "dist_police_km": 0.0,
    "dist_fire_km": 0.0,
    "emergency_safety_index": 0.0
  },
  {
    "school_index": 21,
    "school_name": "Iit Madras Thaiyur Campus",
    "lat": 12.7936971,
    "lon": 80.1850698,
    "has_hospital": false,
    "has_police_station": false,
    "has_fire_station": false,
    "dist_hospital_km": 0.0,
    "dist_police_km": 0.0,
    "dist_fire_km": 0.0,
    "emergency_safety_index": 0.0
  },
  {
    "school_index": 22,
    "school_name": "Professor Dhanapalan College For Women",
    "lat": 12.7948315,
    "lon": 80.218881,
    "has_hospital": true,
    "has_police_station": false,
    "has_fire_station": false,
    "dist_hospital_km": 0.294,
    "dist_police_km": 0.0,
    "dist_fire_km": 0.0,
    "emergency_safety_index": 18.11
  },
  {
    "school_index": 23,
    "school_name": "Hello Kids - Ilanthalir",
    "lat": 12.7970554,
    "lon": 80.2217236,
    "has_hospital": true,
    "has_police_station": false,
    "has_fire_station": false,
    "dist_hospital_km": 0.448,
    "dist_police_km": 0.0,
    "dist_fire_km": 0.0,
    "emergency_safety_index": 17.52
  },
  {
    "school_index": 24,
    "school_name": "Indian Institute Of Information Technology Design And Manufacturing Kancheepuram",
    "lat": 12.8373375,
    "lon": 80.1369635,
    "has_hospital": true,
    "has_police_station": false,
    "has_fire_station": false,
    "dist_hospital_km": 1.433,
    "dist_police_km": 0.0,
    "dist_fire_km": 0.0,
    "emergency_safety_index": 13.73
  },
  {
    "school_index": 25,
    "school_name": "Tagore Engineering Clg",
    "lat": 12.8602215,
    "lon": 80.1327545,
    "has_hospital": true,
    "has_police_station": false,
    "has_fire_station": false,
    "dist_hospital_km": 0.338,
    "dist_police_km": 0.0,
    "dist_fire_km": 0.0,
    "emergency_safety_index": 17.94
  },
  {
    "school_index": 26,
    "school_name": "The School - Kfi",
    "lat": 12.8438802,
    "lon": 80.2050179,
    "has_hospital": true,
    "has_police_station": false,
    "has_fire_station": false,
    "dist_hospital_km": 0.897,
    "dist_police_km": 0.0,
    "dist_fire_km": 0.0,
    "emergency_safety_index": 15.79
  },
  {
    "school_index": 27,
    "school_name": "Srimathi Sundaravalli Memorial School",
    "lat": 12.8960126,
    "lon": 80.1190415,
    "has_hospital": false,
    "has_police_station": false,
    "has_fire_station": false,
    "dist_hospital_km": 0.0,
    "dist_police_km": 0.0,
    "dist_fire_km": 0.0,
    "emergency_safety_index": 0.0
  },
  {
    "school_index": 28,
    "school_name": "Gkm College Of Engineering",
    "lat": 12.8956004,
    "lon": 80.1214822,
    "has_hospital": false,
    "has_police_station": false,
    "has_fire_station": false,
    "dist_hospital_km": 0.0,
    "dist_police_km": 0.0,
    "dist_fire_km": 0.0,
    "emergency_safety_index": 0.0
  },
  {
    "school_index": 29,
    "school_name": "Biher Cse Block",
    "lat": 12.9078648,
    "lon": 80.1403182,
    "has_hospital": true,
    "has_police_station": true,
    "has_fire_station": false,
    "dist_hospital_km": 1.431,
    "dist_police_km": 1.765,
    "dist_fire_km": 0.0,
    "emergency_safety_index": 37.04
  },
  {
    "school_index": 30,
    "school_name": "Chemical Department",
    "lat": 12.8703348,
    "lon": 80.215186,
    "has_hospital": true,
    "has_police_station": false,
    "has_fire_station": false,
    "dist_hospital_km": 0.888,
    "dist_police_km": 0.0,
    "dist_fire_km": 0.0,
    "emergency_safety_index": 15.83
  },
  {
    "school_index": 31,
    "school_name": "Sithalapakkam Government High School",
    "lat": 12.8961318,
    "lon": 80.1828607,
    "has_hospital": true,
    "has_police_station": true,
    "has_fire_station": false,
    "dist_hospital_km": 0.374,
    "dist_police_km": 0.17,
    "dist_fire_km": 0.0,
    "emergency_safety_index": 51.47
  },
  {
    "school_index": 32,
    "school_name": "Lifeline Stepping Stones",
    "lat": 12.9111281,
    "lon": 80.1918496,
    "has_hospital": true,
    "has_police_station": true,
    "has_fire_station": false,
    "dist_hospital_km": 0.149,
    "dist_police_km": 0.779,
    "dist_fire_km": 0.0,
    "emergency_safety_index": 49.38
  },
  {
    "school_index": 33,
    "school_name": "Bharatha Vidhyalaya School",
    "lat": 12.9079132,
    "lon": 80.2016416,
    "has_hospital": true,
    "has_police_station": true,
    "has_fire_station": false,
    "dist_hospital_km": 0.138,
    "dist_police_km": 1.271,
    "dist_fire_km": 0.0,
    "emergency_safety_index": 46.76
  },
  {
    "school_index": 34,
    "school_name": "Kidzee - Guduvancheri",
    "lat": 12.8144437,
    "lon": 80.2284467,
    "has_hospital": true,
    "has_police_station": false,
    "has_fire_station": true,
    "dist_hospital_km": 0.362,
    "dist_police_km": 0.0,
    "dist_fire_km": 1.955,
    "emergency_safety_index": 41.82
  },
  {
    "school_index": 35,
    "school_name": "Kindernest Omr",
    "lat": 12.821099,
    "lon": 80.2309654,
    "has_hospital": true,
    "has_police_station": false,
    "has_fire_station": true,
    "dist_hospital_km": 1.019,
    "dist_police_km": 0.0,
    "dist_fire_km": 1.44,
    "emergency_safety_index": 41.05
  },
  {
    "school_index": 36,
    "school_name": "Department Of Fashion Design",
    "lat": 12.870649,
    "lon": 80.2203849,
    "has_hospital": true,
    "has_police_station": false,
    "has_fire_station": false,
    "dist_hospital_km": 0.324,
    "dist_police_km": 0.0,
    "dist_fire_km": 0.0,
    "emergency_safety_index": 18.0
  },
  {
    "school_index": 37,
    "school_name": "Department Of Computer Science",
    "lat": 12.8738339,
    "lon": 80.2211671,
    "has_hospital": true,
    "has_police_station": false,
    "has_fire_station": false,
    "dist_hospital_km": 0.44,
    "dist_police_km": 0.0,
    "dist_fire_km": 0.0,
    "emergency_safety_index": 17.55
  },
  {
    "school_index": 38,
    "school_name": "Department Of Electrical & Electronics Engg",
    "lat": 12.8739858,
    "lon": 80.2207237,
    "has_hospital": true,
    "has_police_station": false,
    "has_fire_station": false,
    "dist_hospital_km": 0.481,
    "dist_police_km": 0.0,
    "dist_fire_km": 0.0,
    "emergency_safety_index": 17.39
  },
  {
    "school_index": 39,
    "school_name": "Department Of Mechanical Engg",
    "lat": 12.8737589,
    "lon": 80.2203054,
    "has_hospital": true,
    "has_police_station": false,
    "has_fire_station": false,
    "dist_hospital_km": 0.491,
    "dist_police_km": 0.0,
    "dist_fire_km": 0.0,
    "emergency_safety_index": 17.36
  },
  {
    "school_index": 40,
    "school_name": "St Joseph'S College Of Engineering",
    "lat": 12.870235,
    "lon": 80.2263607,
    "has_hospital": true,
    "has_police_station": false,
    "has_fire_station": false,
    "dist_hospital_km": 0.325,
    "dist_police_km": 0.0,
    "dist_fire_km": 0.0,
    "emergency_safety_index": 17.99
  },
  {
    "school_index": 41,
    "school_name": "Indian Maritime University",
    "lat": 12.8727912,
    "lon": 80.2353855,
    "has_hospital": true,
    "has_police_station": false,
    "has_fire_station": false,
    "dist_hospital_km": 1.326,
    "dist_police_km": 0.0,
    "dist_fire_km": 0.0,
    "emergency_safety_index": 14.14
  },
  {
    "school_index": 42,
    "school_name": "Indian Maritime University Chennai Campus",
    "lat": 12.8636768,
    "lon": 80.2424078,
    "has_hospital": false,
    "has_police_station": false,
    "has_fire_station": false,
    "dist_hospital_km": 0.0,
    "dist_police_km": 0.0,
    "dist_fire_km": 0.0,
    "emergency_safety_index": 0.0
  },
  {
    "school_index": 43,
    "school_name": "Shri Sakthi Vidyalaya",
    "lat": 12.8861992,
    "lon": 80.2460833,
    "has_hospital": false,
    "has_police_station": false,
    "has_fire_station": false,
    "dist_hospital_km": 0.0,
    "dist_police_km": 0.0,
    "dist_fire_km": 0.0,
    "emergency_safety_index": 0.0
  },
  {
    "school_index": 44,
    "school_name": "Babaji Vidyashram Cbse School",
    "lat": 12.8960203,
    "lon": 80.2172121,
    "has_hospital": true,
    "has_police_station": true,
    "has_fire_station": false,
    "dist_hospital_km": 0.674,
    "dist_police_km": 1.289,
    "dist_fire_km": 0.0,
    "emergency_safety_index": 43.75
  },
  {
    "school_index": 45,
    "school_name": "Model School",
    "lat": 12.8948995,
    "lon": 80.2267708,
    "has_hospital": true,
    "has_police_station": true,
    "has_fire_station": false,
    "dist_hospital_km": 0.376,
    "dist_police_km": 0.676,
    "dist_fire_km": 0.0,
    "emergency_safety_index": 48.71
  },
  {
    "school_index": 46,
    "school_name": "St Mary'S Metric Hr Sec School",
    "lat": 12.9170277,
    "lon": 80.1155469,
    "has_hospital": true,
    "has_police_station": true,
    "has_fire_station": false,
    "dist_hospital_km": 0.927,
    "dist_police_km": 0.976,
    "dist_fire_km": 0.0,
    "emergency_safety_index": 44.07
  },
  {
    "school_index": 47,
    "school_name": "Csi Middle School",
    "lat": 12.9161721,
    "lon": 80.1156075,
    "has_hospital": true,
    "has_police_station": true,
    "has_fire_station": false,
    "dist_hospital_km": 1.019,
    "dist_police_km": 1.069,
    "dist_fire_km": 0.0,
    "emergency_safety_index": 43.07
  },
  {
    "school_index": 48,
    "school_name": "Christ King Metric Hr Sec School",
    "lat": 12.9221572,
    "lon": 80.1163643,
    "has_hospital": true,
    "has_police_station": true,
    "has_fire_station": false,
    "dist_hospital_km": 0.449,
    "dist_police_km": 0.522,
    "dist_fire_km": 0.0,
    "emergency_safety_index": 49.15
  },
  {
    "school_index": 49,
    "school_name": "Kidzee Kids School",
    "lat": 12.9242095,
    "lon": 80.1279331,
    "has_hospital": true,
    "has_police_station": true,
    "has_fire_station": false,
    "dist_hospital_km": 0.033,
    "dist_police_km": 0.804,
    "dist_fire_km": 0.0,
    "emergency_safety_index": 49.88
  },
  {
    "school_index": 50,
    "school_name": "Government Girls Higher Secondary Schoo",
    "lat": 12.9246874,
    "lon": 80.13168,
    "has_hospital": true,
    "has_police_station": true,
    "has_fire_station": false,
    "dist_hospital_km": 0.2,
    "dist_police_km": 0.431,
    "dist_fire_km": 0.0,
    "emergency_safety_index": 51.0
  },
  {
    "school_index": 51,
    "school_name": "Sri Sankara Vidyalaya Matriculation Higher Secondary School",
    "lat": 12.9228716,
    "lon": 80.132183,
    "has_hospital": true,
    "has_police_station": true,
    "has_fire_station": false,
    "dist_hospital_km": 0.149,
    "dist_police_km": 0.331,
    "dist_fire_km": 0.0,
    "emergency_safety_index": 51.82
  },
  {
    "school_index": 52,
    "school_name": "St Mark Matric School",
    "lat": 12.9223303,
    "lon": 80.1429628,
    "has_hospital": true,
    "has_police_station": true,
    "has_fire_station": false,
    "dist_hospital_km": 0.133,
    "dist_police_km": 0.84,
    "dist_fire_km": 0.0,
    "emergency_safety_index": 49.14
  },
  {
    "school_index": 53,
    "school_name": "Nsn School",
    "lat": 12.9311824,
    "lon": 80.1379425,
    "has_hospital": true,
    "has_police_station": true,
    "has_fire_station": true,
    "dist_hospital_km": 0.353,
    "dist_police_km": 0.679,
    "dist_fire_km": 1.463,
    "emergency_safety_index": 83.37
  },
  {
    "school_index": 54,
    "school_name": "Sreevatsa Viswanathan Vivekananda Vidhyalaya",
    "lat": 12.928648,
    "lon": 80.1453706,
    "has_hospital": true,
    "has_police_station": true,
    "has_fire_station": false,
    "dist_hospital_km": 0.764,
    "dist_police_km": 1.255,
    "dist_fire_km": 0.0,
    "emergency_safety_index": 43.44
  },
  {
    "school_index": 55,
    "school_name": "Zion Matriculation Higher Secondary School",
    "lat": 12.9360597,
    "lon": 80.1609096,
    "has_hospital": true,
    "has_police_station": false,
    "has_fire_station": false,
    "dist_hospital_km": 1.286,
    "dist_police_km": 0.0,
    "dist_fire_km": 0.0,
    "emergency_safety_index": 14.3
  },
  {
    "school_index": 56,
    "school_name": "Lakshmi Ammal School",
    "lat": 12.9519873,
    "lon": 80.1345334,
    "has_hospital": true,
    "has_police_station": true,
    "has_fire_station": true,
    "dist_hospital_km": 0.236,
    "dist_police_km": 1.675,
    "dist_fire_km": 0.934,
    "emergency_safety_index": 81.03
  },
  {
    "school_index": 57,
    "school_name": "Government Boys Higher Secondary School",
    "lat": 12.953827,
    "lon": 80.1368303,
    "has_hospital": true,
    "has_police_station": true,
    "has_fire_station": true,
    "dist_hospital_km": 0.188,
    "dist_police_km": 1.842,
    "dist_fire_km": 1.186,
    "emergency_safety_index": 78.56
  },
  {
    "school_index": 58,
    "school_name": "Meenakshi Krishan Polytechnic College",
    "lat": 12.9656183,
    "lon": 80.1275092,
    "has_hospital": true,
    "has_police_station": true,
    "has_fire_station": false,
    "dist_hospital_km": 0.098,
    "dist_police_km": 0.447,
    "dist_fire_km": 0.0,
    "emergency_safety_index": 51.47
  },
  {
    "school_index": 59,
    "school_name": "Ammaniammal School",
    "lat": 12.9660634,
    "lon": 80.1263205,
    "has_hospital": true,
    "has_police_station": true,
    "has_fire_station": false,
    "dist_hospital_km": 0.233,
    "dist_police_km": 0.362,
    "dist_fire_km": 0.0,
    "emergency_safety_index": 51.19
  },
  {
    "school_index": 60,
    "school_name": "Nsn School",
    "lat": 12.9426246,
    "lon": 80.1416397,
    "has_hospital": true,
    "has_police_station": true,
    "has_fire_station": true,
    "dist_hospital_km": 0.116,
    "dist_police_km": 0.717,
    "dist_fire_km": 0.879,
    "emergency_safety_index": 88.59
  },
  {
    "school_index": 61,
    "school_name": "Saviour Jesus Matriculation Higher Secondary School",
    "lat": 12.9428412,
    "lon": 80.1502698,
    "has_hospital": true,
    "has_police_station": true,
    "has_fire_station": true,
    "dist_hospital_km": 0.709,
    "dist_police_km": 1.473,
    "dist_fire_km": 1.809,
    "emergency_safety_index": 73.39
  },
  {
    "school_index": 62,
    "school_name": "Dcoe Office",
    "lat": 12.9489729,
    "lon": 80.1397503,
    "has_hospital": true,
    "has_police_station": true,
    "has_fire_station": true,
    "dist_hospital_km": 0.308,
    "dist_police_km": 1.314,
    "dist_fire_km": 0.893,
    "emergency_safety_index": 83.23
  },
  {
    "school_index": 63,
    "school_name": "Lecture Hall Complex",
    "lat": 12.9481562,
    "lon": 80.1397886,
    "has_hospital": true,
    "has_police_station": true,
    "has_fire_station": true,
    "dist_hospital_km": 0.218,
    "dist_police_km": 1.225,
    "dist_fire_km": 0.838,
    "emergency_safety_index": 84.79
  },
  {
    "school_index": 64,
    "school_name": "Department Of Aeronautical Engineering",
    "lat": 12.9486173,
    "lon": 80.1407986,
    "has_hospital": true,
    "has_police_station": true,
    "has_fire_station": true,
    "dist_hospital_km": 0.282,
    "dist_police_km": 1.297,
    "dist_fire_km": 0.957,
    "emergency_safety_index": 83.09
  },
  {
    "school_index": 65,
    "school_name": "Mechatronics",
    "lat": 12.9491126,
    "lon": 80.1409786,
    "has_hospital": true,
    "has_police_station": true,
    "has_fire_station": true,
    "dist_hospital_km": 0.341,
    "dist_police_km": 1.355,
    "dist_fire_km": 1.005,
    "emergency_safety_index": 81.99
  },
  {
    "school_index": 66,
    "school_name": "Department Of Automobile Engineering",
    "lat": 12.9478814,
    "lon": 80.1403398,
    "has_hospital": true,
    "has_police_station": true,
    "has_fire_station": true,
    "dist_hospital_km": 0.19,
    "dist_police_km": 1.206,
    "dist_fire_km": 0.87,
    "emergency_safety_index": 84.89
  },
  {
    "school_index": 67,
    "school_name": "St Mark'S School",
    "lat": 12.9510813,
    "lon": 80.1488697,
    "has_hospital": true,
    "has_police_station": true,
    "has_fire_station": true,
    "dist_hospital_km": 0.279,
    "dist_police_km": 1.938,
    "dist_fire_km": 1.851,
    "emergency_safety_index": 72.88
  },
  {
    "school_index": 68,
    "school_name": "Shikshaa Matriculation Higher Secondary School",
    "lat": 12.9404891,
    "lon": 80.1561516,
    "has_hospital": true,
    "has_police_station": false,
    "has_fire_station": false,
    "dist_hospital_km": 1.206,
    "dist_police_km": 0.0,
    "dist_fire_km": 0.0,
    "emergency_safety_index": 14.6
  },
  {
    "school_index": 69,
    "school_name": "New Prince Shri Bhavani Arts And Science College",
    "lat": 12.9156067,
    "lon": 80.1872569,
    "has_hospital": true,
    "has_police_station": true,
    "has_fire_station": false,
    "dist_hospital_km": 0.278,
    "dist_police_km": 0.871,
    "dist_fire_km": 0.0,
    "emergency_safety_index": 48.18
  },
  {
    "school_index": 70,
    "school_name": "Christ King School",
    "lat": 12.9214424,
    "lon": 80.1869452,
    "has_hospital": true,
    "has_police_station": true,
    "has_fire_station": false,
    "dist_hospital_km": 0.409,
    "dist_police_km": 0.991,
    "dist_fire_km": 0.0,
    "emergency_safety_index": 46.81
  },
  {
    "school_index": 71,
    "school_name": "Zemcode Medical Coding Training",
    "lat": 12.9156431,
    "lon": 80.1945578,
    "has_hospital": true,
    "has_police_station": true,
    "has_fire_station": false,
    "dist_hospital_km": 0.079,
    "dist_police_km": 0.202,
    "dist_fire_km": 0.0,
    "emergency_safety_index": 52.9
  },
  {
    "school_index": 72,
    "school_name": "Pallikarani Govt Higher Secondary School",
    "lat": 12.9242267,
    "lon": 80.1982298,
    "has_hospital": true,
    "has_police_station": true,
    "has_fire_station": false,
    "dist_hospital_km": 0.448,
    "dist_police_km": 0.834,
    "dist_fire_km": 0.0,
    "emergency_safety_index": 47.45
  },
  {
    "school_index": 73,
    "school_name": "Apple Kids",
    "lat": 12.922219,
    "lon": 80.1984015,
    "has_hospital": true,
    "has_police_station": true,
    "has_fire_station": false,
    "dist_hospital_km": 0.66,
    "dist_police_km": 0.647,
    "dist_fire_km": 0.0,
    "emergency_safety_index": 47.32
  },
  {
    "school_index": 74,
    "school_name": "Asan Memorial College",
    "lat": 12.9253386,
    "lon": 80.2003719,
    "has_hospital": true,
    "has_police_station": true,
    "has_fire_station": false,
    "dist_hospital_km": 0.314,
    "dist_police_km": 1.054,
    "dist_fire_km": 0.0,
    "emergency_safety_index": 46.99
  },
  {
    "school_index": 75,
    "school_name": "Chennai School Corporation",
    "lat": 12.926285,
    "lon": 80.1978774,
    "has_hospital": true,
    "has_police_station": true,
    "has_fire_station": false,
    "dist_hospital_km": 0.266,
    "dist_police_km": 1.035,
    "dist_fire_km": 0.0,
    "emergency_safety_index": 47.35
  },
  {
    "school_index": 76,
    "school_name": "St Peters School",
    "lat": 12.9284826,
    "lon": 80.2024966,
    "has_hospital": true,
    "has_police_station": true,
    "has_fire_station": false,
    "dist_hospital_km": 0.138,
    "dist_police_km": 1.473,
    "dist_fire_km": 0.0,
    "emergency_safety_index": 45.66
  },
  {
    "school_index": 77,
    "school_name": "Infant Jesus High School",
    "lat": 12.9298318,
    "lon": 80.2045907,
    "has_hospital": true,
    "has_police_station": true,
    "has_fire_station": false,
    "dist_hospital_km": 0.178,
    "dist_police_km": 1.726,
    "dist_fire_km": 0.0,
    "emergency_safety_index": 44.07
  },
  {
    "school_index": 78,
    "school_name": "Goverment School",
    "lat": 12.956025,
    "lon": 80.1850444,
    "has_hospital": true,
    "has_police_station": true,
    "has_fire_station": false,
    "dist_hospital_km": 0.057,
    "dist_police_km": 0.029,
    "dist_fire_km": 0.0,
    "emergency_safety_index": 53.96
  },
  {
    "school_index": 79,
    "school_name": "Holy Family Convent Matric Hr Sec School",
    "lat": 12.9602888,
    "lon": 80.18651,
    "has_hospital": true,
    "has_police_station": true,
    "has_fire_station": false,
    "dist_hospital_km": 0.196,
    "dist_police_km": 0.496,
    "dist_fire_km": 0.0,
    "emergency_safety_index": 50.67
  },
  {
    "school_index": 80,
    "school_name": "Himayam Matric School",
    "lat": 12.9454618,
    "lon": 80.1945713,
    "has_hospital": true,
    "has_police_station": true,
    "has_fire_station": false,
    "dist_hospital_km": 1.367,
    "dist_police_km": 1.542,
    "dist_fire_km": 0.0,
    "emergency_safety_index": 38.6
  },
  {
    "school_index": 81,
    "school_name": "Netaji Vidyalaya School",
    "lat": 12.9430359,
    "lon": 80.1928444,
    "has_hospital": true,
    "has_police_station": true,
    "has_fire_station": false,
    "dist_hospital_km": 1.108,
    "dist_police_km": 1.655,
    "dist_fire_km": 0.0,
    "emergency_safety_index": 39.39
  },
  {
    "school_index": 82,
    "school_name": "Vailankanni Silver Jubilee Matriculation Higher Secondary School",
    "lat": 12.9579014,
    "lon": 80.1928829,
    "has_hospital": true,
    "has_police_station": true,
    "has_fire_station": false,
    "dist_hospital_km": 0.622,
    "dist_police_km": 0.848,
    "dist_fire_km": 0.0,
    "emergency_safety_index": 46.43
  },
  {
    "school_index": 83,
    "school_name": "King'S Matric Hr Sec School",
    "lat": 12.9657555,
    "lon": 80.1970157,
    "has_hospital": true,
    "has_police_station": true,
    "has_fire_station": false,
    "dist_hospital_km": 0.181,
    "dist_police_km": 0.98,
    "dist_fire_km": 0.0,
    "emergency_safety_index": 48.11
  },
  {
    "school_index": 84,
    "school_name": "Sarada Matriculation School",
    "lat": 12.9674323,
    "lon": 80.1281637,
    "has_hospital": true,
    "has_police_station": true,
    "has_fire_station": false,
    "dist_hospital_km": 0.264,
    "dist_police_km": 0.329,
    "dist_fire_km": 0.0,
    "emergency_safety_index": 51.21
  },
  {
    "school_index": 85,
    "school_name": "Sri Sankara Vidyalaya Matriculation School",
    "lat": 12.9715673,
    "lon": 80.1265543,
    "has_hospital": true,
    "has_police_station": true,
    "has_fire_station": false,
    "dist_hospital_km": 0.506,
    "dist_police_km": 0.267,
    "dist_fire_km": 0.0,
    "emergency_safety_index": 50.23
  },
  {
    "school_index": 86,
    "school_name": "Nadar Sangam Matric Hr Sec School",
    "lat": 12.9761444,
    "lon": 80.138181,
    "has_hospital": true,
    "has_police_station": true,
    "has_fire_station": false,
    "dist_hospital_km": 0.236,
    "dist_police_km": 1.544,
    "dist_fire_km": 0.0,
    "emergency_safety_index": 44.74
  },
  {
    "school_index": 87,
    "school_name": "Brilliant Matriculation School",
    "lat": 12.9704142,
    "lon": 80.186583,
    "has_hospital": true,
    "has_police_station": true,
    "has_fire_station": false,
    "dist_hospital_km": 0.194,
    "dist_police_km": 0.381,
    "dist_fire_km": 0.0,
    "emergency_safety_index": 51.3
  },
  {
    "school_index": 88,
    "school_name": "Government Higher Secondary School",
    "lat": 12.9689235,
    "lon": 80.1849511,
    "has_hospital": true,
    "has_police_station": true,
    "has_fire_station": false,
    "dist_hospital_km": 0.059,
    "dist_police_km": 0.583,
    "dist_fire_km": 0.0,
    "emergency_safety_index": 50.94
  },
  {
    "school_index": 89,
    "school_name": "Government Primary School",
    "lat": 12.9688048,
    "lon": 80.1844534,
    "has_hospital": true,
    "has_police_station": true,
    "has_fire_station": false,
    "dist_hospital_km": 0.099,
    "dist_police_km": 0.616,
    "dist_fire_km": 0.0,
    "emergency_safety_index": 50.54
  },
  {
    "school_index": 90,
    "school_name": "Mowbray'S Matriculation Higher Secondary School",
    "lat": 12.985101,
    "lon": 80.1894583,
    "has_hospital": true,
    "has_police_station": true,
    "has_fire_station": true,
    "dist_hospital_km": 0.13,
    "dist_police_km": 0.493,
    "dist_fire_km": 1.963,
    "emergency_safety_index": 82.76
  },
  {
    "school_index": 91,
    "school_name": "Saraswathi Vidyalaya",
    "lat": 12.9830589,
    "lon": 80.1889595,
    "has_hospital": true,
    "has_police_station": true,
    "has_fire_station": true,
    "dist_hospital_km": 0.038,
    "dist_police_km": 0.38,
    "dist_fire_km": 1.967,
    "emergency_safety_index": 84.1
  },
  {
    "school_index": 92,
    "school_name": "Jawaharlal Nehru Government Boys School",
    "lat": 12.9862277,
    "lon": 80.1855109,
    "has_hospital": true,
    "has_police_station": true,
    "has_fire_station": true,
    "dist_hospital_km": 0.071,
    "dist_police_km": 0.885,
    "dist_fire_km": 1.519,
    "emergency_safety_index": 83.5
  },
  {
    "school_index": 93,
    "school_name": "Prince Matric Hr Sec School",
    "lat": 12.9694641,
    "lon": 80.1944308,
    "has_hospital": true,
    "has_police_station": true,
    "has_fire_station": false,
    "dist_hospital_km": 0.432,
    "dist_police_km": 0.956,
    "dist_fire_km": 0.0,
    "emergency_safety_index": 46.88
  },
  {
    "school_index": 94,
    "school_name": "Rajkumar Sulochana Matric Higher Secondary School",
    "lat": 12.968849,
    "lon": 80.1920857,
    "has_hospital": true,
    "has_police_station": true,
    "has_fire_station": false,
    "dist_hospital_km": 0.205,
    "dist_police_km": 0.794,
    "dist_fire_km": 0.0,
    "emergency_safety_index": 49.0
  },
  {
    "school_index": 95,
    "school_name": "Shri Venkateshwara Highter Secondary School",
    "lat": 12.9694645,
    "lon": 80.1949092,
    "has_hospital": true,
    "has_police_station": true,
    "has_fire_station": false,
    "dist_hospital_km": 0.484,
    "dist_police_km": 1.001,
    "dist_fire_km": 0.0,
    "emergency_safety_index": 46.35
  },
  {
    "school_index": 96,
    "school_name": "Thandai Periyar Govt High School",
    "lat": 12.9705025,
    "lon": 80.1970465,
    "has_hospital": true,
    "has_police_station": true,
    "has_fire_station": false,
    "dist_hospital_km": 0.67,
    "dist_police_km": 1.141,
    "dist_fire_km": 0.0,
    "emergency_safety_index": 44.58
  },
  {
    "school_index": 97,
    "school_name": "Pon Vidhyashram School",
    "lat": 12.9667572,
    "lon": 80.2155154,
    "has_hospital": true,
    "has_police_station": true,
    "has_fire_station": true,
    "dist_hospital_km": 0.915,
    "dist_police_km": 1.042,
    "dist_fire_km": 1.728,
    "emergency_safety_index": 75.43
  },
  {
    "school_index": 98,
    "school_name": "San Academy",
    "lat": 12.9757851,
    "lon": 80.2123879,
    "has_hospital": true,
    "has_police_station": true,
    "has_fire_station": true,
    "dist_hospital_km": 0.126,
    "dist_police_km": 1.088,
    "dist_fire_km": 1.656,
    "emergency_safety_index": 80.87
  },
  {
    "school_index": 99,
    "school_name": "New Prince Higher Secondary",
    "lat": 12.9853147,
    "lon": 80.2029459,
    "has_hospital": true,
    "has_police_station": true,
    "has_fire_station": false,
    "dist_hospital_km": 0.292,
    "dist_police_km": 0.466,
    "dist_fire_km": 0.0,
    "emergency_safety_index": 50.31
  },
  {
    "school_index": 100,
    "school_name": "Bala Saravana Matriculation School",
    "lat": 12.9831591,
    "lon": 80.2104214,
    "has_hospital": true,
    "has_police_station": true,
    "has_fire_station": true,
    "dist_hospital_km": 0.737,
    "dist_police_km": 1.149,
    "dist_fire_km": 1.993,
    "emergency_safety_index": 74.14
  },
  {
    "school_index": 101,
    "school_name": "St Marks School",
    "lat": 12.9868373,
    "lon": 80.206505,
    "has_hospital": true,
    "has_police_station": true,
    "has_fire_station": false,
    "dist_hospital_km": 0.632,
    "dist_police_km": 0.568,
    "dist_fire_km": 0.0,
    "emergency_safety_index": 47.9
  },
  {
    "school_index": 102,
    "school_name": "Eurokids Manapakkam",
    "lat": 13.0141464,
    "lon": 80.1727814,
    "has_hospital": true,
    "has_police_station": true,
    "has_fire_station": false,
    "dist_hospital_km": 0.552,
    "dist_police_km": 0.964,
    "dist_fire_km": 0.0,
    "emergency_safety_index": 46.18
  },
  {
    "school_index": 103,
    "school_name": "Aloha Kinderstart",
    "lat": 13.0139207,
    "lon": 80.181246,
    "has_hospital": true,
    "has_police_station": true,
    "has_fire_station": false,
    "dist_hospital_km": 0.514,
    "dist_police_km": 0.125,
    "dist_fire_km": 0.0,
    "emergency_safety_index": 50.95
  },
  {
    "school_index": 104,
    "school_name": "St Brittos College",
    "lat": 12.9956265,
    "lon": 80.2040906,
    "has_hospital": true,
    "has_police_station": true,
    "has_fire_station": false,
    "dist_hospital_km": 0.306,
    "dist_police_km": 0.568,
    "dist_fire_km": 0.0,
    "emergency_safety_index": 49.68
  },
  {
    "school_index": 105,
    "school_name": "Central Institute Of Petrochemicals Engineering And Technology",
    "lat": 13.0141314,
    "lon": 80.2052179,
    "has_hospital": true,
    "has_police_station": true,
    "has_fire_station": false,
    "dist_hospital_km": 0.754,
    "dist_police_km": 0.796,
    "dist_fire_km": 0.0,
    "emergency_safety_index": 46.0
  },
  {
    "school_index": 106,
    "school_name": "National Institute Of Management Studies",
    "lat": 12.9177981,
    "lon": 80.2410536,
    "has_hospital": true,
    "has_police_station": false,
    "has_fire_station": false,
    "dist_hospital_km": 1.071,
    "dist_police_km": 0.0,
    "dist_fire_km": 0.0,
    "emergency_safety_index": 15.12
  },
  {
    "school_index": 107,
    "school_name": "Tamilnadu Teachers Education University",
    "lat": 12.9157009,
    "lon": 80.2364655,
    "has_hospital": true,
    "has_police_station": true,
    "has_fire_station": false,
    "dist_hospital_km": 0.86,
    "dist_police_km": 1.888,
    "dist_fire_km": 0.0,
    "emergency_safety_index": 39.47
  },
  {
    "school_index": 108,
    "school_name": "Thangavelu Engineering Collage",
    "lat": 12.9230904,
    "lon": 80.22918,
    "has_hospital": true,
    "has_police_station": false,
    "has_fire_station": false,
    "dist_hospital_km": 1.055,
    "dist_police_km": 0.0,
    "dist_fire_km": 0.0,
    "emergency_safety_index": 15.18
  },
  {
    "school_index": 109,
    "school_name": "Kcg College Of Technology",
    "lat": 12.9214372,
    "lon": 80.2416769,
    "has_hospital": true,
    "has_police_station": false,
    "has_fire_station": false,
    "dist_hospital_km": 1.31,
    "dist_police_km": 0.0,
    "dist_fire_km": 0.0,
    "emergency_safety_index": 14.2
  },
  {
    "school_index": 110,
    "school_name": "Kcg College Of Techology",
    "lat": 12.9217681,
    "lon": 80.2404146,
    "has_hospital": true,
    "has_police_station": false,
    "has_fire_station": false,
    "dist_hospital_km": 1.364,
    "dist_police_km": 0.0,
    "dist_fire_km": 0.0,
    "emergency_safety_index": 13.99
  },
  {
    "school_index": 111,
    "school_name": "Akshara School",
    "lat": 12.9334921,
    "lon": 80.2365085,
    "has_hospital": true,
    "has_police_station": true,
    "has_fire_station": false,
    "dist_hospital_km": 0.334,
    "dist_police_km": 1.665,
    "dist_fire_km": 0.0,
    "emergency_safety_index": 43.55
  },
  {
    "school_index": 112,
    "school_name": "Euro Kids",
    "lat": 12.9352086,
    "lon": 80.231659,
    "has_hospital": true,
    "has_police_station": true,
    "has_fire_station": false,
    "dist_hospital_km": 0.287,
    "dist_police_km": 1.752,
    "dist_fire_km": 0.0,
    "emergency_safety_index": 43.33
  },
  {
    "school_index": 113,
    "school_name": "Vael'S Bilabong School",
    "lat": 12.9215926,
    "lon": 80.2488853,
    "has_hospital": true,
    "has_police_station": false,
    "has_fire_station": false,
    "dist_hospital_km": 1.061,
    "dist_police_km": 0.0,
    "dist_fire_km": 0.0,
    "emergency_safety_index": 15.16
  },
  {
    "school_index": 114,
    "school_name": "St Joseph Higher Secondary School",
    "lat": 12.938573,
    "lon": 80.2528173,
    "has_hospital": true,
    "has_police_station": true,
    "has_fire_station": false,
    "dist_hospital_km": 1.269,
    "dist_police_km": 1.575,
    "dist_fire_km": 0.0,
    "emergency_safety_index": 38.95
  },
  {
    "school_index": 115,
    "school_name": "Dhanraj Baid Jain College",
    "lat": 12.9459767,
    "lon": 80.239775,
    "has_hospital": true,
    "has_police_station": true,
    "has_fire_station": false,
    "dist_hospital_km": 0.467,
    "dist_police_km": 0.271,
    "dist_fire_km": 0.0,
    "emergency_safety_index": 50.42
  },
  {
    "school_index": 116,
    "school_name": "Podar Jumbo Kids",
    "lat": 12.94432,
    "lon": 80.2396488,
    "has_hospital": true,
    "has_police_station": true,
    "has_fire_station": false,
    "dist_hospital_km": 0.487,
    "dist_police_km": 0.424,
    "dist_fire_km": 0.0,
    "emergency_safety_index": 49.47
  },
  {
    "school_index": 117,
    "school_name": "Kidzee",
    "lat": 12.9627123,
    "lon": 80.2421107,
    "has_hospital": true,
    "has_police_station": true,
    "has_fire_station": false,
    "dist_hospital_km": 0.194,
    "dist_police_km": 1.68,
    "dist_fire_km": 0.0,
    "emergency_safety_index": 44.23
  },
  {
    "school_index": 118,
    "school_name": "Chettinadu A School",
    "lat": 12.9530789,
    "lon": 80.2446878,
    "has_hospital": true,
    "has_police_station": true,
    "has_fire_station": false,
    "dist_hospital_km": 0.792,
    "dist_police_km": 0.692,
    "dist_fire_km": 0.0,
    "emergency_safety_index": 46.36
  },
  {
    "school_index": 119,
    "school_name": "German School Chennai",
    "lat": 12.9515892,
    "lon": 80.2606515,
    "has_hospital": true,
    "has_police_station": false,
    "has_fire_station": false,
    "dist_hospital_km": 0.599,
    "dist_police_km": 0.0,
    "dist_fire_km": 0.0,
    "emergency_safety_index": 16.94
  },
  {
    "school_index": 120,
    "school_name": "Global Institute Of Gaming And Animation",
    "lat": 12.9554398,
    "lon": 80.2482807,
    "has_hospital": true,
    "has_police_station": false,
    "has_fire_station": false,
    "dist_hospital_km": 0.37,
    "dist_police_km": 0.0,
    "dist_fire_km": 0.0,
    "emergency_safety_index": 17.82
  },
  {
    "school_index": 121,
    "school_name": "St Pius School",
    "lat": 12.9647302,
    "lon": 80.2433123,
    "has_hospital": true,
    "has_police_station": true,
    "has_fire_station": false,
    "dist_hospital_km": 0.315,
    "dist_police_km": 1.912,
    "dist_fire_km": 0.0,
    "emergency_safety_index": 42.31
  },
  {
    "school_index": 122,
    "school_name": "Pearls Nursery",
    "lat": 12.9708076,
    "lon": 80.2184332,
    "has_hospital": true,
    "has_police_station": true,
    "has_fire_station": true,
    "dist_hospital_km": 0.605,
    "dist_police_km": 1.159,
    "dist_fire_km": 1.202,
    "emergency_safety_index": 80.23
  },
  {
    "school_index": 123,
    "school_name": "Akshaya",
    "lat": 12.9787977,
    "lon": 80.2224844,
    "has_hospital": true,
    "has_police_station": true,
    "has_fire_station": true,
    "dist_hospital_km": 0.116,
    "dist_police_km": 0.292,
    "dist_fire_km": 0.598,
    "emergency_safety_index": 93.29
  },
  {
    "school_index": 124,
    "school_name": "Lets Do Something - Activity Center",
    "lat": 12.9758373,
    "lon": 80.221575,
    "has_hospital": true,
    "has_police_station": true,
    "has_fire_station": true,
    "dist_hospital_km": 0.083,
    "dist_police_km": 0.572,
    "dist_fire_km": 0.666,
    "emergency_safety_index": 91.19
  },
  {
    "school_index": 125,
    "school_name": "St Antony School",
    "lat": 12.9767972,
    "lon": 80.226075,
    "has_hospital": true,
    "has_police_station": true,
    "has_fire_station": true,
    "dist_hospital_km": 0.232,
    "dist_police_km": 0.724,
    "dist_fire_km": 0.169,
    "emergency_safety_index": 92.5
  },
  {
    "school_index": 126,
    "school_name": "Eurokids",
    "lat": 12.9855216,
    "lon": 80.2200277,
    "has_hospital": true,
    "has_police_station": true,
    "has_fire_station": true,
    "dist_hospital_km": 0.121,
    "dist_police_km": 0.108,
    "dist_fire_km": 1.268,
    "emergency_safety_index": 90.02
  },
  {
    "school_index": 127,
    "school_name": "Chennai Higher Secondary School",
    "lat": 12.9852163,
    "lon": 80.218948,
    "has_hospital": true,
    "has_police_station": true,
    "has_fire_station": true,
    "dist_hospital_km": 0.042,
    "dist_police_km": 0.21,
    "dist_fire_km": 1.323,
    "emergency_safety_index": 89.5
  },
  {
    "school_index": 128,
    "school_name": "Chennai Primary School",
    "lat": 12.9801464,
    "lon": 80.2320468,
    "has_hospital": true,
    "has_police_station": true,
    "has_fire_station": true,
    "dist_hospital_km": 0.27,
    "dist_police_km": 1.209,
    "dist_fire_km": 0.602,
    "emergency_safety_index": 86.13
  },
  {
    "school_index": 129,
    "school_name": "Department Of Electrical Engineering Electrical Engineering Department",
    "lat": 12.9887139,
    "lon": 80.2306876,
    "has_hospital": true,
    "has_police_station": true,
    "has_fire_station": true,
    "dist_hospital_km": 0.285,
    "dist_police_km": 1.14,
    "dist_fire_km": 1.36,
    "emergency_safety_index": 81.43
  },
  {
    "school_index": 130,
    "school_name": "Iit Madras",
    "lat": 12.9914769,
    "lon": 80.2336786,
    "has_hospital": true,
    "has_police_station": true,
    "has_fire_station": true,
    "dist_hospital_km": 0.709,
    "dist_police_km": 1.563,
    "dist_fire_km": 1.753,
    "emergency_safety_index": 73.17
  },
  {
    "school_index": 131,
    "school_name": "Ymca School",
    "lat": 12.9766406,
    "lon": 80.2505858,
    "has_hospital": true,
    "has_police_station": true,
    "has_fire_station": false,
    "dist_hospital_km": 0.429,
    "dist_police_km": 1.335,
    "dist_fire_km": 0.0,
    "emergency_safety_index": 44.83
  },
  {
    "school_index": 132,
    "school_name": "Vanavani Matriculation School",
    "lat": 12.9985779,
    "lon": 80.2385395,
    "has_hospital": true,
    "has_police_station": true,
    "has_fire_station": false,
    "dist_hospital_km": 0.771,
    "dist_police_km": 1.863,
    "dist_fire_km": 0.0,
    "emergency_safety_index": 40.1
  },
  {
    "school_index": 133,
    "school_name": "The Institute Of Mathematical Sciences",
    "lat": 12.9940844,
    "lon": 80.2470141,
    "has_hospital": true,
    "has_police_station": true,
    "has_fire_station": false,
    "dist_hospital_km": 0.5,
    "dist_police_km": 1.03,
    "dist_fire_km": 0.0,
    "emergency_safety_index": 46.1
  },
  {
    "school_index": 134,
    "school_name": "Asian College Of Journalism",
    "lat": 12.9961623,
    "lon": 80.2462804,
    "has_hospital": true,
    "has_police_station": true,
    "has_fire_station": false,
    "dist_hospital_km": 0.619,
    "dist_police_km": 1.039,
    "dist_fire_km": 0.0,
    "emergency_safety_index": 45.41
  },
  {
    "school_index": 135,
    "school_name": "Aathichudy Special School",
    "lat": 13.0048641,
    "lon": 80.252718,
    "has_hospital": true,
    "has_police_station": true,
    "has_fire_station": false,
    "dist_hospital_km": 0.253,
    "dist_police_km": 0.849,
    "dist_fire_km": 0.0,
    "emergency_safety_index": 48.43
  },
  {
    "school_index": 136,
    "school_name": "Olcott Memorial Hss",
    "lat": 13.0034528,
    "lon": 80.2677285,
    "has_hospital": true,
    "has_police_station": true,
    "has_fire_station": false,
    "dist_hospital_km": 0.928,
    "dist_police_km": 0.371,
    "dist_fire_km": 0.0,
    "emergency_safety_index": 47.36
  },
  {
    "school_index": 137,
    "school_name": "St Johns English School",
    "lat": 13.0017,
    "lon": 80.266308,
    "has_hospital": true,
    "has_police_station": true,
    "has_fire_station": false,
    "dist_hospital_km": 0.784,
    "dist_police_km": 0.128,
    "dist_fire_km": 0.0,
    "emergency_safety_index": 49.47
  },
  {
    "school_index": 138,
    "school_name": "Starlight Abacus School",
    "lat": 13.0074771,
    "lon": 80.2613841,
    "has_hospital": true,
    "has_police_station": true,
    "has_fire_station": false,
    "dist_hospital_km": 0.427,
    "dist_police_km": 0.909,
    "dist_fire_km": 0.0,
    "emergency_safety_index": 47.16
  },
  {
    "school_index": 139,
    "school_name": "Saveetha Engineering College",
    "lat": 13.0261044,
    "lon": 80.0162591,
    "has_hospital": true,
    "has_police_station": false,
    "has_fire_station": false,
    "dist_hospital_km": 0.202,
    "dist_police_km": 0.0,
    "dist_fire_km": 0.0,
    "emergency_safety_index": 18.47
  },
  {
    "school_index": 140,
    "school_name": "Loyola International Residential",
    "lat": 13.0227521,
    "lon": 80.027318,
    "has_hospital": true,
    "has_police_station": false,
    "has_fire_station": false,
    "dist_hospital_km": 1.101,
    "dist_police_km": 0.0,
    "dist_fire_km": 0.0,
    "emergency_safety_index": 15.01
  },
  {
    "school_index": 141,
    "school_name": "S A Engineering College",
    "lat": 13.0655003,
    "lon": 80.1108509,
    "has_hospital": true,
    "has_police_station": false,
    "has_fire_station": false,
    "dist_hospital_km": 1.835,
    "dist_police_km": 0.0,
    "dist_fire_km": 0.0,
    "emergency_safety_index": 12.18
  },
  {
    "school_index": 142,
    "school_name": "Kids R Us",
    "lat": 13.0280878,
    "lon": 80.1325689,
    "has_hospital": true,
    "has_police_station": true,
    "has_fire_station": false,
    "dist_hospital_km": 1.366,
    "dist_police_km": 1.491,
    "dist_fire_km": 0.0,
    "emergency_safety_index": 38.88
  },
  {
    "school_index": 143,
    "school_name": "Government Higher Secondary School",
    "lat": 13.0401285,
    "lon": 80.1309534,
    "has_hospital": true,
    "has_police_station": true,
    "has_fire_station": false,
    "dist_hospital_km": 0.748,
    "dist_police_km": 0.28,
    "dist_fire_km": 0.0,
    "emergency_safety_index": 48.84
  },
  {
    "school_index": 144,
    "school_name": "Sri Ramachandra Medical College And Research Institute",
    "lat": 13.0390969,
    "lon": 80.1419659,
    "has_hospital": true,
    "has_police_station": true,
    "has_fire_station": false,
    "dist_hospital_km": 0.144,
    "dist_police_km": 0.993,
    "dist_fire_km": 0.0,
    "emergency_safety_index": 48.24
  },
  {
    "school_index": 145,
    "school_name": "St Johns Mhss",
    "lat": 13.0352427,
    "lon": 80.1609081,
    "has_hospital": true,
    "has_police_station": true,
    "has_fire_station": false,
    "dist_hospital_km": 0.34,
    "dist_police_km": 0.134,
    "dist_fire_km": 0.0,
    "emergency_safety_index": 51.85
  },
  {
    "school_index": 146,
    "school_name": "Rajiv School Of Excellence Matriculation & Higher Secondary",
    "lat": 13.0383691,
    "lon": 80.1628252,
    "has_hospital": true,
    "has_police_station": true,
    "has_fire_station": false,
    "dist_hospital_km": 0.099,
    "dist_police_km": 0.538,
    "dist_fire_km": 0.0,
    "emergency_safety_index": 50.97
  },
  {
    "school_index": 147,
    "school_name": "Grace Matriculation Higher Secondary School",
    "lat": 13.0404737,
    "lon": 80.1545457,
    "has_hospital": true,
    "has_police_station": true,
    "has_fire_station": false,
    "dist_hospital_km": 0.499,
    "dist_police_km": 0.914,
    "dist_fire_km": 0.0,
    "emergency_safety_index": 46.74
  },
  {
    "school_index": 148,
    "school_name": "Saveetha School Of Management",
    "lat": 13.055503,
    "lon": 80.1230486,
    "has_hospital": true,
    "has_police_station": true,
    "has_fire_station": false,
    "dist_hospital_km": 0.149,
    "dist_police_km": 1.904,
    "dist_fire_km": 0.0,
    "emergency_safety_index": 43.26
  },
  {
    "school_index": 149,
    "school_name": "Alpha Arts And Science College",
    "lat": 13.045989,
    "lon": 80.1422888,
    "has_hospital": true,
    "has_police_station": true,
    "has_fire_station": false,
    "dist_hospital_km": 0.552,
    "dist_police_km": 1.111,
    "dist_fire_km": 0.0,
    "emergency_safety_index": 45.38
  },
  {
    "school_index": 150,
    "school_name": "Sv High School",
    "lat": 13.0539345,
    "lon": 80.1484837,
    "has_hospital": true,
    "has_police_station": false,
    "has_fire_station": false,
    "dist_hospital_km": 1.573,
    "dist_police_km": 0.0,
    "dist_fire_km": 0.0,
    "emergency_safety_index": 13.19
  },
  {
    "school_index": 151,
    "school_name": "St Christopher Nursery And Primary School",
    "lat": 13.02092,
    "lon": 80.1692038,
    "has_hospital": true,
    "has_police_station": true,
    "has_fire_station": false,
    "dist_hospital_km": 0.319,
    "dist_police_km": 0.313,
    "dist_fire_km": 0.0,
    "emergency_safety_index": 50.99
  },
  {
    "school_index": 152,
    "school_name": "Kids At Play Daycare Center",
    "lat": 13.0223009,
    "lon": 80.173833,
    "has_hospital": true,
    "has_police_station": true,
    "has_fire_station": false,
    "dist_hospital_km": 0.735,
    "dist_police_km": 0.832,
    "dist_fire_km": 0.0,
    "emergency_safety_index": 45.9
  },
  {
    "school_index": 153,
    "school_name": "R Square Academy For Tnpsc Tnusrb Si Tet Police Ssc Rrb Bank Exam Coaching Centre",
    "lat": 13.0307877,
    "lon": 80.1638766,
    "has_hospital": true,
    "has_police_station": true,
    "has_fire_station": false,
    "dist_hospital_km": 0.568,
    "dist_police_km": 0.546,
    "dist_fire_km": 0.0,
    "emergency_safety_index": 48.37
  },
  {
    "school_index": 154,
    "school_name": "Assisi School",
    "lat": 13.0301954,
    "lon": 80.1774604,
    "has_hospital": true,
    "has_police_station": true,
    "has_fire_station": false,
    "dist_hospital_km": 0.36,
    "dist_police_km": 0.243,
    "dist_fire_km": 0.0,
    "emergency_safety_index": 51.15
  },
  {
    "school_index": 155,
    "school_name": "Maruti Driving School",
    "lat": 13.0405681,
    "lon": 80.1707117,
    "has_hospital": true,
    "has_police_station": true,
    "has_fire_station": false,
    "dist_hospital_km": 0.411,
    "dist_police_km": 1.328,
    "dist_fire_km": 0.0,
    "emergency_safety_index": 44.97
  },
  {
    "school_index": 156,
    "school_name": "Devi Academy",
    "lat": 13.0411828,
    "lon": 80.1711557,
    "has_hospital": true,
    "has_police_station": true,
    "has_fire_station": false,
    "dist_hospital_km": 0.39,
    "dist_police_km": 1.348,
    "dist_fire_km": 0.0,
    "emergency_safety_index": 44.97
  },
  {
    "school_index": 157,
    "school_name": "La Chatlaine",
    "lat": 13.0442984,
    "lon": 80.1853388,
    "has_hospital": true,
    "has_police_station": true,
    "has_fire_station": false,
    "dist_hospital_km": 0.105,
    "dist_police_km": 0.107,
    "dist_fire_km": 0.0,
    "emergency_safety_index": 53.28
  },
  {
    "school_index": 158,
    "school_name": "Amrita Vidyalaya",
    "lat": 13.0247563,
    "lon": 80.189912,
    "has_hospital": true,
    "has_police_station": true,
    "has_fire_station": false,
    "dist_hospital_km": 0.594,
    "dist_police_km": 1.102,
    "dist_fire_km": 0.0,
    "emergency_safety_index": 45.2
  },
  {
    "school_index": 159,
    "school_name": "Seethalakshmi Vidhyalaya School",
    "lat": 13.0293598,
    "lon": 80.2068015,
    "has_hospital": true,
    "has_police_station": true,
    "has_fire_station": false,
    "dist_hospital_km": 0.199,
    "dist_police_km": 0.585,
    "dist_fire_km": 0.0,
    "emergency_safety_index": 50.17
  },
  {
    "school_index": 160,
    "school_name": "Apple Kids International Pre School",
    "lat": 13.0283513,
    "lon": 80.2091487,
    "has_hospital": true,
    "has_police_station": true,
    "has_fire_station": false,
    "dist_hospital_km": 0.091,
    "dist_police_km": 0.338,
    "dist_fire_km": 0.0,
    "emergency_safety_index": 52.1
  },
  {
    "school_index": 161,
    "school_name": "Manimegalai Vidhyalaya Nursery And Primary School",
    "lat": 13.0260311,
    "lon": 80.2114987,
    "has_hospital": true,
    "has_police_station": true,
    "has_fire_station": false,
    "dist_hospital_km": 0.094,
    "dist_police_km": 0.054,
    "dist_fire_km": 0.0,
    "emergency_safety_index": 53.63
  },
  {
    "school_index": 162,
    "school_name": "Chennai High School",
    "lat": 13.0294143,
    "lon": 80.2124208,
    "has_hospital": true,
    "has_police_station": true,
    "has_fire_station": false,
    "dist_hospital_km": 0.357,
    "dist_police_km": 0.335,
    "dist_fire_km": 0.0,
    "emergency_safety_index": 50.67
  },
  {
    "school_index": 163,
    "school_name": "Sri Krishna Swamy Mat Hr Sec School",
    "lat": 13.0382542,
    "lon": 80.1976842,
    "has_hospital": true,
    "has_police_station": true,
    "has_fire_station": false,
    "dist_hospital_km": 0.334,
    "dist_police_km": 0.908,
    "dist_fire_km": 0.0,
    "emergency_safety_index": 47.67
  },
  {
    "school_index": 164,
    "school_name": "Thai Sathia School",
    "lat": 13.0438348,
    "lon": 80.1981602,
    "has_hospital": true,
    "has_police_station": true,
    "has_fire_station": false,
    "dist_hospital_km": 0.273,
    "dist_police_km": 0.599,
    "dist_fire_km": 0.0,
    "emergency_safety_index": 49.69
  },
  {
    "school_index": 165,
    "school_name": "Psbb School",
    "lat": 13.0397071,
    "lon": 80.1996798,
    "has_hospital": true,
    "has_police_station": true,
    "has_fire_station": false,
    "dist_hospital_km": 0.259,
    "dist_police_km": 0.656,
    "dist_fire_km": 0.0,
    "emergency_safety_index": 49.45
  },
  {
    "school_index": 166,
    "school_name": "Good Shepherd Matriculation School",
    "lat": 13.0504588,
    "lon": 80.1798944,
    "has_hospital": true,
    "has_police_station": true,
    "has_fire_station": false,
    "dist_hospital_km": 0.399,
    "dist_police_km": 0.321,
    "dist_fire_km": 0.0,
    "emergency_safety_index": 50.51
  },
  {
    "school_index": 167,
    "school_name": "Daffodils Pre School",
    "lat": 13.0471485,
    "lon": 80.1804204,
    "has_hospital": true,
    "has_police_station": true,
    "has_fire_station": false,
    "dist_hospital_km": 0.124,
    "dist_police_km": 0.452,
    "dist_fire_km": 0.0,
    "emergency_safety_index": 51.3
  },
  {
    "school_index": 168,
    "school_name": "St John'S Matriculation Higher Secondary School",
    "lat": 13.0474865,
    "lon": 80.1873415,
    "has_hospital": true,
    "has_police_station": true,
    "has_fire_station": false,
    "dist_hospital_km": 0.153,
    "dist_police_km": 0.33,
    "dist_fire_km": 0.0,
    "emergency_safety_index": 51.8
  },
  {
    "school_index": 169,
    "school_name": "Balalok Matriculation Higher Secondary School",
    "lat": 13.0542557,
    "lon": 80.1943992,
    "has_hospital": true,
    "has_police_station": true,
    "has_fire_station": false,
    "dist_hospital_km": 0.187,
    "dist_police_km": 0.777,
    "dist_fire_km": 0.0,
    "emergency_safety_index": 49.19
  },
  {
    "school_index": 170,
    "school_name": "Jaigopal Garodia Girls High School",
    "lat": 13.0530994,
    "lon": 80.1967081,
    "has_hospital": true,
    "has_police_station": true,
    "has_fire_station": false,
    "dist_hospital_km": 0.253,
    "dist_police_km": 0.522,
    "dist_fire_km": 0.0,
    "emergency_safety_index": 50.21
  },
  {
    "school_index": 171,
    "school_name": "Govt School",
    "lat": 13.0542995,
    "lon": 80.2028196,
    "has_hospital": true,
    "has_police_station": true,
    "has_fire_station": false,
    "dist_hospital_km": 0.197,
    "dist_police_km": 0.403,
    "dist_fire_km": 0.0,
    "emergency_safety_index": 51.17
  },
  {
    "school_index": 172,
    "school_name": "Laclarence Matriculation Higher Secondary Schoolt",
    "lat": 13.0542712,
    "lon": 80.2036334,
    "has_hospital": true,
    "has_police_station": true,
    "has_fire_station": false,
    "dist_hospital_km": 0.155,
    "dist_police_km": 0.384,
    "dist_fire_km": 0.0,
    "emergency_safety_index": 51.5
  },
  {
    "school_index": 173,
    "school_name": "Barathi Vidayala School - Block 1",
    "lat": 13.0543125,
    "lon": 80.2059776,
    "has_hospital": true,
    "has_police_station": true,
    "has_fire_station": false,
    "dist_hospital_km": 0.118,
    "dist_police_km": 0.424,
    "dist_fire_km": 0.0,
    "emergency_safety_index": 51.48
  },
  {
    "school_index": 174,
    "school_name": "Barathi Vidayala School - Block 2",
    "lat": 13.0538945,
    "lon": 80.2061707,
    "has_hospital": true,
    "has_police_station": true,
    "has_fire_station": false,
    "dist_hospital_km": 0.138,
    "dist_police_km": 0.475,
    "dist_fire_km": 0.0,
    "emergency_safety_index": 51.1
  },
  {
    "school_index": 175,
    "school_name": "Janaki Ramachandran Matriculation Scool",
    "lat": 13.0538146,
    "lon": 80.2143813,
    "has_hospital": true,
    "has_police_station": true,
    "has_fire_station": false,
    "dist_hospital_km": 0.266,
    "dist_police_km": 0.543,
    "dist_fire_km": 0.0,
    "emergency_safety_index": 50.03
  },
  {
    "school_index": 176,
    "school_name": "Srm University - City Campus",
    "lat": 13.0517607,
    "lon": 80.2109849,
    "has_hospital": true,
    "has_police_station": true,
    "has_fire_station": false,
    "dist_hospital_km": 0.052,
    "dist_police_km": 0.246,
    "dist_fire_km": 0.0,
    "emergency_safety_index": 52.81
  },
  {
    "school_index": 177,
    "school_name": "Chinmaya Vidyalaya",
    "lat": 13.060167,
    "lon": 80.1937294,
    "has_hospital": true,
    "has_police_station": true,
    "has_fire_station": false,
    "dist_hospital_km": 0.158,
    "dist_police_km": 0.614,
    "dist_fire_km": 0.0,
    "emergency_safety_index": 50.23
  },
  {
    "school_index": 178,
    "school_name": "Lbeaar Matric Hr Sec School",
    "lat": 13.0719886,
    "lon": 80.1894086,
    "has_hospital": true,
    "has_police_station": true,
    "has_fire_station": false,
    "dist_hospital_km": 1.072,
    "dist_police_km": 0.373,
    "dist_fire_km": 0.0,
    "emergency_safety_index": 46.57
  },
  {
    "school_index": 179,
    "school_name": "Kanmani Montessori School",
    "lat": 13.0735855,
    "lon": 80.2088301,
    "has_hospital": true,
    "has_police_station": true,
    "has_fire_station": false,
    "dist_hospital_km": 0.346,
    "dist_police_km": 0.706,
    "dist_fire_km": 0.0,
    "emergency_safety_index": 48.71
  },
  {
    "school_index": 180,
    "school_name": "Ambal Metriculation School",
    "lat": 13.0734099,
    "lon": 80.2062046,
    "has_hospital": true,
    "has_police_station": true,
    "has_fire_station": false,
    "dist_hospital_km": 0.365,
    "dist_police_km": 0.549,
    "dist_fire_km": 0.0,
    "emergency_safety_index": 49.46
  },
  {
    "school_index": 181,
    "school_name": "Kolla Perumal Kpvcss",
    "lat": 13.0745115,
    "lon": 80.2139192,
    "has_hospital": true,
    "has_police_station": true,
    "has_fire_station": false,
    "dist_hospital_km": 0.099,
    "dist_police_km": 1.192,
    "dist_fire_km": 0.0,
    "emergency_safety_index": 47.41
  },
  {
    "school_index": 182,
    "school_name": "Anna Adharsh College For Women",
    "lat": 13.0798455,
    "lon": 80.2106862,
    "has_hospital": true,
    "has_police_station": true,
    "has_fire_station": false,
    "dist_hospital_km": 0.419,
    "dist_police_km": 0.991,
    "dist_fire_km": 0.0,
    "emergency_safety_index": 46.76
  },
  {
    "school_index": 183,
    "school_name": "Diana Nursery & Primary School",
    "lat": 13.0231287,
    "lon": 80.2180065,
    "has_hospital": false,
    "has_police_station": true,
    "has_fire_station": true,
    "dist_hospital_km": 0.0,
    "dist_police_km": 0.611,
    "dist_fire_km": 1.916,
    "emergency_safety_index": 40.68
  },
  {
    "school_index": 184,
    "school_name": "Oxford Matriculation Higher Secondary School",
    "lat": 13.0286604,
    "lon": 80.2243406,
    "has_hospital": true,
    "has_police_station": true,
    "has_fire_station": true,
    "dist_hospital_km": 0.237,
    "dist_police_km": 0.72,
    "dist_fire_km": 0.996,
    "emergency_safety_index": 86.98
  },
  {
    "school_index": 185,
    "school_name": "Sri Ramakrishna Mission Sarada Vidyalaya Model Higher Secondary School For Girls",
    "lat": 13.0351945,
    "lon": 80.2322138,
    "has_hospital": true,
    "has_police_station": false,
    "has_fire_station": true,
    "dist_hospital_km": 0.176,
    "dist_police_km": 0.0,
    "dist_fire_km": 0.165,
    "emergency_safety_index": 52.58
  },
  {
    "school_index": 186,
    "school_name": "Target Soft Solution",
    "lat": 13.0372385,
    "lon": 80.2334005,
    "has_hospital": true,
    "has_police_station": true,
    "has_fire_station": true,
    "dist_hospital_km": 0.177,
    "dist_police_km": 0.497,
    "dist_fire_km": 0.375,
    "emergency_safety_index": 93.01
  },
  {
    "school_index": 187,
    "school_name": "Hindi Prachar Sabha",
    "lat": 13.0346786,
    "lon": 80.2389465,
    "has_hospital": true,
    "has_police_station": true,
    "has_fire_station": true,
    "dist_hospital_km": 0.103,
    "dist_police_km": 0.387,
    "dist_fire_km": 0.896,
    "emergency_safety_index": 90.76
  },
  {
    "school_index": 188,
    "school_name": "Guntur Subbiah Pillai Girls Higher Secondary",
    "lat": 13.0357893,
    "lon": 80.2377712,
    "has_hospital": true,
    "has_police_station": true,
    "has_fire_station": true,
    "dist_hospital_km": 0.193,
    "dist_police_km": 0.546,
    "dist_fire_km": 0.77,
    "emergency_safety_index": 89.94
  },
  {
    "school_index": 189,
    "school_name": "Govt Hr Secondary School",
    "lat": 13.0278146,
    "lon": 80.2444728,
    "has_hospital": true,
    "has_police_station": true,
    "has_fire_station": true,
    "dist_hospital_km": 0.177,
    "dist_police_km": 0.283,
    "dist_fire_km": 1.7,
    "emergency_safety_index": 85.6
  },
  {
    "school_index": 190,
    "school_name": "Peace Academy Chennai",
    "lat": 13.039242,
    "lon": 80.2563567,
    "has_hospital": true,
    "has_police_station": true,
    "has_fire_station": true,
    "dist_hospital_km": 0.054,
    "dist_police_km": 0.667,
    "dist_fire_km": 1.203,
    "emergency_safety_index": 87.17
  },
  {
    "school_index": 191,
    "school_name": "Karnataka Sangha Higher Secondary School",
    "lat": 13.0499192,
    "lon": 80.2378078,
    "has_hospital": true,
    "has_police_station": true,
    "has_fire_station": true,
    "dist_hospital_km": 0.353,
    "dist_police_km": 1.205,
    "dist_fire_km": 1.256,
    "emergency_safety_index": 81.24
  },
  {
    "school_index": 192,
    "school_name": "Venkatasubba Rao Matrix Hr Secy School",
    "lat": 13.0501982,
    "lon": 80.2402338,
    "has_hospital": true,
    "has_police_station": true,
    "has_fire_station": true,
    "dist_hospital_km": 0.108,
    "dist_police_km": 1.017,
    "dist_fire_km": 1.01,
    "emergency_safety_index": 85.77
  },
  {
    "school_index": 193,
    "school_name": "Padma Seshadri Bala Bhavan Higher Secondary School",
    "lat": 13.054758,
    "lon": 80.2412002,
    "has_hospital": true,
    "has_police_station": true,
    "has_fire_station": true,
    "dist_hospital_km": 0.47,
    "dist_police_km": 0.566,
    "dist_fire_km": 1.167,
    "emergency_safety_index": 85.31
  },
  {
    "school_index": 194,
    "school_name": "Iid Community College",
    "lat": 13.0687761,
    "lon": 80.218961,
    "has_hospital": true,
    "has_police_station": true,
    "has_fire_station": true,
    "dist_hospital_km": 0.423,
    "dist_police_km": 1.548,
    "dist_fire_km": 1.895,
    "emergency_safety_index": 74.23
  },
  {
    "school_index": 195,
    "school_name": "Panimalar Polytechnic College",
    "lat": 13.0679752,
    "lon": 80.2242291,
    "has_hospital": true,
    "has_police_station": true,
    "has_fire_station": true,
    "dist_hospital_km": 0.382,
    "dist_police_km": 1.961,
    "dist_fire_km": 1.325,
    "emergency_safety_index": 75.55
  },
  {
    "school_index": 196,
    "school_name": "Loyola-Icam College Of Engineering And Technology",
    "lat": 13.0592368,
    "lon": 80.2337307,
    "has_hospital": true,
    "has_police_station": true,
    "has_fire_station": true,
    "dist_hospital_km": 0.383,
    "dist_police_km": 0.98,
    "dist_fire_km": 0.547,
    "emergency_safety_index": 87.27
  },
  {
    "school_index": 197,
    "school_name": "Loyola Institute Of Business Administration",
    "lat": 13.05904,
    "lon": 80.2367929,
    "has_hospital": true,
    "has_police_station": true,
    "has_fire_station": true,
    "dist_hospital_km": 0.08,
    "dist_police_km": 0.65,
    "dist_fire_km": 0.54,
    "emergency_safety_index": 91.53
  },
  {
    "school_index": 198,
    "school_name": "Bala Mandir Kamaraj Trust",
    "lat": 13.0490522,
    "lon": 80.2465644,
    "has_hospital": true,
    "has_police_station": true,
    "has_fire_station": true,
    "dist_hospital_km": 0.199,
    "dist_police_km": 0.32,
    "dist_fire_km": 0.329,
    "emergency_safety_index": 94.35
  },
  {
    "school_index": 199,
    "school_name": "Satyamurthi High School",
    "lat": 13.0482979,
    "lon": 80.2464292,
    "has_hospital": true,
    "has_police_station": true,
    "has_fire_station": true,
    "dist_hospital_km": 0.155,
    "dist_police_km": 0.334,
    "dist_fire_km": 0.306,
    "emergency_safety_index": 94.7
  },
  {
    "school_index": 200,
    "school_name": "Elemenopy",
    "lat": 13.0542403,
    "lon": 80.2465591,
    "has_hospital": true,
    "has_police_station": true,
    "has_fire_station": true,
    "dist_hospital_km": 0.186,
    "dist_police_km": 0.698,
    "dist_fire_km": 0.805,
    "emergency_safety_index": 88.74
  },
  {
    "school_index": 201,
    "school_name": "Footprints",
    "lat": 13.054456,
    "lon": 80.2474328,
    "has_hospital": true,
    "has_police_station": true,
    "has_fire_station": true,
    "dist_hospital_km": 0.116,
    "dist_police_km": 0.683,
    "dist_fire_km": 0.8,
    "emergency_safety_index": 89.34
  },
  {
    "school_index": 202,
    "school_name": "National Public School",
    "lat": 13.0494342,
    "lon": 80.2581387,
    "has_hospital": true,
    "has_police_station": true,
    "has_fire_station": true,
    "dist_hospital_km": 0.457,
    "dist_police_km": 0.67,
    "dist_fire_km": 1.002,
    "emergency_safety_index": 85.81
  },
  {
    "school_index": 203,
    "school_name": "D A V Boys Higher Secondary School",
    "lat": 13.0502398,
    "lon": 80.2566442,
    "has_hospital": true,
    "has_police_station": true,
    "has_fire_station": true,
    "dist_hospital_km": 0.385,
    "dist_police_km": 0.793,
    "dist_fire_km": 0.872,
    "emergency_safety_index": 86.33
  },
  {
    "school_index": 204,
    "school_name": "Measi Academy Of Architecture",
    "lat": 13.0537478,
    "lon": 80.2591932,
    "has_hospital": true,
    "has_police_station": true,
    "has_fire_station": true,
    "dist_hospital_km": 0.164,
    "dist_police_km": 0.529,
    "dist_fire_km": 1.297,
    "emergency_safety_index": 86.73
  },
  {
    "school_index": 205,
    "school_name": "Gill Adarsh Matriculation Higher Secondary School",
    "lat": 13.0502159,
    "lon": 80.2699958,
    "has_hospital": true,
    "has_police_station": true,
    "has_fire_station": true,
    "dist_hospital_km": 0.365,
    "dist_police_km": 0.707,
    "dist_fire_km": 1.164,
    "emergency_safety_index": 85.09
  },
  {
    "school_index": 206,
    "school_name": "Government Yoga And Naturopathy Medical College & Hospital",
    "lat": 13.07553,
    "lon": 80.2202914,
    "has_hospital": true,
    "has_police_station": true,
    "has_fire_station": false,
    "dist_hospital_km": 0.156,
    "dist_police_km": 1.062,
    "dist_fire_km": 0.0,
    "emergency_safety_index": 47.8
  },
  {
    "school_index": 207,
    "school_name": "-",
    "lat": 13.076586,
    "lon": 80.2666606,
    "has_hospital": true,
    "has_police_station": true,
    "has_fire_station": true,
    "dist_hospital_km": 0.065,
    "dist_police_km": 0.66,
    "dist_fire_km": 1.056,
    "emergency_safety_index": 88.13
  },
  {
    "school_index": 208,
    "school_name": "Chintadripet Middle School",
    "lat": 13.0736154,
    "lon": 80.2678488,
    "has_hospital": true,
    "has_police_station": true,
    "has_fire_station": true,
    "dist_hospital_km": 0.082,
    "dist_police_km": 0.524,
    "dist_fire_km": 0.897,
    "emergency_safety_index": 89.98
  },
  {
    "school_index": 209,
    "school_name": "Alamelu Mangai Thayarammal Montessori School",
    "lat": 13.0752066,
    "lon": 80.272253,
    "has_hospital": true,
    "has_police_station": true,
    "has_fire_station": true,
    "dist_hospital_km": 0.317,
    "dist_police_km": 0.043,
    "dist_fire_km": 1.39,
    "emergency_safety_index": 88.33
  },
  {
    "school_index": 210,
    "school_name": "Kalyanam Girls Higher Secondary School",
    "lat": 13.0763065,
    "lon": 80.2719607,
    "has_hospital": true,
    "has_police_station": true,
    "has_fire_station": true,
    "dist_hospital_km": 0.269,
    "dist_police_km": 0.166,
    "dist_fire_km": 1.433,
    "emergency_safety_index": 87.55
  },
  {
    "school_index": 211,
    "school_name": "Chintadripet Boys Higher Secondary School",
    "lat": 13.075008,
    "lon": 80.2732159,
    "has_hospital": true,
    "has_police_station": true,
    "has_fire_station": true,
    "dist_hospital_km": 0.423,
    "dist_police_km": 0.078,
    "dist_fire_km": 1.469,
    "emergency_safety_index": 86.87
  },
  {
    "school_index": 212,
    "school_name": "Rao Bahadur Calavala Cunnan Chetty Middle School",
    "lat": 13.074522,
    "lon": 80.2694716,
    "has_hospital": true,
    "has_police_station": true,
    "has_fire_station": true,
    "dist_hospital_km": 0.179,
    "dist_police_km": 0.331,
    "dist_fire_km": 1.098,
    "emergency_safety_index": 89.28
  },
  {
    "school_index": 213,
    "school_name": "Government Higher Secondary School Maraimalai Nagar",
    "lat": 12.7948105,
    "lon": 80.0281321,
    "has_hospital": true,
    "has_police_station": true,
    "has_fire_station": false,
    "dist_hospital_km": 0.179,
    "dist_police_km": 0.71,
    "dist_fire_km": 0.0,
    "emergency_safety_index": 49.59
  },
  {
    "school_index": 214,
    "school_name": "St Joseph'S Block",
    "lat": 12.7975108,
    "lon": 80.0252429,
    "has_hospital": true,
    "has_police_station": true,
    "has_fire_station": false,
    "dist_hospital_km": 0.207,
    "dist_police_km": 1.127,
    "dist_fire_km": 0.0,
    "emergency_safety_index": 47.17
  },
  {
    "school_index": 215,
    "school_name": "St Mary'S Block",
    "lat": 12.7968838,
    "lon": 80.0251652,
    "has_hospital": true,
    "has_police_station": true,
    "has_fire_station": false,
    "dist_hospital_km": 0.257,
    "dist_police_km": 1.074,
    "dist_fire_km": 0.0,
    "emergency_safety_index": 47.19
  },
  {
    "school_index": 216,
    "school_name": "Government Primary School",
    "lat": 12.7978834,
    "lon": 80.0248728,
    "has_hospital": true,
    "has_police_station": true,
    "has_fire_station": false,
    "dist_hospital_km": 0.149,
    "dist_police_km": 1.184,
    "dist_fire_km": 0.0,
    "emergency_safety_index": 47.18
  },
  {
    "school_index": 217,
    "school_name": "Government School Central Kitchen",
    "lat": 12.7980097,
    "lon": 80.0243985,
    "has_hospital": true,
    "has_police_station": true,
    "has_fire_station": false,
    "dist_hospital_km": 0.106,
    "dist_police_km": 1.225,
    "dist_fire_km": 0.0,
    "emergency_safety_index": 47.19
  },
  {
    "school_index": 218,
    "school_name": "Saint Joseph S Matriculation Higher Secondary School",
    "lat": 12.7973471,
    "lon": 80.0258387,
    "has_hospital": true,
    "has_police_station": true,
    "has_fire_station": false,
    "dist_hospital_km": 0.264,
    "dist_police_km": 1.077,
    "dist_fire_km": 0.0,
    "emergency_safety_index": 47.13
  },
  {
    "school_index": 219,
    "school_name": "Allen Block",
    "lat": 12.796583,
    "lon": 80.025761,
    "has_hospital": true,
    "has_police_station": true,
    "has_fire_station": false,
    "dist_hospital_km": 0.321,
    "dist_police_km": 1.01,
    "dist_fire_km": 0.0,
    "emergency_safety_index": 47.19
  },
  {
    "school_index": 220,
    "school_name": "Quasquicetennial Block",
    "lat": 12.796939,
    "lon": 80.0260524,
    "has_hospital": true,
    "has_police_station": true,
    "has_fire_station": false,
    "dist_hospital_km": 0.313,
    "dist_police_km": 1.026,
    "dist_fire_km": 0.0,
    "emergency_safety_index": 47.14
  },
  {
    "school_index": 221,
    "school_name": "Assisi Block",
    "lat": 12.797782,
    "lon": 80.0263589,
    "has_hospital": true,
    "has_police_station": true,
    "has_fire_station": false,
    "dist_hospital_km": 0.276,
    "dist_police_km": 1.091,
    "dist_fire_km": 0.0,
    "emergency_safety_index": 46.99
  },
  {
    "school_index": 222,
    "school_name": "Sivananda Women'S Iti Proposed",
    "lat": 12.7914493,
    "lon": 80.034144,
    "has_hospital": true,
    "has_police_station": true,
    "has_fire_station": false,
    "dist_hospital_km": 0.137,
    "dist_police_km": 0.433,
    "dist_fire_km": 0.0,
    "emergency_safety_index": 51.33
  },
  {
    "school_index": 223,
    "school_name": "Dhaanish Ahmed College Of Engineering",
    "lat": 12.8711826,
    "lon": 79.9961272,
    "has_hospital": false,
    "has_police_station": false,
    "has_fire_station": false,
    "dist_hospital_km": 0.0,
    "dist_police_km": 0.0,
    "dist_fire_km": 0.0,
    "emergency_safety_index": 0.0
  },
  {
    "school_index": 224,
    "school_name": "Rrase College Of Engineering",
    "lat": 12.8780134,
    "lon": 79.9968852,
    "has_hospital": false,
    "has_police_station": false,
    "has_fire_station": false,
    "dist_hospital_km": 0.0,
    "dist_police_km": 0.0,
    "dist_fire_km": 0.0,
    "emergency_safety_index": 0.0
  },
  {
    "school_index": 225,
    "school_name": "Vidya Mandir",
    "lat": 12.8279013,
    "lon": 80.0481424,
    "has_hospital": true,
    "has_police_station": false,
    "has_fire_station": false,
    "dist_hospital_km": 0.763,
    "dist_police_km": 0.0,
    "dist_fire_km": 0.0,
    "emergency_safety_index": 16.31
  },
  {
    "school_index": 226,
    "school_name": "Government Girls Higher Secondary School",
    "lat": 12.8404877,
    "lon": 80.0604478,
    "has_hospital": true,
    "has_police_station": true,
    "has_fire_station": false,
    "dist_hospital_km": 0.374,
    "dist_police_km": 0.391,
    "dist_fire_km": 0.0,
    "emergency_safety_index": 50.27
  },
  {
    "school_index": 227,
    "school_name": "St Mary'S Matriculation Hr Sec School",
    "lat": 12.837076,
    "lon": 80.0662056,
    "has_hospital": true,
    "has_police_station": true,
    "has_fire_station": false,
    "dist_hospital_km": 0.758,
    "dist_police_km": 0.911,
    "dist_fire_km": 0.0,
    "emergency_safety_index": 45.35
  },
  {
    "school_index": 228,
    "school_name": "Government Boys Higher Secondary School",
    "lat": 12.8416707,
    "lon": 80.0626888,
    "has_hospital": true,
    "has_police_station": true,
    "has_fire_station": false,
    "dist_hospital_km": 0.507,
    "dist_police_km": 0.277,
    "dist_fire_km": 0.0,
    "emergency_safety_index": 50.17
  },
  {
    "school_index": 229,
    "school_name": "Police Academy",
    "lat": 12.8564378,
    "lon": 80.0982614,
    "has_hospital": true,
    "has_police_station": false,
    "has_fire_station": false,
    "dist_hospital_km": 1.635,
    "dist_police_km": 0.0,
    "dist_fire_km": 0.0,
    "emergency_safety_index": 12.95
  },
  {
    "school_index": 230,
    "school_name": "Urapakkam High School",
    "lat": 12.865304,
    "lon": 80.0768452,
    "has_hospital": true,
    "has_police_station": false,
    "has_fire_station": false,
    "dist_hospital_km": 0.168,
    "dist_police_km": 0.0,
    "dist_fire_km": 0.0,
    "emergency_safety_index": 18.6
  },
  {
    "school_index": 231,
    "school_name": "Bs Abdur Rahman University",
    "lat": 12.8748595,
    "lon": 80.0833803,
    "has_hospital": true,
    "has_police_station": false,
    "has_fire_station": false,
    "dist_hospital_km": 0.609,
    "dist_police_km": 0.0,
    "dist_fire_km": 0.0,
    "emergency_safety_index": 16.9
  },
  {
    "school_index": 232,
    "school_name": "Government Higher Secondary School Otteri",
    "lat": 12.8808047,
    "lon": 80.0781353,
    "has_hospital": true,
    "has_police_station": false,
    "has_fire_station": false,
    "dist_hospital_km": 0.222,
    "dist_police_km": 0.0,
    "dist_fire_km": 0.0,
    "emergency_safety_index": 18.39
  },
  {
    "school_index": 233,
    "school_name": "Rajiv Gandhi National Institute Of Youth Development",
    "lat": 12.9801245,
    "lon": 79.9588482,
    "has_hospital": true,
    "has_police_station": false,
    "has_fire_station": false,
    "dist_hospital_km": 1.328,
    "dist_police_km": 0.0,
    "dist_fire_km": 0.0,
    "emergency_safety_index": 14.13
  },
  {
    "school_index": 234,
    "school_name": "Kings Engineering College",
    "lat": 12.9986824,
    "lon": 79.9834284,
    "has_hospital": false,
    "has_police_station": false,
    "has_fire_station": false,
    "dist_hospital_km": 0.0,
    "dist_police_km": 0.0,
    "dist_fire_km": 0.0,
    "emergency_safety_index": 0.0
  },
  {
    "school_index": 235,
    "school_name": "Rajalakshmi Engineering College",
    "lat": 13.0083107,
    "lon": 80.0033108,
    "has_hospital": false,
    "has_police_station": false,
    "has_fire_station": false,
    "dist_hospital_km": 0.0,
    "dist_police_km": 0.0,
    "dist_fire_km": 0.0,
    "emergency_safety_index": 0.0
  },
  {
    "school_index": 236,
    "school_name": "Dhanalakshmi College Of Engineering",
    "lat": 12.9307741,
    "lon": 80.0446872,
    "has_hospital": false,
    "has_police_station": true,
    "has_fire_station": false,
    "dist_hospital_km": 0.0,
    "dist_police_km": 1.684,
    "dist_fire_km": 0.0,
    "emergency_safety_index": 12.76
  },
  {
    "school_index": 237,
    "school_name": "Arasinar Uyar Nilai Palli",
    "lat": 12.9543463,
    "lon": 80.0434576,
    "has_hospital": true,
    "has_police_station": true,
    "has_fire_station": false,
    "dist_hospital_km": 0.085,
    "dist_police_km": 1.268,
    "dist_fire_km": 0.0,
    "emergency_safety_index": 47.07
  },
  {
    "school_index": 238,
    "school_name": "Sairam Group Of Private Penitary",
    "lat": 12.9603903,
    "lon": 80.0568453,
    "has_hospital": true,
    "has_police_station": false,
    "has_fire_station": false,
    "dist_hospital_km": 1.586,
    "dist_police_km": 0.0,
    "dist_fire_km": 0.0,
    "emergency_safety_index": 13.14
  },
  {
    "school_index": 239,
    "school_name": "Sairam Engineering College",
    "lat": 12.9602285,
    "lon": 80.0574939,
    "has_hospital": true,
    "has_police_station": false,
    "has_fire_station": false,
    "dist_hospital_km": 1.645,
    "dist_police_km": 0.0,
    "dist_fire_km": 0.0,
    "emergency_safety_index": 12.91
  },
  {
    "school_index": 240,
    "school_name": "Sri Sairam Siddha Medical College & Research Centre",
    "lat": 12.9583273,
    "lon": 80.0589019,
    "has_hospital": true,
    "has_police_station": false,
    "has_fire_station": false,
    "dist_hospital_km": 1.733,
    "dist_police_km": 0.0,
    "dist_fire_km": 0.0,
    "emergency_safety_index": 12.57
  },
  {
    "school_index": 241,
    "school_name": "Sri Sairam Institute Of Technology",
    "lat": 12.9608062,
    "lon": 80.0540147,
    "has_hospital": true,
    "has_police_station": false,
    "has_fire_station": false,
    "dist_hospital_km": 1.328,
    "dist_police_km": 0.0,
    "dist_fire_km": 0.0,
    "emergency_safety_index": 14.13
  },
  {
    "school_index": 242,
    "school_name": "Sri Rmana Vidyalaya Metriculation School",
    "lat": 12.9247998,
    "lon": 80.1067055,
    "has_hospital": true,
    "has_police_station": true,
    "has_fire_station": false,
    "dist_hospital_km": 0.078,
    "dist_police_km": 0.675,
    "dist_fire_km": 0.0,
    "emergency_safety_index": 50.33
  },
  {
    "school_index": 243,
    "school_name": "Sri Sairam Polytechnic College",
    "lat": 12.9624263,
    "lon": 80.0599402,
    "has_hospital": true,
    "has_police_station": false,
    "has_fire_station": false,
    "dist_hospital_km": 1.96,
    "dist_police_km": 0.0,
    "dist_fire_km": 0.0,
    "emergency_safety_index": 11.7
  },
  {
    "school_index": 244,
    "school_name": "Chennai Institute Of Technology",
    "lat": 12.971406,
    "lon": 80.0438269,
    "has_hospital": true,
    "has_police_station": false,
    "has_fire_station": false,
    "dist_hospital_km": 1.356,
    "dist_police_km": 0.0,
    "dist_fire_km": 0.0,
    "emergency_safety_index": 14.03
  },
  {
    "school_index": 245,
    "school_name": "Footwear Design And Development Institute",
    "lat": 13.006209,
    "lon": 80.0267659,
    "has_hospital": false,
    "has_police_station": false,
    "has_fire_station": false,
    "dist_hospital_km": 0.0,
    "dist_police_km": 0.0,
    "dist_fire_km": 0.0,
    "emergency_safety_index": 0.0
  },
  {
    "school_index": 246,
    "school_name": "Madha Matriculation School",
    "lat": 12.9950959,
    "lon": 80.0862528,
    "has_hospital": true,
    "has_police_station": true,
    "has_fire_station": false,
    "dist_hospital_km": 1.062,
    "dist_police_km": 0.659,
    "dist_fire_km": 0.0,
    "emergency_safety_index": 45.07
  },
  {
    "school_index": 247,
    "school_name": "Dav Smk Fomra School",
    "lat": 12.7654317,
    "lon": 80.2013317,
    "has_hospital": false,
    "has_police_station": false,
    "has_fire_station": false,
    "dist_hospital_km": 0.0,
    "dist_police_km": 0.0,
    "dist_fire_km": 0.0,
    "emergency_safety_index": 0.0
  },
  {
    "school_index": 248,
    "school_name": "Jagannath Vidyalaya School",
    "lat": 12.7727741,
    "lon": 80.2099792,
    "has_hospital": false,
    "has_police_station": false,
    "has_fire_station": false,
    "dist_hospital_km": 0.0,
    "dist_police_km": 0.0,
    "dist_fire_km": 0.0,
    "emergency_safety_index": 0.0
  },
  {
    "school_index": 249,
    "school_name": "Indian Institute Of Technology Thaiyur",
    "lat": 12.7923451,
    "lon": 80.1878744,
    "has_hospital": false,
    "has_police_station": false,
    "has_fire_station": false,
    "dist_hospital_km": 0.0,
    "dist_police_km": 0.0,
    "dist_fire_km": 0.0,
    "emergency_safety_index": 0.0
  },
  {
    "school_index": 250,
    "school_name": "Murray Rabindra Matriculation School",
    "lat": 12.8010745,
    "lon": 80.1998968,
    "has_hospital": true,
    "has_police_station": false,
    "has_fire_station": false,
    "dist_hospital_km": 1.783,
    "dist_police_km": 0.0,
    "dist_fire_km": 0.0,
    "emergency_safety_index": 12.38
  },
  {
    "school_index": 251,
    "school_name": "Hindustan University",
    "lat": 12.7992422,
    "lon": 80.2281533,
    "has_hospital": true,
    "has_police_station": false,
    "has_fire_station": false,
    "dist_hospital_km": 0.885,
    "dist_police_km": 0.0,
    "dist_fire_km": 0.0,
    "emergency_safety_index": 15.84
  },
  {
    "school_index": 252,
    "school_name": "Tamil Nadu Physical Education And Sports University",
    "lat": 12.8324788,
    "lon": 80.1405978,
    "has_hospital": true,
    "has_police_station": false,
    "has_fire_station": false,
    "dist_hospital_km": 1.88,
    "dist_police_km": 0.0,
    "dist_fire_km": 0.0,
    "emergency_safety_index": 12.01
  },
  {
    "school_index": 253,
    "school_name": "Tagore Dental College And Hospital",
    "lat": 12.8617243,
    "lon": 80.137036,
    "has_hospital": true,
    "has_police_station": false,
    "has_fire_station": false,
    "dist_hospital_km": 0.217,
    "dist_police_km": 0.0,
    "dist_fire_km": 0.0,
    "emergency_safety_index": 18.41
  },
  {
    "school_index": 254,
    "school_name": "Vellore Institute Of Technology - Chennai",
    "lat": 12.8419815,
    "lon": 80.154934,
    "has_hospital": true,
    "has_police_station": false,
    "has_fire_station": false,
    "dist_hospital_km": 1.649,
    "dist_police_km": 0.0,
    "dist_fire_km": 0.0,
    "emergency_safety_index": 12.9
  },
  {
    "school_index": 255,
    "school_name": "Velammal Vidhyashram Mambakkam",
    "lat": 12.8277863,
    "lon": 80.166056,
    "has_hospital": true,
    "has_police_station": false,
    "has_fire_station": false,
    "dist_hospital_km": 0.109,
    "dist_police_km": 0.0,
    "dist_fire_km": 0.0,
    "emergency_safety_index": 18.83
  },
  {
    "school_index": 256,
    "school_name": "Mohamed Sathak Aj College Of Engineering",
    "lat": 12.8361021,
    "lon": 80.2180724,
    "has_hospital": true,
    "has_police_station": true,
    "has_fire_station": true,
    "dist_hospital_km": 1.034,
    "dist_police_km": 1.554,
    "dist_fire_km": 0.737,
    "emergency_safety_index": 77.83
  },
  {
    "school_index": 257,
    "school_name": "Christwood School",
    "lat": 12.8598253,
    "lon": 80.1693189,
    "has_hospital": false,
    "has_police_station": false,
    "has_fire_station": false,
    "dist_hospital_km": 0.0,
    "dist_police_km": 0.0,
    "dist_fire_km": 0.0,
    "emergency_safety_index": 0.0
  },
  {
    "school_index": 258,
    "school_name": "Madras Christian College",
    "lat": 12.9181427,
    "lon": 80.1220464,
    "has_hospital": true,
    "has_police_station": true,
    "has_fire_station": false,
    "dist_hospital_km": 0.692,
    "dist_police_km": 1.28,
    "dist_fire_km": 0.0,
    "emergency_safety_index": 43.7
  },
  {
    "school_index": 259,
    "school_name": "Bharath Institute Of Higher Education And Research",
    "lat": 12.9080286,
    "lon": 80.1394614,
    "has_hospital": true,
    "has_police_station": true,
    "has_fire_station": false,
    "dist_hospital_km": 1.446,
    "dist_police_km": 1.721,
    "dist_fire_km": 0.0,
    "emergency_safety_index": 37.19
  },
  {
    "school_index": 260,
    "school_name": "Annai Arul Public School",
    "lat": 12.8957152,
    "lon": 80.1553243,
    "has_hospital": true,
    "has_police_station": false,
    "has_fire_station": false,
    "dist_hospital_km": 0.703,
    "dist_police_km": 0.0,
    "dist_fire_km": 0.0,
    "emergency_safety_index": 16.54
  },
  {
    "school_index": 261,
    "school_name": "Alwin Memorial Public School Cbse",
    "lat": 12.9137534,
    "lon": 80.1452888,
    "has_hospital": true,
    "has_police_station": true,
    "has_fire_station": false,
    "dist_hospital_km": 0.714,
    "dist_police_km": 1.494,
    "dist_fire_km": 0.0,
    "emergency_safety_index": 42.41
  },
  {
    "school_index": 262,
    "school_name": "Zion Matriculation Higher Secondary School",
    "lat": 12.9119908,
    "lon": 80.1449817,
    "has_hospital": true,
    "has_police_station": true,
    "has_fire_station": false,
    "dist_hospital_km": 0.906,
    "dist_police_km": 1.612,
    "dist_fire_km": 0.0,
    "emergency_safety_index": 40.73
  },
  {
    "school_index": 263,
    "school_name": "Hlc International",
    "lat": 12.8625382,
    "lon": 80.2067658,
    "has_hospital": false,
    "has_police_station": false,
    "has_fire_station": false,
    "dist_hospital_km": 0.0,
    "dist_police_km": 0.0,
    "dist_fire_km": 0.0,
    "emergency_safety_index": 0.0
  },
  {
    "school_index": 264,
    "school_name": "St Joseph'S Instittute Of Technology",
    "lat": 12.8670812,
    "lon": 80.2179374,
    "has_hospital": true,
    "has_police_station": false,
    "has_fire_station": false,
    "dist_hospital_km": 0.702,
    "dist_police_km": 0.0,
    "dist_fire_km": 0.0,
    "emergency_safety_index": 16.54
  },
  {
    "school_index": 265,
    "school_name": "St Joseph'S College Of Engineering",
    "lat": 12.8691261,
    "lon": 80.2148406,
    "has_hospital": true,
    "has_police_station": false,
    "has_fire_station": false,
    "dist_hospital_km": 0.938,
    "dist_police_km": 0.0,
    "dist_fire_km": 0.0,
    "emergency_safety_index": 15.63
  },
  {
    "school_index": 266,
    "school_name": "Perumbakkam Higher Secondary School",
    "lat": 12.8857646,
    "lon": 80.2104745,
    "has_hospital": true,
    "has_police_station": false,
    "has_fire_station": false,
    "dist_hospital_km": 1.452,
    "dist_police_km": 0.0,
    "dist_fire_km": 0.0,
    "emergency_safety_index": 13.66
  },
  {
    "school_index": 267,
    "school_name": "Government Industrial Training Institute Perumbakkam",
    "lat": 12.8881159,
    "lon": 80.2086558,
    "has_hospital": true,
    "has_police_station": false,
    "has_fire_station": false,
    "dist_hospital_km": 1.145,
    "dist_police_km": 0.0,
    "dist_fire_km": 0.0,
    "emergency_safety_index": 14.84
  },
  {
    "school_index": 268,
    "school_name": "Government Arts And Science College Perumbakkam",
    "lat": 12.8889018,
    "lon": 80.2091679,
    "has_hospital": true,
    "has_police_station": false,
    "has_fire_station": false,
    "dist_hospital_km": 1.076,
    "dist_police_km": 0.0,
    "dist_fire_km": 0.0,
    "emergency_safety_index": 15.1
  },
  {
    "school_index": 269,
    "school_name": "Central Institute Of Classical Tamil",
    "lat": 12.9050271,
    "lon": 80.2113879,
    "has_hospital": true,
    "has_police_station": true,
    "has_fire_station": false,
    "dist_hospital_km": 0.459,
    "dist_police_km": 1.861,
    "dist_fire_km": 0.0,
    "emergency_safety_index": 41.8
  },
  {
    "school_index": 270,
    "school_name": "Chennai Mathematical Institute",
    "lat": 12.8283765,
    "lon": 80.2203926,
    "has_hospital": true,
    "has_police_station": false,
    "has_fire_station": true,
    "dist_hospital_km": 1.184,
    "dist_police_km": 0.0,
    "dist_fire_km": 0.368,
    "emergency_safety_index": 45.99
  },
  {
    "school_index": 271,
    "school_name": "Amet University",
    "lat": 12.8541398,
    "lon": 80.2384474,
    "has_hospital": true,
    "has_police_station": true,
    "has_fire_station": false,
    "dist_hospital_km": 1.583,
    "dist_police_km": 1.463,
    "dist_fire_km": 0.0,
    "emergency_safety_index": 37.85
  },
  {
    "school_index": 272,
    "school_name": "Balaji Seamen Training Institute",
    "lat": 12.8655355,
    "lon": 80.2282105,
    "has_hospital": true,
    "has_police_station": false,
    "has_fire_station": false,
    "dist_hospital_km": 0.763,
    "dist_police_km": 0.0,
    "dist_fire_km": 0.0,
    "emergency_safety_index": 16.31
  },
  {
    "school_index": 273,
    "school_name": "Jeppiaar Engineering College",
    "lat": 12.8663407,
    "lon": 80.2204799,
    "has_hospital": true,
    "has_police_station": false,
    "has_fire_station": false,
    "dist_hospital_km": 0.56,
    "dist_police_km": 0.0,
    "dist_fire_km": 0.0,
    "emergency_safety_index": 17.09
  },
  {
    "school_index": 274,
    "school_name": "Indian Maritime University",
    "lat": 12.8636381,
    "lon": 80.2448165,
    "has_hospital": false,
    "has_police_station": false,
    "has_fire_station": false,
    "dist_hospital_km": 0.0,
    "dist_police_km": 0.0,
    "dist_fire_km": 0.0,
    "emergency_safety_index": 0.0
  },
  {
    "school_index": 275,
    "school_name": "Babaji Vidyasharam Cbse",
    "lat": 12.8959379,
    "lon": 80.2179674,
    "has_hospital": true,
    "has_police_station": true,
    "has_fire_station": false,
    "dist_hospital_km": 0.592,
    "dist_police_km": 1.219,
    "dist_fire_km": 0.0,
    "emergency_safety_index": 44.58
  },
  {
    "school_index": 276,
    "school_name": "Babaji School Play Ground",
    "lat": 12.8965498,
    "lon": 80.2181867,
    "has_hospital": true,
    "has_police_station": true,
    "has_fire_station": false,
    "dist_hospital_km": 0.587,
    "dist_police_km": 1.168,
    "dist_fire_km": 0.0,
    "emergency_safety_index": 44.88
  },
  {
    "school_index": 277,
    "school_name": "Corley Higher Secondary School Ground",
    "lat": 12.9169457,
    "lon": 80.1163495,
    "has_hospital": true,
    "has_police_station": true,
    "has_fire_station": false,
    "dist_hospital_km": 0.968,
    "dist_police_km": 1.014,
    "dist_fire_km": 0.0,
    "emergency_safety_index": 43.64
  },
  {
    "school_index": 278,
    "school_name": "Quadrangle",
    "lat": 12.9216689,
    "lon": 80.1221257,
    "has_hospital": true,
    "has_police_station": true,
    "has_fire_station": false,
    "dist_hospital_km": 0.564,
    "dist_police_km": 1.083,
    "dist_fire_km": 0.0,
    "emergency_safety_index": 45.47
  },
  {
    "school_index": 279,
    "school_name": "Mcc Campus School",
    "lat": 12.9215511,
    "lon": 80.1266749,
    "has_hospital": true,
    "has_police_station": true,
    "has_fire_station": false,
    "dist_hospital_km": 0.089,
    "dist_police_km": 0.941,
    "dist_fire_km": 0.0,
    "emergency_safety_index": 48.83
  },
  {
    "school_index": 280,
    "school_name": "Sita Devi Garodia Hindu Vidyalaya",
    "lat": 12.925027,
    "lon": 80.1284557,
    "has_hospital": true,
    "has_police_station": true,
    "has_fire_station": false,
    "dist_hospital_km": 0.07,
    "dist_police_km": 0.77,
    "dist_fire_km": 0.0,
    "emergency_safety_index": 49.86
  },
  {
    "school_index": 281,
    "school_name": "Sita Devi Garodia Hindu Vidyalaya Play Ground",
    "lat": 12.9255665,
    "lon": 80.1286518,
    "has_hospital": true,
    "has_police_station": true,
    "has_fire_station": false,
    "dist_hospital_km": 0.056,
    "dist_police_km": 0.771,
    "dist_fire_km": 0.0,
    "emergency_safety_index": 49.93
  },
  {
    "school_index": 282,
    "school_name": "Sri Sankara Vidyalaya Matriculation Higher Secondary School",
    "lat": 12.9233908,
    "lon": 80.1320689,
    "has_hospital": true,
    "has_police_station": true,
    "has_fire_station": false,
    "dist_hospital_km": 0.139,
    "dist_police_km": 0.347,
    "dist_fire_km": 0.0,
    "emergency_safety_index": 51.79
  },
  {
    "school_index": 283,
    "school_name": "Government High School",
    "lat": 12.9219783,
    "lon": 80.1343591,
    "has_hospital": true,
    "has_police_station": true,
    "has_fire_station": false,
    "dist_hospital_km": 0.403,
    "dist_police_km": 0.144,
    "dist_fire_km": 0.0,
    "emergency_safety_index": 51.46
  },
  {
    "school_index": 284,
    "school_name": "Christ King Girls Higher Secondary School Ground",
    "lat": 12.9222092,
    "lon": 80.1319031,
    "has_hospital": true,
    "has_police_station": true,
    "has_fire_station": false,
    "dist_hospital_km": 0.153,
    "dist_police_km": 0.37,
    "dist_fire_km": 0.0,
    "emergency_safety_index": 51.59
  },
  {
    "school_index": 285,
    "school_name": "Shri Anand Jain Vidyala",
    "lat": 12.9279056,
    "lon": 80.1122946,
    "has_hospital": true,
    "has_police_station": true,
    "has_fire_station": false,
    "dist_hospital_km": 0.047,
    "dist_police_km": 0.284,
    "dist_fire_km": 0.0,
    "emergency_safety_index": 52.63
  },
  {
    "school_index": 286,
    "school_name": "Jaigopal Garodia National Higher Secondary School",
    "lat": 12.9316372,
    "lon": 80.1286451,
    "has_hospital": true,
    "has_police_station": true,
    "has_fire_station": true,
    "dist_hospital_km": 0.489,
    "dist_police_km": 1.186,
    "dist_fire_km": 1.438,
    "emergency_safety_index": 79.25
  },
  {
    "school_index": 287,
    "school_name": "National Institute For Siddha",
    "lat": 12.9390299,
    "lon": 80.1282978,
    "has_hospital": true,
    "has_police_station": true,
    "has_fire_station": true,
    "dist_hospital_km": 0.048,
    "dist_police_km": 1.061,
    "dist_fire_km": 0.769,
    "emergency_safety_index": 87.48
  },
  {
    "school_index": 288,
    "school_name": "Mit Ground",
    "lat": 12.9412326,
    "lon": 80.1369274,
    "has_hospital": true,
    "has_police_station": true,
    "has_fire_station": true,
    "dist_hospital_km": 0.17,
    "dist_police_km": 0.451,
    "dist_fire_km": 0.449,
    "emergency_safety_index": 92.87
  },
  {
    "school_index": 289,
    "school_name": "Srimathi Sundaravalli Memorial School",
    "lat": 12.9565502,
    "lon": 80.1335869,
    "has_hospital": true,
    "has_police_station": true,
    "has_fire_station": true,
    "dist_hospital_km": 0.188,
    "dist_police_km": 1.648,
    "dist_fire_km": 1.436,
    "emergency_safety_index": 78.19
  },
  {
    "school_index": 290,
    "school_name": "Tagore College Of Arts And Science",
    "lat": 12.9553554,
    "lon": 80.1360144,
    "has_hospital": true,
    "has_police_station": true,
    "has_fire_station": true,
    "dist_hospital_km": 0.135,
    "dist_police_km": 1.904,
    "dist_fire_km": 1.329,
    "emergency_safety_index": 77.55
  },
  {
    "school_index": 291,
    "school_name": "Srdf Vivekananda Vidyalaya",
    "lat": 12.9452886,
    "lon": 80.1431197,
    "has_hospital": true,
    "has_police_station": true,
    "has_fire_station": true,
    "dist_hospital_km": 0.195,
    "dist_police_km": 1.052,
    "dist_fire_km": 1.048,
    "emergency_safety_index": 84.7
  },
  {
    "school_index": 292,
    "school_name": "Ayyasami School",
    "lat": 12.9432926,
    "lon": 80.1410436,
    "has_hospital": true,
    "has_police_station": true,
    "has_fire_station": true,
    "dist_hospital_km": 0.097,
    "dist_police_km": 0.748,
    "dist_fire_km": 0.808,
    "emergency_safety_index": 88.98
  },