[
  {
    "school_index": 0,
    "school_name": "Chaitanya Public School",
    "lat": 17.6574107,
    "lon": 83.132655,
    "has_hospital": true,
    "has_police_station": false,
    "has_fire_station": false,
    "dist_hospital_km": 1.372,
    "dist_police_km": 0.0,
    "dist_fire_km": 0.0,
    "emergency_safety_index": 13.96
  },
  {
    "school_index": 1,
    "school_name": "Delhi Public School Visakhapatnam",
    "lat": 17.653747,
    "lon": 83.1360611,
    "has_hospital": true,
    "has_police_station": false,
    "has_fire_station": false,
    "dist_hospital_km": 1.348,
    "dist_police_km": 0.0,
    "dist_fire_km": 0.0,
    "emergency_safety_index": 14.06
  },
  {
    "school_index": 2,
    "school_name": "Tnr School",
    "lat": 17.687162,
    "lon": 83.2206384,
    "has_hospital": true,
    "has_police_station": false,
    "has_fire_station": false,
    "dist_hospital_km": 0.662,
    "dist_police_km": 0.0,
    "dist_fire_km": 0.0,
    "emergency_safety_index": 16.7
  },
  {
    "school_index": 3,
    "school_name": "Sri Chaitanya Techno School",
    "lat": 17.7413557,
    "lon": 83.2375401,
    "has_hospital": true,
    "has_police_station": true,
    "has_fire_station": false,
    "dist_hospital_km": 0.949,
    "dist_police_km": 1.294,
    "dist_fire_km": 0.0,
    "emergency_safety_index": 42.22
  },
  {
    "school_index": 4,
    "school_name": "Delhi Public School",
    "lat": 17.7425283,
    "lon": 83.2396113,
    "has_hospital": true,
    "has_police_station": true,
    "has_fire_station": false,
    "dist_hospital_km": 0.762,
    "dist_police_km": 1.099,
    "dist_fire_km": 0.0,
    "emergency_safety_index": 44.3
  },
  {
    "school_index": 5,
    "school_name": "Government School",
    "lat": 17.7400572,
    "lon": 83.2426355,
    "has_hospital": true,
    "has_police_station": true,
    "has_fire_station": false,
    "dist_hospital_km": 0.405,
    "dist_police_km": 1.058,
    "dist_fire_km": 0.0,
    "emergency_safety_index": 46.47
  },
  {
    "school_index": 6,
    "school_name": "Mpp School",
    "lat": 17.777915,
    "lon": 83.2163785,
    "has_hospital": true,
    "has_police_station": false,
    "has_fire_station": false,
    "dist_hospital_km": 1.281,
    "dist_police_km": 0.0,
    "dist_fire_km": 0.0,
    "emergency_safety_index": 14.31
  },
  {
    "school_index": 7,
    "school_name": "Ravindra Bharathi School",
    "lat": 17.79843,
    "lon": 83.2096569,
    "has_hospital": true,
    "has_police_station": true,
    "has_fire_station": false,
    "dist_hospital_km": 0.291,
    "dist_police_km": 1.295,
    "dist_fire_km": 0.0,
    "emergency_safety_index": 45.8
  },
  {
    "school_index": 8,
    "school_name": "Rightway School",
    "lat": 17.7349954,
    "lon": 83.2700271,
    "has_hospital": true,
    "has_police_station": true,
    "has_fire_station": false,
    "dist_hospital_km": 0.195,
    "dist_police_km": 1.193,
    "dist_fire_km": 0.0,
    "emergency_safety_index": 46.88
  },
  {
    "school_index": 9,
    "school_name": "Sri Gawri Degree And Pg College",
    "lat": 17.7354822,
    "lon": 83.2716113,
    "has_hospital": true,
    "has_police_station": true,
    "has_fire_station": false,
    "dist_hospital_km": 0.065,
    "dist_police_km": 1.028,
    "dist_fire_km": 0.0,
    "emergency_safety_index": 48.48
  },
  {
    "school_index": 10,
    "school_name": "Sri Vagdevi School",
    "lat": 17.7354555,
    "lon": 83.270296,
    "has_hospital": true,
    "has_police_station": true,
    "has_fire_station": false,
    "dist_hospital_km": 0.139,
    "dist_police_km": 1.167,
    "dist_fire_km": 0.0,
    "emergency_safety_index": 47.32
  },
  {
    "school_index": 11,
    "school_name": "Gvmc Primary School",
    "lat": 17.7313197,
    "lon": 83.2785659,
    "has_hospital": true,
    "has_police_station": true,
    "has_fire_station": false,
    "dist_hospital_km": 0.216,
    "dist_police_km": 0.483,
    "dist_fire_km": 0.0,
    "emergency_safety_index": 50.63
  },
  {
    "school_index": 12,
    "school_name": "Narayana Em School",
    "lat": 17.7360659,
    "lon": 83.3004644,
    "has_hospital": true,
    "has_police_station": true,
    "has_fire_station": false,
    "dist_hospital_km": 0.157,
    "dist_police_km": 0.55,
    "dist_fire_km": 0.0,
    "emergency_safety_index": 50.58
  },
  {
    "school_index": 13,
    "school_name": "Bethany School",
    "lat": 17.7105591,
    "lon": 83.3137921,
    "has_hospital": true,
    "has_police_station": true,
    "has_fire_station": true,
    "dist_hospital_km": 0.067,
    "dist_police_km": 0.936,
    "dist_fire_km": 1.598,
    "emergency_safety_index": 82.66
  },
  {
    "school_index": 14,
    "school_name": "Nbm Law College",
    "lat": 17.7135912,
    "lon": 83.3136878,
    "has_hospital": true,
    "has_police_station": true,
    "has_fire_station": true,
    "dist_hospital_km": 0.09,
    "dist_police_km": 0.651,
    "dist_fire_km": 1.647,
    "emergency_safety_index": 84.08
  },
  {
    "school_index": 15,
    "school_name": "Podar Jumbo Kids",
    "lat": 17.7233208,
    "lon": 83.31371,
    "has_hospital": true,
    "has_police_station": true,
    "has_fire_station": false,
    "dist_hospital_km": 0.226,
    "dist_police_km": 0.579,
    "dist_fire_km": 0.0,
    "emergency_safety_index": 50.05
  },
  {
    "school_index": 16,
    "school_name": "Systems Design",
    "lat": 17.7230565,
    "lon": 83.3270212,
    "has_hospital": true,
    "has_police_station": true,
    "has_fire_station": false,
    "dist_hospital_km": 0.426,
    "dist_police_km": 0.607,
    "dist_fire_km": 0.0,
    "emergency_safety_index": 48.81
  },
  {
    "school_index": 17,
    "school_name": "Siva Sivani Public School",
    "lat": 17.7209547,
    "lon": 83.3315061,
    "has_hospital": true,
    "has_police_station": true,
    "has_fire_station": false,
    "dist_hospital_km": 0.274,
    "dist_police_km": 1.011,
    "dist_fire_km": 0.0,
    "emergency_safety_index": 47.44
  },
  {
    "school_index": 18,
    "school_name": "Aditya Degree College",
    "lat": 17.7318803,
    "lon": 83.3172009,
    "has_hospital": true,
    "has_police_station": true,
    "has_fire_station": false,
    "dist_hospital_km": 0.05,
    "dist_police_km": 1.016,
    "dist_fire_km": 0.0,
    "emergency_safety_index": 48.63
  },
  {
    "school_index": 19,
    "school_name": "Sri Viswa School",
    "lat": 17.739898,
    "lon": 83.3058704,
    "has_hospital": true,
    "has_police_station": true,
    "has_fire_station": false,
    "dist_hospital_km": 0.187,
    "dist_police_km": 0.212,
    "dist_fire_km": 0.0,
    "emergency_safety_index": 52.26
  },
  {
    "school_index": 20,
    "school_name": "Dr Br Ambedkar Gurukulam",
    "lat": 17.7695657,
    "lon": 83.2812434,
    "has_hospital": true,
    "has_police_station": false,
    "has_fire_station": false,
    "dist_hospital_km": 1.818,
    "dist_police_km": 0.0,
    "dist_fire_km": 0.0,
    "emergency_safety_index": 12.25
  },
  {
    "school_index": 21,
    "school_name": "The School Of Autism",
    "lat": 17.7437218,
    "lon": 83.3310416,
    "has_hospital": true,
    "has_police_station": true,
    "has_fire_station": false,
    "dist_hospital_km": 0.251,
    "dist_police_km": 1.779,
    "dist_fire_km": 0.0,
    "emergency_safety_index": 43.38
  },
  {
    "school_index": 22,
    "school_name": "Sree Arunodaya School",
    "lat": 17.7632507,
    "lon": 83.3309447,
    "has_hospital": true,
    "has_police_station": false,
    "has_fire_station": false,
    "dist_hospital_km": 0.516,
    "dist_police_km": 0.0,
    "dist_fire_km": 0.0,
    "emergency_safety_index": 17.26
  },
  {
    "school_index": 23,
    "school_name": "Sri Krishna Grammar School",
    "lat": 17.7639754,
    "lon": 83.3296454,
    "has_hospital": true,
    "has_police_station": false,
    "has_fire_station": false,
    "dist_hospital_km": 0.497,
    "dist_police_km": 0.0,
    "dist_fire_km": 0.0,
    "emergency_safety_index": 17.33
  },
  {
    "school_index": 24,
    "school_name": "Sree Krishna Grammar School",
    "lat": 17.7656345,
    "lon": 83.3293192,
    "has_hospital": true,
    "has_police_station": false,
    "has_fire_station": false,
    "dist_hospital_km": 0.653,
    "dist_police_km": 0.0,
    "dist_fire_km": 0.0,
    "emergency_safety_index": 16.73
  },
  {
    "school_index": 25,
    "school_name": "Teeny Boppers",
    "lat": 17.7644749,
    "lon": 83.3606792,
    "has_hospital": true,
    "has_police_station": false,
    "has_fire_station": false,
    "dist_hospital_km": 0.191,
    "dist_police_km": 0.0,
    "dist_fire_km": 0.0,
    "emergency_safety_index": 18.51
  },
  {
    "school_index": 26,
    "school_name": "Lotus English Medium School",
    "lat": 17.8051004,
    "lon": 83.3425095,
    "has_hospital": true,
    "has_police_station": true,
    "has_fire_station": false,
    "dist_hospital_km": 0.082,
    "dist_police_km": 1.234,
    "dist_fire_km": 0.0,
    "emergency_safety_index": 47.27
  },
  {
    "school_index": 27,
    "school_name": "Vijayam School",
    "lat": 17.8239752,
    "lon": 83.3524502,
    "has_hospital": true,
    "has_police_station": false,
    "has_fire_station": false,
    "dist_hospital_km": 1.197,
    "dist_police_km": 0.0,
    "dist_fire_km": 0.0,
    "emergency_safety_index": 14.64
  },
  {
    "school_index": 28,
    "school_name": "De Paul School",
    "lat": 17.6563022,
    "lon": 83.136895,
    "has_hospital": true,
    "has_police_station": false,
    "has_fire_station": false,
    "dist_hospital_km": 1.078,
    "dist_police_km": 0.0,
    "dist_fire_km": 0.0,
    "emergency_safety_index": 15.1
  },
  {
    "school_index": 29,
    "school_name": "Dav Public School",
    "lat": 17.6594337,
    "lon": 83.1616239,
    "has_hospital": true,
    "has_police_station": false,
    "has_fire_station": false,
    "dist_hospital_km": 1.897,
    "dist_police_km": 0.0,
    "dist_fire_km": 0.0,
    "emergency_safety_index": 11.94
  },
  {
    "school_index": 30,
    "school_name": "Visakha Vimala Vidyalayam School",
    "lat": 17.658384,
    "lon": 83.1542723,
    "has_hospital": true,
    "has_police_station": false,
    "has_fire_station": false,
    "dist_hospital_km": 1.195,
    "dist_police_km": 0.0,
    "dist_fire_km": 0.0,
    "emergency_safety_index": 14.65
  },
  {
    "school_index": 31,
    "school_name": "Jyothi Bala Vihar",
    "lat": 17.6540388,
    "lon": 83.1551551,
    "has_hospital": true,
    "has_police_station": false,
    "has_fire_station": false,
    "dist_hospital_km": 1.543,
    "dist_police_km": 0.0,
    "dist_fire_km": 0.0,
    "emergency_safety_index": 13.31
  },
  {
    "school_index": 32,
    "school_name": "Oak",
    "lat": 17.6756465,
    "lon": 83.1982686,
    "has_hospital": true,
    "has_police_station": true,
    "has_fire_station": true,
    "dist_hospital_km": 0.767,
    "dist_police_km": 1.066,
    "dist_fire_km": 1.32,
    "emergency_safety_index": 78.98
  },
  {
    "school_index": 33,
    "school_name": "Adarsha Cbse School",
    "lat": 17.6779286,
    "lon": 83.2004671,
    "has_hospital": true,
    "has_police_station": true,
    "has_fire_station": true,
    "dist_hospital_km": 0.563,
    "dist_police_km": 1.015,
    "dist_fire_km": 1.349,
    "emergency_safety_index": 80.49
  },
  {
    "school_index": 34,
    "school_name": "Timpany School",
    "lat": 17.6757198,
    "lon": 83.197277,
    "has_hospital": true,
    "has_police_station": true,
    "has_fire_station": true,
    "dist_hospital_km": 0.748,
    "dist_police_km": 1.011,
    "dist_fire_km": 1.407,
    "emergency_safety_index": 78.89
  },
  {
    "school_index": 35,
    "school_name": "Vamana Iti",
    "lat": 17.6678516,
    "lon": 83.2108653,
    "has_hospital": true,
    "has_police_station": false,
    "has_fire_station": true,
    "dist_hospital_km": 1.422,
    "dist_police_km": 0.0,
    "dist_fire_km": 0.323,
    "emergency_safety_index": 44.93
  },
  {
    "school_index": 36,
    "school_name": "Saraswati School",
    "lat": 17.6849193,
    "lon": 83.237313,
    "has_hospital": true,
    "has_police_station": false,
    "has_fire_station": false,
    "dist_hospital_km": 0.077,
    "dist_police_km": 0.0,
    "dist_fire_km": 0.0,
    "emergency_safety_index": 18.95
  },
  {
    "school_index": 37,
    "school_name": "Government High School",
    "lat": 17.6841785,
    "lon": 83.2412423,
    "has_hospital": true,
    "has_police_station": true,
    "has_fire_station": false,
    "dist_hospital_km": 0.373,
    "dist_police_km": 1.835,
    "dist_fire_km": 0.0,
    "emergency_safety_index": 42.41
  },
  {
    "school_index": 38,
    "school_name": "Dr Kkr Gowtham Concept School",
    "lat": 17.6859697,
    "lon": 83.160052,
    "has_hospital": false,
    "has_police_station": true,
    "has_fire_station": false,
    "dist_hospital_km": 0.0,
    "dist_police_km": 0.652,
    "dist_fire_km": 0.0,
    "emergency_safety_index": 16.74
  },
  {
    "school_index": 39,
    "school_name": "Dr Kkr Gowtham Concept School Play Ground",
    "lat": 17.6851978,
    "lon": 83.1593883,
    "has_hospital": false,
    "has_police_station": true,
    "has_fire_station": false,
    "dist_hospital_km": 0.0,
    "dist_police_km": 0.711,
    "dist_fire_km": 0.0,
    "emergency_safety_index": 16.51
  },
  {
    "school_index": 40,
    "school_name": "Vignan",
    "lat": 17.7112434,
    "lon": 83.1657838,
    "has_hospital": false,
    "has_police_station": false,
    "has_fire_station": false,
    "dist_hospital_km": 0.0,
    "dist_police_km": 0.0,
    "dist_fire_km": 0.0,
    "emergency_safety_index": 0.0
  },
  {
    "school_index": 41,
    "school_name": "Zp High School",
    "lat": 17.6898542,
    "lon": 83.2122722,
    "has_hospital": true,
    "has_police_station": false,
    "has_fire_station": false,
    "dist_hospital_km": 0.32,
    "dist_police_km": 0.0,
    "dist_fire_km": 0.0,
    "emergency_safety_index": 18.01
  },
  {
    "school_index": 42,
    "school_name": "Zp High School",
    "lat": 17.6891072,
    "lon": 83.2128002,
    "has_hospital": true,
    "has_police_station": false,
    "has_fire_station": false,
    "dist_hospital_km": 0.223,
    "dist_police_km": 0.0,
    "dist_fire_km": 0.0,
    "emergency_safety_index": 18.39
  },
  {
    "school_index": 43,
    "school_name": "Zp High School",
    "lat": 17.6893377,
    "lon": 83.2119996,
    "has_hospital": true,
    "has_police_station": false,
    "has_fire_station": false,
    "dist_hospital_km": 0.281,
    "dist_police_km": 0.0,
    "dist_fire_km": 0.0,
    "emergency_safety_index": 18.16
  },
  {
    "school_index": 44,
    "school_name": "Zp High School",
    "lat": 17.6889934,
    "lon": 83.2123431,
    "has_hospital": true,
    "has_police_station": false,
    "has_fire_station": false,
    "dist_hospital_km": 0.23,
    "dist_police_km": 0.0,
    "dist_fire_km": 0.0,
    "emergency_safety_index": 18.36
  },
  {
    "school_index": 45,
    "school_name": "St Joseph'S Sec School",
    "lat": 17.6868082,
    "lon": 83.2415218,
    "has_hospital": true,
    "has_police_station": true,
    "has_fire_station": false,
    "dist_hospital_km": 0.278,
    "dist_police_km": 1.769,
    "dist_fire_km": 0.0,
    "emergency_safety_index": 43.29
  },
  {
    "school_index": 46,
    "school_name": "Br Ambedkar Gurukulam",
    "lat": 17.7600288,
    "lon": 83.1988646,
    "has_hospital": true,
    "has_police_station": false,
    "has_fire_station": false,
    "dist_hospital_km": 1.608,
    "dist_police_km": 0.0,
    "dist_fire_km": 0.0,
    "emergency_safety_index": 13.06
  },
  {
    "school_index": 47,
    "school_name": "Zphs School",
    "lat": 17.7612432,
    "lon": 83.2010807,
    "has_hospital": true,
    "has_police_station": false,
    "has_fire_station": false,
    "dist_hospital_km": 1.337,
    "dist_police_km": 0.0,
    "dist_fire_km": 0.0,
    "emergency_safety_index": 14.1
  },
  {
    "school_index": 48,
    "school_name": "Svln Zp High School",
    "lat": 17.7500712,
    "lon": 83.217771,
    "has_hospital": true,
    "has_police_station": true,
    "has_fire_station": false,
    "dist_hospital_km": 0.099,
    "dist_police_km": 1.06,
    "dist_fire_km": 0.0,
    "emergency_safety_index": 48.12
  },
  {
    "school_index": 49,
    "school_name": "Alwardas Polytechnic",
    "lat": 17.7575618,
    "lon": 83.2179838,
    "has_hospital": true,
    "has_police_station": true,
    "has_fire_station": false,
    "dist_hospital_km": 0.288,
    "dist_police_km": 1.689,
    "dist_fire_km": 0.0,
    "emergency_safety_index": 43.67
  },
  {
    "school_index": 50,
    "school_name": "Balaji School",
    "lat": 17.7557705,
    "lon": 83.2196652,
    "has_hospital": true,
    "has_police_station": true,
    "has_fire_station": false,
    "dist_hospital_km": 0.306,
    "dist_police_km": 1.43,
    "dist_fire_km": 0.0,
    "emergency_safety_index": 44.98
  },
  {
    "school_index": 51,
    "school_name": "Alwardas School",
    "lat": 17.757049,
    "lon": 83.2182465,
    "has_hospital": true,
    "has_police_station": true,
    "has_fire_station": false,
    "dist_hospital_km": 0.253,
    "dist_police_km": 1.626,
    "dist_fire_km": 0.0,
    "emergency_safety_index": 44.21
  },
  {
    "school_index": 52,
    "school_name": "Subhavedha Em School",
    "lat": 17.7618212,
    "lon": 83.2233721,
    "has_hospital": true,
    "has_police_station": true,
    "has_fire_station": false,
    "dist_hospital_km": 0.485,
    "dist_police_km": 1.967,
    "dist_fire_km": 0.0,
    "emergency_safety_index": 41.09
  },
  {
    "school_index": 53,
    "school_name": "Sri Chaitanya Junior College",
    "lat": 17.7426717,
    "lon": 83.2335928,
    "has_hospital": true,
    "has_police_station": true,
    "has_fire_station": false,
    "dist_hospital_km": 0.776,
    "dist_police_km": 0.853,
    "dist_fire_km": 0.0,
    "emergency_safety_index": 45.57
  },
  {
    "school_index": 54,
    "school_name": "Narayana Junior College",
    "lat": 17.7438484,
    "lon": 83.2342339,
    "has_hospital": true,
    "has_police_station": true,
    "has_fire_station": false,
    "dist_hospital_km": 0.818,
    "dist_police_km": 0.903,
    "dist_fire_km": 0.0,
    "emergency_safety_index": 45.07
  },
  {
    "school_index": 55,
    "school_name": "Ramakrishna School",
    "lat": 17.7440797,
    "lon": 83.235185,
    "has_hospital": true,
    "has_police_station": true,
    "has_fire_station": false,
    "dist_hospital_km": 0.917,
    "dist_police_km": 1.003,
    "dist_fire_km": 0.0,
    "emergency_safety_index": 43.98
  },
  {
    "school_index": 56,
    "school_name": "Saint Ann'S School Grounds",
    "lat": 17.7448069,
    "lon": 83.232672,
    "has_hospital": true,
    "has_police_station": true,
    "has_fire_station": false,
    "dist_hospital_km": 0.649,
    "dist_police_km": 0.739,
    "dist_fire_km": 0.0,
    "emergency_safety_index": 46.88
  },
  {
    "school_index": 57,
    "school_name": "Bhashyam School",
    "lat": 17.7441615,
    "lon": 83.2310313,
    "has_hospital": true,
    "has_police_station": true,
    "has_fire_station": false,
    "dist_hospital_km": 0.477,
    "dist_police_km": 0.563,
    "dist_fire_km": 0.0,
    "emergency_safety_index": 48.77
  },
  {
    "school_index": 58,
    "school_name": "Stella Maris School",
    "lat": 17.7459176,
    "lon": 83.2422639,
    "has_hospital": true,
    "has_police_station": true,
    "has_fire_station": false,
    "dist_hospital_km": 0.76,
    "dist_police_km": 0.68,
    "dist_fire_km": 0.0,
    "emergency_safety_index": 46.59
  },
  {
    "school_index": 59,
    "school_name": "Sri Chaitanya Techno School",
    "lat": 17.7449402,
    "lon": 83.2392758,
    "has_hospital": true,
    "has_police_station": true,
    "has_fire_station": false,
    "dist_hospital_km": 0.914,
    "dist_police_km": 1.014,
    "dist_fire_km": 0.0,
    "emergency_safety_index": 43.94
  },
  {
    "school_index": 60,
    "school_name": "Sri Ramakrishna Public School",
    "lat": 17.7455214,
    "lon": 83.2404385,
    "has_hospital": true,
    "has_police_station": true,
    "has_fire_station": false,
    "dist_hospital_km": 0.856,
    "dist_police_km": 0.877,
    "dist_fire_km": 0.0,
    "emergency_safety_index": 45.0
  },
  {
    "school_index": 61,
    "school_name": "Kids Domain",
    "lat": 17.740875,
    "lon": 83.2466542,
    "has_hospital": true,
    "has_police_station": true,
    "has_fire_station": false,
    "dist_hospital_km": 0.061,
    "dist_police_km": 0.798,
    "dist_fire_km": 0.0,
    "emergency_safety_index": 49.76
  },
  {
    "school_index": 62,
    "school_name": "Bhashyam School",
    "lat": 17.7664639,
    "lon": 83.2121447,
    "has_hospital": true,
    "has_police_station": false,
    "has_fire_station": false,
    "dist_hospital_km": 0.076,
    "dist_police_km": 0.0,
    "dist_fire_km": 0.0,
    "emergency_safety_index": 18.95
  },
  {
    "school_index": 63,
    "school_name": "Mahathi",
    "lat": 17.7899924,
    "lon": 83.212691,
    "has_hospital": true,
    "has_police_station": false,
    "has_fire_station": false,
    "dist_hospital_km": 0.204,
    "dist_police_km": 0.0,
    "dist_fire_km": 0.0,
    "emergency_safety_index": 18.46
  },
  {
    "school_index": 64,
    "school_name": "High Fields School",
    "lat": 17.7874799,
    "lon": 83.2132059,
    "has_hospital": true,
    "has_police_station": false,
    "has_fire_station": false,
    "dist_hospital_km": 0.489,
    "dist_police_km": 0.0,
    "dist_fire_km": 0.0,
    "emergency_safety_index": 17.36
  },
  {
    "school_index": 65,
    "school_name": "Simhachalam Sanskrit High School",
    "lat": 17.7714667,
    "lon": 83.2447571,
    "has_hospital": false,
    "has_police_station": false,
    "has_fire_station": false,
    "dist_hospital_km": 0.0,
    "dist_police_km": 0.0,
    "dist_fire_km": 0.0,
    "emergency_safety_index": 0.0
  },
  {
    "school_index": 66,
    "school_name": "Pendurthi Govt Junior College",
    "lat": 17.8109206,
    "lon": 83.2082907,
    "has_hospital": true,
    "has_police_station": true,
    "has_fire_station": false,
    "dist_hospital_km": 0.118,
    "dist_police_km": 0.136,
    "dist_fire_km": 0.0,
    "emergency_safety_index": 53.05
  },
  {
    "school_index": 67,
    "school_name": "Govt High School",
    "lat": 17.8118333,
    "lon": 83.2080553,
    "has_hospital": true,
    "has_police_station": true,
    "has_fire_station": false,
    "dist_hospital_km": 0.22,
    "dist_police_km": 0.188,
    "dist_fire_km": 0.0,
    "emergency_safety_index": 52.21
  },
  {
    "school_index": 68,
    "school_name": "Sri Chaitanya School",
    "lat": 17.8177346,
    "lon": 83.2068287,
    "has_hospital": true,
    "has_police_station": true,
    "has_fire_station": false,
    "dist_hospital_km": 0.042,
    "dist_police_km": 0.526,
    "dist_fire_km": 0.0,
    "emergency_safety_index": 51.34
  },
  {
    "school_index": 69,
    "school_name": "Sri Prakash",
    "lat": 17.8189477,
    "lon": 83.2086422,
    "has_hospital": true,
    "has_police_station": true,
    "has_fire_station": false,
    "dist_hospital_km": 0.269,
    "dist_police_km": 0.689,
    "dist_fire_km": 0.0,
    "emergency_safety_index": 49.22
  },
  {
    "school_index": 70,
    "school_name": "Queen Marys Government Girls High School",
    "lat": 17.6938074,
    "lon": 83.2915023,
    "has_hospital": true,
    "has_police_station": false,
    "has_fire_station": true,
    "dist_hospital_km": 0.825,
    "dist_police_km": 0.0,
    "dist_fire_km": 1.711,
    "emergency_safety_index": 40.63
  },
  {
    "school_index": 71,
    "school_name": "St Aloysius' Anglo-Indian High School",
    "lat": 17.6923099,
    "lon": 83.293356,
    "has_hospital": true,
    "has_police_station": false,
    "has_fire_station": true,
    "dist_hospital_km": 0.883,
    "dist_police_km": 0.0,
    "dist_fire_km": 1.867,
    "emergency_safety_index": 39.46
  },
  {
    "school_index": 72,
    "school_name": "Fort Catholic Girls School",
    "lat": 17.6927944,
    "lon": 83.2926675,
    "has_hospital": true,
    "has_police_station": false,
    "has_fire_station": true,
    "dist_hospital_km": 0.86,
    "dist_police_km": 0.0,
    "dist_fire_km": 1.815,
    "emergency_safety_index": 39.87
  },
  {
    "school_index": 73,
    "school_name": "St Brigid'S Convent",
    "lat": 17.6943708,
    "lon": 83.2941887,
    "has_hospital": true,
    "has_police_station": true,
    "has_fire_station": true,
    "dist_hospital_km": 0.637,
    "dist_police_km": 1.858,
    "dist_fire_km": 1.641,
    "emergency_safety_index": 72.43
  },
  {
    "school_index": 74,
    "school_name": "Mrs A V N College",
    "lat": 17.7043843,
    "lon": 83.3011962,
    "has_hospital": true,
    "has_police_station": true,
    "has_fire_station": true,
    "dist_hospital_km": 0.626,
    "dist_police_km": 0.686,
    "dist_fire_km": 0.627,
    "emergency_safety_index": 87.07
  },
  {
    "school_index": 75,
    "school_name": "Govt Iti",
    "lat": 17.7370267,
    "lon": 83.268336,
    "has_hospital": true,
    "has_police_station": true,
    "has_fire_station": false,
    "dist_hospital_km": 0.329,
    "dist_police_km": 1.394,
    "dist_fire_km": 0.0,
    "emergency_safety_index": 45.05
  },
  {
    "school_index": 76,
    "school_name": "St Joseph'S College For Women",
    "lat": 17.7187934,
    "lon": 83.2876324,
    "has_hospital": true,
    "has_police_station": true,
    "has_fire_station": true,
    "dist_hospital_km": 1.193,
    "dist_police_km": 1.565,
    "dist_fire_km": 1.233,
    "emergency_safety_index": 73.39
  },
  {
    "school_index": 77,
    "school_name": "Seventh Day",
    "lat": 17.7129043,
    "lon": 83.3023359,
    "has_hospital": true,
    "has_police_station": true,
    "has_fire_station": true,
    "dist_hospital_km": 0.063,
    "dist_police_km": 0.363,
    "dist_fire_km": 0.536,
    "emergency_safety_index": 93.59
  },
  {
    "school_index": 78,
    "school_name": "St Anthony Primary And High School",
    "lat": 17.714304,
    "lon": 83.3067574,
    "has_hospital": true,
    "has_police_station": true,
    "has_fire_station": true,
    "dist_hospital_km": 0.087,
    "dist_police_km": 0.434,
    "dist_fire_km": 1.002,
    "emergency_safety_index": 89.85
  },
  {
    "school_index": 79,
    "school_name": "Government Municipal School",
    "lat": 17.7218381,
    "lon": 83.3096052,
    "has_hospital": true,
    "has_police_station": true,
    "has_fire_station": true,
    "dist_hospital_km": 0.07,
    "dist_police_km": 0.408,
    "dist_fire_km": 1.79,
    "emergency_safety_index": 84.88
  },
  {
    "school_index": 80,
    "school_name": "Narayana Iit Campus",
    "lat": 17.7241496,
    "lon": 83.3093134,
    "has_hospital": true,
    "has_police_station": true,
    "has_fire_station": true,
    "dist_hospital_km": 0.188,
    "dist_police_km": 0.667,
    "dist_fire_km": 1.976,
    "emergency_safety_index": 81.13
  },
  {
    "school_index": 81,
    "school_name": "Government Degree Women'S Collge",
    "lat": 17.7202983,
    "lon": 83.3040544,
    "has_hospital": true,
    "has_police_station": true,
    "has_fire_station": true,
    "dist_hospital_km": 0.445,
    "dist_police_km": 0.659,
    "dist_fire_km": 1.325,
    "emergency_safety_index": 83.81
  },
  {
    "school_index": 82,
    "school_name": "Pydah Degree College",
    "lat": 17.7186789,
    "lon": 83.3070284,
    "has_hospital": true,
    "has_police_station": true,
    "has_fire_station": true,
    "dist_hospital_km": 0.217,
    "dist_police_km": 0.305,
    "dist_fire_km": 1.345,
    "emergency_safety_index": 87.55
  },
  {
    "school_index": 83,
    "school_name": "Knm Girls High School",
    "lat": 17.7286255,
    "lon": 83.2958081,
    "has_hospital": true,
    "has_police_station": true,
    "has_fire_station": false,
    "dist_hospital_km": 0.107,
    "dist_police_km": 1.449,
    "dist_fire_km": 0.0,
    "emergency_safety_index": 45.96
  },
  {
    "school_index": 84,
    "school_name": "Viswateja",
    "lat": 17.7332163,
    "lon": 83.2895274,
    "has_hospital": true,
    "has_police_station": true,
    "has_fire_station": false,
    "dist_hospital_km": 0.272,
    "dist_police_km": 0.89,
    "dist_fire_km": 0.0,
    "emergency_safety_index": 48.11
  },
  {
    "school_index": 85,
    "school_name": "Muralidhar Academy",
    "lat": 17.7292351,
    "lon": 83.3088755,
    "has_hospital": true,
    "has_police_station": true,
    "has_fire_station": false,
    "dist_hospital_km": 0.06,
    "dist_police_km": 1.06,
    "dist_fire_km": 0.0,
    "emergency_safety_index": 48.34
  },
  {
    "school_index": 86,
    "school_name": "Prism Degree And Pg College",
    "lat": 17.7304333,
    "lon": 83.3084185,
    "has_hospital": true,
    "has_police_station": true,
    "has_fire_station": false,
    "dist_hospital_km": 0.1,
    "dist_police_km": 0.918,
    "dist_fire_km": 0.0,
    "emergency_safety_index": 48.89
  },
  {
    "school_index": 87,
    "school_name": "Ravindra Bharathi School",
    "lat": 17.725589,
    "lon": 83.304928,
    "has_hospital": true,
    "has_police_station": true,
    "has_fire_station": true,
    "dist_hospital_km": 0.153,
    "dist_police_km": 0.976,
    "dist_fire_km": 1.904,
    "emergency_safety_index": 79.78
  },
  {
    "school_index": 88,
    "school_name": "Pollocks School",
    "lat": 17.7264654,
    "lon": 83.3047866,
    "has_hospital": true,
    "has_police_station": true,
    "has_fire_station": true,
    "dist_hospital_km": 0.055,
    "dist_police_km": 1.067,
    "dist_fire_km": 1.991,
    "emergency_safety_index": 79.25
  },
  {
    "school_index": 89,
    "school_name": "Sri Krishna Vidya Mandir",
    "lat": 17.7283351,
    "lon": 83.3068709,
    "has_hospital": true,
    "has_police_station": true,
    "has_fire_station": false,
    "dist_hospital_km": 0.137,
    "dist_police_km": 1.1,
    "dist_fire_km": 0.0,
    "emergency_safety_index": 47.7
  },
  {
    "school_index": 90,
    "school_name": "B V K College",
    "lat": 17.7293695,
    "lon": 83.3060544,
    "has_hospital": true,
    "has_police_station": true,
    "has_fire_station": false,
    "dist_hospital_km": 0.07,
    "dist_police_km": 0.975,
    "dist_fire_km": 0.0,
    "emergency_safety_index": 48.74
  },
  {
    "school_index": 91,
    "school_name": "V B V High School",
    "lat": 17.7372702,
    "lon": 83.3085327,
    "has_hospital": true,
    "has_police_station": true,
    "has_fire_station": false,
    "dist_hospital_km": 0.152,
    "dist_police_km": 0.365,
    "dist_fire_km": 0.0,
    "emergency_safety_index": 51.62
  },
  {
    "school_index": 92,
    "school_name": "Municipal High School",
    "lat": 17.7370574,
    "lon": 83.301453,
    "has_hospital": true,
    "has_police_station": true,
    "has_fire_station": false,
    "dist_hospital_km": 0.239,
    "dist_police_km": 0.414,
    "dist_fire_km": 0.0,
    "emergency_safety_index": 50.88
  },
  {
    "school_index": 93,
    "school_name": "Ascent Junior College",
    "lat": 17.7241843,
    "lon": 83.3126328,
    "has_hospital": true,
    "has_police_station": true,
    "has_fire_station": false,
    "dist_hospital_km": 0.244,
    "dist_police_km": 0.722,
    "dist_fire_km": 0.0,
    "emergency_safety_index": 49.17
  },
  {
    "school_index": 94,
    "school_name": "Sri Prakash",
    "lat": 17.7242399,
    "lon": 83.3138417,
    "has_hospital": true,
    "has_police_station": true,
    "has_fire_station": false,
    "dist_hospital_km": 0.134,
    "dist_police_km": 0.612,
    "dist_fire_km": 0.0,
    "emergency_safety_index": 50.37
  },
  {
    "school_index": 95,
    "school_name": "Andhra University",
    "lat": 17.7243221,
    "lon": 83.324526,
    "has_hospital": true,
    "has_police_station": true,
    "has_fire_station": false,
    "dist_hospital_km": 0.516,
    "dist_police_km": 0.487,
    "dist_fire_km": 0.0,
    "emergency_safety_index": 48.97
  },
  {
    "school_index": 96,
    "school_name": "Raghu Jr College",
    "lat": 17.7218617,
    "lon": 83.3104311,
    "has_hospital": true,
    "has_police_station": true,
    "has_fire_station": true,
    "dist_hospital_km": 0.091,
    "dist_police_km": 0.415,
    "dist_fire_km": 1.849,
    "emergency_safety_index": 84.3
  },
  {
    "school_index": 97,
    "school_name": "Divine Touch School",
    "lat": 17.7228503,
    "lon": 83.3137538,
    "has_hospital": true,
    "has_police_station": true,
    "has_fire_station": false,
    "dist_hospital_km": 0.272,
    "dist_police_km": 0.557,
    "dist_fire_km": 0.0,
    "emergency_safety_index": 49.92
  },
  {
    "school_index": 98,
    "school_name": "Bethany School",
    "lat": 17.7211995,
    "lon": 83.3145883,
    "has_hospital": true,
    "has_police_station": true,
    "has_fire_station": false,
    "dist_hospital_km": 0.196,
    "dist_police_km": 0.445,
    "dist_fire_km": 0.0,
    "emergency_safety_index": 50.94
  },
  {
    "school_index": 99,
    "school_name": "Narayana School",
    "lat": 17.7235337,
    "lon": 83.312944,
    "has_hospital": true,
    "has_police_station": true,
    "has_fire_station": false,
    "dist_hospital_km": 0.257,
    "dist_police_km": 0.663,
    "dist_fire_km": 0.0,
    "emergency_safety_index": 49.43
  },
  {
    "school_index": 100,
    "school_name": "Tirumala Junior College",
    "lat": 17.723948,
    "lon": 83.3132473,
    "has_hospital": true,
    "has_police_station": true,
    "has_fire_station": false,
    "dist_hospital_km": 0.202,
    "dist_police_km": 0.652,
    "dist_fire_km": 0.0,
    "emergency_safety_index": 49.78
  },
  {
    "school_index": 101,
    "school_name": "Narayana Junior College",
    "lat": 17.7239295,
    "lon": 83.3173614,
    "has_hospital": true,
    "has_police_station": true,
    "has_fire_station": false,
    "dist_hospital_km": 0.31,
    "dist_police_km": 0.321,
    "dist_fire_km": 0.0,
    "emergency_safety_index": 51.0
  },
  {
    "school_index": 102,
    "school_name": "Department Of Marine Science",
    "lat": 17.7177971,
    "lon": 83.325902,
    "has_hospital": true,
    "has_police_station": true,
    "has_fire_station": false,
    "dist_hospital_km": 0.825,
    "dist_police_km": 0.841,
    "dist_fire_km": 0.0,
    "emergency_safety_index": 45.36
  },
  {
    "school_index": 103,
    "school_name": "School Of Distance Education",
    "lat": 17.7213709,
    "lon": 83.3286599,
    "has_hospital": true,
    "has_police_station": true,
    "has_fire_station": false,
    "dist_hospital_km": 0.336,
    "dist_police_km": 0.832,
    "dist_fire_km": 0.0,
    "emergency_safety_index": 48.08
  },
  {
    "school_index": 104,
    "school_name": "Pharmacy Department",
    "lat": 17.7235444,
    "lon": 83.3283391,
    "has_hospital": true,
    "has_police_station": true,
    "has_fire_station": false,
    "dist_hospital_km": 0.286,
    "dist_police_km": 0.594,
    "dist_fire_km": 0.0,
    "emergency_safety_index": 49.64
  },
  {
    "school_index": 105,
    "school_name": "Kotak Salesian School",
    "lat": 17.7222021,
    "lon": 83.3327115,
    "has_hospital": true,
    "has_police_station": true,
    "has_fire_station": false,
    "dist_hospital_km": 0.221,
    "dist_police_km": 0.987,
    "dist_fire_km": 0.0,
    "emergency_safety_index": 47.86
  },
  {
    "school_index": 106,
    "school_name": "Kotak Salesian School",
    "lat": 17.7230464,
    "lon": 83.333166,
    "has_hospital": true,
    "has_police_station": true,
    "has_fire_station": false,
    "dist_hospital_km": 0.158,
    "dist_police_km": 0.96,
    "dist_fire_km": 0.0,
    "emergency_safety_index": 48.35
  },
  {
    "school_index": 107,
    "school_name": "Timpany School",
    "lat": 17.7255228,
    "lon": 83.3107556,
    "has_hospital": true,
    "has_police_station": true,
    "has_fire_station": false,
    "dist_hospital_km": 0.099,
    "dist_police_km": 0.823,
    "dist_fire_km": 0.0,
    "emergency_safety_index": 49.41
  },
  {
    "school_index": 108,
    "school_name": "Sri Chaitanya College",
    "lat": 17.72554,
    "lon": 83.3097153,
    "has_hospital": true,
    "has_police_station": true,
    "has_fire_station": false,
    "dist_hospital_km": 0.147,
    "dist_police_km": 0.819,
    "dist_fire_km": 0.0,
    "emergency_safety_index": 49.17
  },
  {
    "school_index": 109,
    "school_name": "Narayana Iit Campus",
    "lat": 17.7248279,
    "lon": 83.3123705,
    "has_hospital": true,
    "has_police_station": true,
    "has_fire_station": false,
    "dist_hospital_km": 0.245,
    "dist_police_km": 0.78,
    "dist_fire_km": 0.0,
    "emergency_safety_index": 48.85
  },
  {
    "school_index": 110,
    "school_name": "Sri Chaitanya Chanakya Bhavan",
    "lat": 17.7272308,
    "lon": 83.3106317,
    "has_hospital": true,
    "has_police_station": true,
    "has_fire_station": false,
    "dist_hospital_km": 0.092,
    "dist_police_km": 1.011,
    "dist_fire_km": 0.0,
    "emergency_safety_index": 48.43
  },
  {
    "school_index": 111,
    "school_name": "Timpany School",
    "lat": 17.7261203,
    "lon": 83.3123987,
    "has_hospital": true,
    "has_police_station": true,
    "has_fire_station": false,
    "dist_hospital_km": 0.177,
    "dist_police_km": 0.857,
    "dist_fire_km": 0.0,
    "emergency_safety_index": 48.8
  },
  {
    "school_index": 112,
    "school_name": "Vignan School",
    "lat": 17.7255295,
    "lon": 83.3216135,
    "has_hospital": true,
    "has_police_station": true,
    "has_fire_station": false,
    "dist_hospital_km": 0.216,
    "dist_police_km": 0.541,
    "dist_fire_km": 0.0,
    "emergency_safety_index": 50.31
  },
  {
    "school_index": 113,
    "school_name": "Dr L Bullayya College",
    "lat": 17.7313469,
    "lon": 83.3136527,
    "has_hospital": true,
    "has_police_station": true,
    "has_fire_station": false,
    "dist_hospital_km": 0.258,
    "dist_police_km": 1.169,
    "dist_fire_km": 0.0,
    "emergency_safety_index": 46.67
  },
  {
    "school_index": 114,
    "school_name": "Andhra University",
    "lat": 17.7306123,
    "lon": 83.322842,
    "has_hospital": true,
    "has_police_station": true,
    "has_fire_station": false,
    "dist_hospital_km": 0.427,
    "dist_police_km": 0.42,
    "dist_fire_km": 0.0,
    "emergency_safety_index": 49.82
  },
  {
    "school_index": 115,
    "school_name": "Sri Sarada Vidya Nilayam",
    "lat": 17.7356198,
    "lon": 83.3138023,
    "has_hospital": true,
    "has_police_station": true,
    "has_fire_station": false,
    "dist_hospital_km": 0.242,
    "dist_police_km": 0.952,
    "dist_fire_km": 0.0,
    "emergency_safety_index": 47.93
  },
  {
    "school_index": 116,
    "school_name": "Nmc High School",
    "lat": 17.7368109,
    "lon": 83.3102179,
    "has_hospital": true,
    "has_police_station": true,
    "has_fire_station": false,
    "dist_hospital_km": 0.153,
    "dist_police_km": 0.55,
    "dist_fire_km": 0.0,
    "emergency_safety_index": 50.61
  },
  {
    "school_index": 117,
    "school_name": "Dr B R Ambedkar College Of Law",
    "lat": 17.7247547,
    "lon": 83.3263001,
    "has_hospital": true,
    "has_police_station": true,
    "has_fire_station": false,
    "dist_hospital_km": 0.524,
    "dist_police_km": 0.41,
    "dist_fire_km": 0.0,
    "emergency_safety_index": 49.35
  },
  {
    "school_index": 118,
    "school_name": "Andhra University",
    "lat": 17.737563,
    "lon": 83.3297783,
    "has_hospital": true,
    "has_police_station": true,
    "has_fire_station": false,
    "dist_hospital_km": 0.517,
    "dist_police_km": 1.087,
    "dist_fire_km": 0.0,
    "emergency_safety_index": 45.7
  },
  {
    "school_index": 119,
    "school_name": "Departments Of Fine Arts Andhra University",
    "lat": 17.7361536,
    "lon": 83.3302161,
    "has_hospital": true,
    "has_police_station": true,
    "has_fire_station": false,
    "dist_hospital_km": 0.363,
    "dist_police_km": 0.963,
    "dist_fire_km": 0.0,
    "emergency_safety_index": 47.22
  },
  {
    "school_index": 120,
    "school_name": "Sri Chaitanya Residential School",
    "lat": 17.7285497,
    "lon": 83.3390778,
    "has_hospital": true,
    "has_police_station": true,
    "has_fire_station": false,
    "dist_hospital_km": 0.249,
    "dist_police_km": 1.376,
    "dist_fire_km": 0.0,
    "emergency_safety_index": 45.59
  },
  {
    "school_index": 121,
    "school_name": "Kdpm High School",
    "lat": 17.7293002,
    "lon": 83.3385756,
    "has_hospital": true,
    "has_police_station": true,
    "has_fire_station": false,
    "dist_hospital_km": 0.197,
    "dist_police_km": 1.326,
    "dist_fire_km": 0.0,
    "emergency_safety_index": 46.14
  },
  {
    "school_index": 122,
    "school_name": "Government Institute Of Chemical Engineering",
    "lat": 17.7383015,
    "lon": 83.2674757,
    "has_hospital": true,
    "has_police_station": true,
    "has_fire_station": false,
    "dist_hospital_km": 0.315,
    "dist_police_km": 1.514,
    "dist_fire_km": 0.0,
    "emergency_safety_index": 44.48
  },
  {
    "school_index": 123,
    "school_name": "Government Polytechnic",
    "lat": 17.7398209,
    "lon": 83.268957,
    "has_hospital": true,
    "has_police_station": true,
    "has_fire_station": false,
    "dist_hospital_km": 0.306,
    "dist_police_km": 1.421,
    "dist_fire_km": 0.0,
    "emergency_safety_index": 45.03
  },
  {
    "school_index": 124,
    "school_name": "Apporva School",
    "lat": 17.7495767,
    "lon": 83.2614736,
    "has_hospital": true,
    "has_police_station": true,
    "has_fire_station": false,
    "dist_hospital_km": 0.464,
    "dist_police_km": 1.403,
    "dist_fire_km": 0.0,
    "emergency_safety_index": 44.27
  },
  {
    "school_index": 125,
    "school_name": "Balabhanu School",
    "lat": 17.7509183,
    "lon": 83.2647895,
    "has_hospital": true,
    "has_police_station": true,
    "has_fire_station": false,
    "dist_hospital_km": 0.509,
    "dist_police_km": 1.774,
    "dist_fire_km": 0.0,
    "emergency_safety_index": 42.01
  },
  {
    "school_index": 126,
    "school_name": "Government Municipal High School",
    "lat": 17.7386812,
    "lon": 83.3014593,
    "has_hospital": true,
    "has_police_station": true,
    "has_fire_station": false,
    "dist_hospital_km": 0.225,
    "dist_police_km": 0.401,
    "dist_fire_km": 0.0,
    "emergency_safety_index": 51.03
  },
  {
    "school_index": 127,
    "school_name": "Pen School",
    "lat": 17.7394385,
    "lon": 83.2996993,
    "has_hospital": true,
    "has_police_station": true,
    "has_fire_station": false,
    "dist_hospital_km": 0.029,
    "dist_police_km": 0.601,
    "dist_fire_km": 0.0,
    "emergency_safety_index": 51.0
  },
  {
    "school_index": 128,
    "school_name": "Sri Prakash Vidyaniketan",
    "lat": 17.7400752,
    "lon": 83.3124086,
    "has_hospital": true,
    "has_police_station": true,
    "has_fire_station": false,
    "dist_hospital_km": 0.166,
    "dist_police_km": 0.794,
    "dist_fire_km": 0.0,
    "emergency_safety_index": 49.21
  },
  {
    "school_index": 129,
    "school_name": "Sfs School",
    "lat": 17.7417368,
    "lon": 83.312832,
    "has_hospital": true,
    "has_police_station": true,
    "has_fire_station": false,
    "dist_hospital_km": 0.11,
    "dist_police_km": 0.904,
    "dist_fire_km": 0.0,
    "emergency_safety_index": 48.91
  },
  {
    "school_index": 130,
    "school_name": "Krishna College",
    "lat": 17.7404994,
    "lon": 83.3216581,
    "has_hospital": true,
    "has_police_station": true,
    "has_fire_station": false,
    "dist_hospital_km": 0.209,
    "dist_police_km": 1.421,
    "dist_fire_km": 0.0,
    "emergency_safety_index": 45.56
  },
  {
    "school_index": 131,
    "school_name": "Seventh Day Adventist School",
    "lat": 17.7405112,
    "lon": 83.3322061,
    "has_hospital": true,
    "has_police_station": true,
    "has_fire_station": false,
    "dist_hospital_km": 0.364,
    "dist_police_km": 1.491,
    "dist_fire_km": 0.0,
    "emergency_safety_index": 44.34
  },
  {
    "school_index": 132,
    "school_name": "Little Angles School",
    "lat": 17.7435043,
    "lon": 83.3332201,
    "has_hospital": true,
    "has_police_station": true,
    "has_fire_station": false,
    "dist_hospital_km": 0.214,
    "dist_police_km": 1.838,
    "dist_fire_km": 0.0,
    "emergency_safety_index": 43.26
  },
  {
    "school_index": 133,
    "school_name": "Satya Sai Baba",
    "lat": 17.7382614,
    "lon": 83.3349026,
    "has_hospital": true,
    "has_police_station": true,
    "has_fire_station": false,
    "dist_hospital_km": 0.108,
    "dist_police_km": 1.437,
    "dist_fire_km": 0.0,
    "emergency_safety_index": 46.02
  },
  {
    "school_index": 134,
    "school_name": "Gayatri Vidya Parishad",
    "lat": 17.7405486,
    "lon": 83.3353831,
    "has_hospital": true,
    "has_police_station": true,
    "has_fire_station": false,
    "dist_hospital_km": 0.179,
    "dist_police_km": 1.668,
    "dist_fire_km": 0.0,
    "emergency_safety_index": 44.38
  },
  {
    "school_index": 135,
    "school_name": "Vips College",
    "lat": 17.7464794,
    "lon": 83.3276788,
    "has_hospital": true,
    "has_police_station": true,
    "has_fire_station": false,
    "dist_hospital_km": 0.303,
    "dist_police_km": 2.013,
    "dist_fire_km": 0.0,
    "emergency_safety_index": 41.83
  },
  {
    "school_index": 136,
    "school_name": "Thothagaruvu Zphs Government School",
    "lat": 17.7618724,
    "lon": 83.3214953,
    "has_hospital": true,
    "has_police_station": false,
    "has_fire_station": false,
    "dist_hospital_km": 0.407,
    "dist_police_km": 0.0,
    "dist_fire_km": 0.0,
    "emergency_safety_index": 17.68
  },
  {
    "school_index": 137,
    "school_name": "As Raja Womens College",
    "lat": 17.7412319,
    "lon": 83.3376918,
    "has_hospital": true,
    "has_police_station": true,
    "has_fire_station": false,
    "dist_hospital_km": 0.158,
    "dist_police_km": 1.88,
    "dist_fire_km": 0.0,
    "emergency_safety_index": 43.34
  },
  {
    "school_index": 138,
    "school_name": "Bhashyam Public School",
    "lat": 17.7412548,
    "lon": 83.3395034,
    "has_hospital": true,
    "has_police_station": true,
    "has_fire_station": false,
    "dist_hospital_km": 0.191,
    "dist_police_km": 2.013,
    "dist_fire_km": 0.0,
    "emergency_safety_index": 42.44
  },
  {
    "school_index": 139,
    "school_name": "Samata College",
    "lat": 17.7425222,
    "lon": 83.3388873,
    "has_hospital": true,
    "has_police_station": false,
    "has_fire_station": false,
    "dist_hospital_km": 0.156,
    "dist_police_km": 0.0,
    "dist_fire_km": 0.0,
    "emergency_safety_index": 18.64
  },
  {
    "school_index": 140,
    "school_name": "Mvp Public School",
    "lat": 17.7424222,
    "lon": 83.3395162,
    "has_hospital": true,
    "has_police_station": false,
    "has_fire_station": false,
    "dist_hospital_km": 0.096,
    "dist_police_km": 0.0,
    "dist_fire_km": 0.0,
    "emergency_safety_index": 18.88
  },
  {
    "school_index": 141,
    "school_name": "Iiam",
    "lat": 17.7414257,
    "lon": 83.336956,
    "has_hospital": true,
    "has_police_station": true,
    "has_fire_station": false,
    "dist_hospital_km": 0.204,
    "dist_police_km": 1.847,
    "dist_fire_km": 0.0,
    "emergency_safety_index": 43.27
  },
  {
    "school_index": 142,
    "school_name": "Visakha Valley School",
    "lat": 17.7620475,
    "lon": 83.3421637,
    "has_hospital": true,
    "has_police_station": false,
    "has_fire_station": false,
    "dist_hospital_km": 1.114,
    "dist_police_km": 0.0,
    "dist_fire_km": 0.0,
    "emergency_safety_index": 14.96
  },
  {
    "school_index": 143,
    "school_name": "Vvs School Block",
    "lat": 17.7624431,
    "lon": 83.3416323,
    "has_hospital": true,
    "has_police_station": false,
    "has_fire_station": false,
    "dist_hospital_km": 1.182,
    "dist_police_km": 0.0,
    "dist_fire_km": 0.0,
    "emergency_safety_index": 14.7
  },
  {
    "school_index": 144,
    "school_name": "Vvs School Block",
    "lat": 17.7626096,
    "lon": 83.3401689,
    "has_hospital": true,
    "has_police_station": false,
    "has_fire_station": false,
    "dist_hospital_km": 1.17,
    "dist_police_km": 0.0,
    "dist_fire_km": 0.0,
    "emergency_safety_index": 14.74
  },
  {
    "school_index": 145,
    "school_name": "Main Block",
    "lat": 17.7615031,
    "lon": 83.3432045,
    "has_hospital": true,
    "has_police_station": false,
    "has_fire_station": false,
    "dist_hospital_km": 1.004,
    "dist_police_km": 0.0,
    "dist_fire_km": 0.0,
    "emergency_safety_index": 15.38
  },
  {
    "school_index": 146,
    "school_name": "Vvs School Block",
    "lat": 17.7619903,
    "lon": 83.3427354,
    "has_hospital": true,
    "has_police_station": false,
    "has_fire_station": false,
    "dist_hospital_km": 1.076,
    "dist_police_km": 0.0,
    "dist_fire_km": 0.0,
    "emergency_safety_index": 15.1
  },
  {
    "school_index": 147,
    "school_name": "Keerthi School",
    "lat": 17.7641769,
    "lon": 83.3275732,
    "has_hospital": true,
    "has_police_station": false,
    "has_fire_station": false,
    "dist_hospital_km": 0.46,
    "dist_police_km": 0.0,
    "dist_fire_km": 0.0,
    "emergency_safety_index": 17.47
  },
  {
    "school_index": 148,
    "school_name": "Bits Vizag",
    "lat": 17.8121098,
    "lon": 83.3327191,
    "has_hospital": true,
    "has_police_station": false,
    "has_fire_station": false,
    "dist_hospital_km": 1.007,
    "dist_police_km": 0.0,
    "dist_fire_km": 0.0,
    "emergency_safety_index": 15.37
  },
  {
    "school_index": 149,
    "school_name": "Gurusthanam The Play School",
    "lat": 17.7992227,
    "lon": 83.3525701,
    "has_hospital": true,
    "has_police_station": true,
    "has_fire_station": false,
    "dist_hospital_km": 0.198,
    "dist_police_km": 0.049,
    "dist_fire_km": 0.0,
    "emergency_safety_index": 53.09
  },
  {
    "school_index": 150,
    "school_name": "Bethany School",
    "lat": 17.8047795,
    "lon": 83.3456249,
    "has_hospital": true,
    "has_police_station": true,
    "has_fire_station": false,
    "dist_hospital_km": 0.142,
    "dist_police_km": 0.939,
    "dist_fire_km": 0.0,
    "emergency_safety_index": 48.55
  },
  {
    "school_index": 151,
    "school_name": "Sri Chaitanya Educational Institutions",
    "lat": 17.8035857,
    "lon": 83.35031,
    "has_hospital": true,
    "has_police_station": true,
    "has_fire_station": false,
    "dist_hospital_km": 0.303,
    "dist_police_km": 0.504,
    "dist_fire_km": 0.0,
    "emergency_safety_index": 50.04
  },
  {
    "school_index": 152,
    "school_name": "Sri Chaitanya College",
    "lat": 17.8291992,
    "lon": 83.3341245,
    "has_hospital": false,
    "has_police_station": false,
    "has_fire_station": false,
    "dist_hospital_km": 0.0,
    "dist_police_km": 0.0,
    "dist_fire_km": 0.0,
    "emergency_safety_index": 0.0
  },
  {
    "school_index": 153,
    "school_name": "Chaitanya College",
    "lat": 17.8352851,
    "lon": 83.3281043,
    "has_hospital": false,
    "has_police_station": false,
    "has_fire_station": false,
    "dist_hospital_km": 0.0,
    "dist_police_km": 0.0,
    "dist_fire_km": 0.0,
    "emergency_safety_index": 0.0
  },
  {
    "school_index": 154,
    "school_name": "Gayatri Vidhya Parishad College Of Engineering",
    "lat": 17.8204696,
    "lon": 83.3431014,
    "has_hospital": true,
    "has_police_station": false,
    "has_fire_station": false,
    "dist_hospital_km": 1.554,
    "dist_police_km": 0.0,
    "dist_fire_km": 0.0,
    "emergency_safety_index": 13.26
  },
  {
    "school_index": 155,
    "school_name": "Gayatri College Grounds",
    "lat": 17.8227235,
    "lon": 83.3487557,
    "has_hospital": true,
    "has_police_station": false,
    "has_fire_station": false,
    "dist_hospital_km": 1.29,
    "dist_police_km": 0.0,
    "dist_fire_km": 0.0,
    "emergency_safety_index": 14.28
  },
  {
    "school_index": 156,
    "school_name": "Yodha Play Nursey School",
    "lat": 17.8249635,
    "lon": 83.3467603,
    "has_hospital": true,
    "has_police_station": false,
    "has_fire_station": false,
    "dist_hospital_km": 1.615,
    "dist_police_km": 0.0,
    "dist_fire_km": 0.0,
    "emergency_safety_index": 13.03
  },
  {
    "school_index": 157,
    "school_name": "Sri Chaitanya College And Hostel",
    "lat": 17.82599,
    "lon": 83.3469379,
    "has_hospital": true,
    "has_police_station": false,
    "has_fire_station": false,
    "dist_hospital_km": 1.594,
    "dist_police_km": 0.0,
    "dist_fire_km": 0.0,
    "emergency_safety_index": 13.11
  },
  {
    "school_index": 158,
    "school_name": "Gayatri College Of Engineering For Women",
    "lat": 17.8211894,
    "lon": 83.3496274,
    "has_hospital": true,
    "has_police_station": false,
    "has_fire_station": false,
    "dist_hospital_km": 1.097,
    "dist_police_km": 0.0,
    "dist_fire_km": 0.0,
    "emergency_safety_index": 15.02
  },
  {
    "school_index": 159,
    "school_name": "Apswr Centre Of Excellence",
    "lat": 17.8196081,
    "lon": 83.3500394,
    "has_hospital": true,
    "has_police_station": false,
    "has_fire_station": false,
    "dist_hospital_km": 0.93,
    "dist_police_km": 0.0,
    "dist_fire_km": 0.0,
    "emergency_safety_index": 15.67
  },
  {
    "school_index": 160,
    "school_name": "Zilla Parishad High School",
    "lat": 17.8182559,
    "lon": 83.3560925,
    "has_hospital": true,
    "has_police_station": false,
    "has_fire_station": false,
    "dist_hospital_km": 0.573,
    "dist_police_km": 0.0,
    "dist_fire_km": 0.0,
    "emergency_safety_index": 17.04
  },
  {
    "school_index": 161,
    "school_name": "Vishwa Bharathi School",
    "lat": 17.8225365,
    "lon": 83.3506876,
    "has_hospital": true,
    "has_police_station": false,
    "has_fire_station": false,
    "dist_hospital_km": 1.168,
    "dist_police_km": 0.0,
    "dist_fire_km": 0.0,
    "emergency_safety_index": 14.75
  },
  {
    "school_index": 162,
    "school_name": "Vijayam School",
    "lat": 17.8252874,
    "lon": 83.3493119,
    "has_hospital": true,
    "has_police_station": false,
    "has_fire_station": false,
    "dist_hospital_km": 1.394,
    "dist_police_km": 0.0,
    "dist_fire_km": 0.0,
    "emergency_safety_index": 13.88
  },
  {
    "school_index": 163,
    "school_name": "Sri Chaitanya Vidya Nikethan Cbse Boys",
    "lat": 17.8338153,
    "lon": 83.3561481,
    "has_hospital": true,
    "has_police_station": false,
    "has_fire_station": false,
    "dist_hospital_km": 0.61,
    "dist_police_km": 0.0,
    "dist_fire_km": 0.0,
    "emergency_safety_index": 16.9
  },
  {
    "school_index": 164,
    "school_name": "Aptwsr Gurukulam Prathibha Junior College",
    "lat": 17.8337341,
    "lon": 83.3548097,
    "has_hospital": true,
    "has_police_station": false,
    "has_fire_station": false,
    "dist_hospital_km": 0.731,
    "dist_police_km": 0.0,
    "dist_fire_km": 0.0,
    "emergency_safety_index": 16.43
  },
  {
    "school_index": 165,
    "school_name": "Sun Institution",
    "lat": 17.7689988,
    "lon": 83.3636769,
    "has_hospital": true,
    "has_police_station": false,
    "has_fire_station": false,
    "dist_hospital_km": 0.768,
    "dist_police_km": 0.0,
    "dist_fire_km": 0.0,
    "emergency_safety_index": 16.29
  },
  {
    "school_index": 166,
    "school_name": "Gayatri University",
    "lat": 17.7774665,
    "lon": 83.3766952,
    "has_hospital": true,
    "has_police_station": false,
    "has_fire_station": false,
    "dist_hospital_km": 0.83,
    "dist_police_km": 0.0,
    "dist_fire_km": 0.0,
    "emergency_safety_index": 16.05
  },
  {
    "school_index": 167,
    "school_name": "Gitam University",
    "lat": 17.7815504,
    "lon": 83.3772852,
    "has_hospital": true,
    "has_police_station": false,
    "has_fire_station": false,
    "dist_hospital_km": 0.445,
    "dist_police_km": 0.0,
    "dist_fire_km": 0.0,
    "emergency_safety_index": 17.53
  },
  {
    "school_index": 168,
    "school_name": "Gitam Medical College",
    "lat": 17.7850093,
    "lon": 83.3760855,
    "has_hospital": true,
    "has_police_station": false,
    "has_fire_station": false,
    "dist_hospital_km": 0.156,
    "dist_police_km": 0.0,
    "dist_fire_km": 0.0,
    "emergency_safety_index": 18.64
  },
  {
    "school_index": 169,
    "school_name": "Gandhi Instute Of Technology Gitam",
    "lat": 17.7829371,
    "lon": 83.3771687,
    "has_hospital": true,
    "has_police_station": false,
    "has_fire_station": false,
    "dist_hospital_km": 0.329,
    "dist_police_km": 0.0,
    "dist_fire_km": 0.0,
    "emergency_safety_index": 17.98
  },
  {
    "school_index": 170,
    "school_name": "Anganavadi School",
    "lat": 17.8396073,
    "lon": 83.3634321,
    "has_hospital": true,
    "has_police_station": false,
    "has_fire_station": false,
    "dist_hospital_km": 0.995,
    "dist_police_km": 0.0,
    "dist_fire_km": 0.0,
    "emergency_safety_index": 15.42
  },
  {
    "school_index": 171,
    "school_name": "Geo Engineering Department",
    "lat": 17.7267444,
    "lon": 83.3210011,
    "has_hospital": true,
    "has_police_station": true,
    "has_fire_station": false,
    "dist_hospital_km": 0.066,
    "dist_police_km": 0.571,
    "dist_fire_km": 0.0,
    "emergency_safety_index": 50.97
  }
]